,wban,dewpt,tavg,wp,long,lat,stname,ststate
0,03013,34.8,55.8,201.0,-102.688,38.070,LAMAR,CO
1,03016,33.0,49.4,250.3,-107.726,39.526,RIFLE,CO
2,03017,28.8,53.5,160.3,-104.658,39.833,DENVER,CO
3,03024,39.0,64.5,164.0,-101.394,35.700,BORGER,TX
4,03026,34.0,54.4,206.6,-102.284,39.245,BURLINGTON,CO
5,03027,24.0,53.3,119.0,-105.663,35.003,CLINES CORNERS,NM
6,03028,33.3,57.2,172.0,-102.614,37.283,SPRINGFIELD,CO
7,03029,23.2,48.1,152.9,-109.061,35.658,WINDOW ROCK,AZ
8,03030,36.9,61.7,167.7,-101.505,36.682,GUYMON,OK
9,03031,43.1,69.4,161.6,-102.387,31.921,ODESSA,TX
10,03032,47.3,72.2,177.6,-102.213,30.048,DRYDEN,TX
11,03102,42.0,68.8,156.6,-117.600,34.056,ONTARIO,CA
12,03103,25.2,47.7,177.0,-111.672,35.140,FLAGSTAFF,AZ
13,03104,38.3,73.0,98.7,-116.160,33.628,PALM SPRINGS,CA
14,03124,31.0,66.5,87.0,-110.344,31.588,FORT HUACHUCA/SIERRA VISTA,AZ
15,03131,46.1,66.6,217.0,-117.139,32.816,SAN DIEGO,CA
16,03144,38.8,75.2,89.4,-115.579,32.834,IMPERIAL,CA
17,03145,37.7,76.4,75.9,-114.617,32.650,YUMA,AZ
18,03154,45.6,62.7,254.0,-117.350,33.300,CAMP PENDLETON,CA
19,03159,31.5,61.3,123.3,-118.219,34.741,LANCASTER,CA
20,03160,27.9,62.4,89.4,-116.028,36.621,MERCURY,NV
21,03162,27.4,58.6,109.8,-111.448,36.926,PAGE,AZ
22,03166,46.9,69.7,195.5,-117.979,33.872,FULLERTON,CA
23,03167,49.9,69.8,226.9,-118.334,33.923,HAWTHORNE,CA
24,03170,24.3,45.7,186.8,-116.006,39.601,EUREKA,NV
25,03177,47.0,66.1,232.5,-117.279,33.128,CARLSBAD,CA
26,03178,46.0,66.1,221.4,-116.979,32.572,SAN DIEGO,CA
27,03179,43.8,66.8,190.5,-117.636,33.975,CHINO,CA
28,03184,30.4,75.5,40.8,-112.082,33.688,PHOENIX,AZ
29,03192,34.1,75.5,59.9,-111.911,33.623,SCOTTSDALE,AZ
30,03195,22.5,46.5,160.3,-112.155,35.946,GRAND CANYON,AZ
31,03196,34.2,66.4,109.8,-110.846,31.421,NOGALES,AZ
32,03749,49.1,61.0,323.7,-77.468,39.645,CAMP DAVID,MD
33,03757,55.2,66.3,339.1,-76.429,38.142,ST INIGOES,MD
34,03802,48.6,60.3,326.1,-80.229,39.296,CLARKSBURG,WV
35,03804,50.3,61.3,337.2,-81.439,39.345,PARKERSBURG,WV
36,03810,51.7,64.3,315.7,-81.390,35.741,HICKORY,NC
37,03811,53.7,64.0,350.2,-88.917,35.593,JACKSON,TN
38,03812,49.9,59.6,356.3,-82.538,35.432,ASHEVILLE,NC
39,03813,56.7,67.4,346.5,-83.654,32.688,MACON,GA
40,03816,51.0,62.7,328.0,-88.774,37.056,PADUCAH,KY
41,03818,59.0,71.5,322.4,-85.184,30.836,MARIANNA,FL
42,03820,58.4,69.6,340.3,-81.965,33.370,AUGUSTA,GA
43,03822,63.9,71.6,396.4,-81.202,32.119,SAVANNAH,GA
44,03847,49.9,61.9,322.4,-85.085,35.951,CROSSVILLE,TN
45,03849,49.7,62.2,315.7,-84.077,37.087,LONDON,KY
46,03855,60.1,72.0,331.7,-87.317,30.350,PENSACOLA,FL
47,03856,53.4,66.2,314.4,-86.786,34.644,HUNTSVILLE,AL
48,03859,45.9,62.4,260.8,-81.208,37.296,BLUEFIELD,WV
49,03860,49.3,61.9,313.8,-82.555,38.382,HUNTINGTON,WV
50,03866,56.4,67.0,347.7,-88.567,32.550,MERIDIAN,MS
51,03868,49.6,60.3,341.6,-87.309,39.452,TERRE HAUTE,IN
52,03870,52.0,66.6,289.8,-82.219,34.899,GREER,SC
53,03872,46.9,59.2,316.3,-81.125,37.795,BECKLEY,WV
54,03878,56.5,66.5,356.3,-86.012,31.861,TROY,AL
55,03882,61.8,73.2,339.7,-85.683,30.212,PANAMA CITY,FL
56,03887,48.7,61.8,306.4,-88.866,39.984,DECATUR,IL
57,03888,53.4,65.5,323.7,-84.521,33.779,ATLANTA,GA
58,03889,48.3,63.4,280.5,-83.314,37.591,JACKSON,KY
59,03893,49.3,59.7,345.3,-86.617,39.144,BLOOMINGTON,IN
60,03894,51.5,63.4,325.5,-87.415,36.622,CLARKSVILLE,TN
61,03901,54.9,68.3,307.7,-94.711,32.385,LONGVIEW,TX
62,03902,50.7,70.8,225.7,-97.822,31.070,FORT HOOD/KILLEEN,TX
63,03904,58.0,72.2,299.6,-96.364,30.588,COLLEGE STATION,TX
64,03919,46.4,59.9,299.0,-97.661,38.813,SALINA,KS
65,03927,54.2,72.1,252.2,-97.041,32.896,DALLAS-FORT WORTH,TX
66,03928,47.2,61.4,291.0,-97.429,37.647,WICHITA,KS
67,03931,57.7,70.3,320.6,-93.192,31.045,FORT POLK,LA
68,03932,45.8,65.4,226.3,-99.200,35.340,CLINTON,OK
69,03933,52.8,72.9,227.5,-97.713,31.134,FORT HOOD (KILLEEN),TX
70,03935,51.5,61.5,353.3,-89.571,37.225,CAPE GIRARDEAU,MO
71,03936,46.5,58.5,320.0,-96.678,39.135,MANHATTAN,KS
72,03937,58.2,72.0,304.6,-93.228,30.125,LAKE CHARLES,LA
73,03940,56.2,67.7,334.2,-90.078,32.320,JACKSON,MS
74,03945,47.9,60.7,310.1,-92.218,38.817,COLUMBIA,MO
75,03947,47.3,59.6,316.3,-94.718,39.299,KANSAS CITY,MO
76,03949,57.1,68.6,334.8,-93.283,31.400,FORT POLK,LA
77,03950,50.5,66.7,268.8,-98.416,34.568,LAWTON,OK
78,03953,53.5,64.2,344.0,-90.646,35.831,JONESBORO,AR
79,03954,50.2,64.6,290.4,-97.647,35.534,OKLAHOMA CITY,OK
80,03957,45.0,61.9,255.3,-98.553,37.284,MEDICINE LODGE,KS
81,03960,48.8,61.4,313.2,-90.157,38.571,CAHOKIA/ST.LOUIS,IL
82,03962,54.0,65.7,329.8,-93.096,34.478,HOT SPRINGS,AR
83,03963,48.6,61.4,310.7,-92.156,38.591,JEFFERSON CITY,MO
84,03965,50.5,63.9,304.0,-97.086,36.160,STILLWATER,OK
85,03966,47.9,61.1,304.6,-90.656,38.657,ST LOUIS,MO
86,03967,48.0,60.0,321.2,-94.739,38.850,OLATHE,KS
87,03971,54.5,69.7,284.2,-96.868,32.681,DALLAS,TX
88,03974,47.0,60.9,294.7,-97.219,37.750,WICHITA,KS
89,03975,51.5,62.3,340.9,-90.325,36.773,POPLAR BLUFF,MO
90,03981,47.7,67.9,222.0,-98.984,34.352,FREDERICK,OK
91,03991,53.5,68.7,283.6,-97.199,33.206,DENTON,TX
92,03994,47.4,60.3,308.3,-93.183,38.704,SEDALIA,MO
93,03996,56.9,66.5,362.5,-91.030,32.348,TALLULAH/VICKSBURG,MS
94,03997,47.9,58.3,344.6,-95.212,39.008,LAWRENCE,KS
95,03998,49.7,61.2,329.8,-95.504,37.328,PARSONS,KS
96,03999,53.4,70.6,259.6,-98.235,30.741,BURNET,TX
97,04109,43.1,49.6,405.7,-115.596,46.144,ELK CITY,ID
98,04110,33.7,47.5,284.8,-114.456,42.727,JEROME,ID
99,04111,25.8,44.3,218.9,-111.031,41.273,EVANSTON,WY
100,04112,27.9,37.3,345.9,-114.927,44.171,STANLEY,ID
101,04113,39.0,50.5,321.2,-119.261,45.826,HERMISTON,OR
102,04114,29.5,43.1,283.6,-114.215,41.523,CHALLIS,ID
103,04134,29.4,51.0,189.9,-113.351,40.161,DUGWAY PROVING GROUND,UT
104,04201,44.6,51.6,397.6,-122.861,45.773,SCAPPOOSE,OR
105,04724,49.4,57.8,376.7,-78.945,43.107,NIAGARA FALLS,NY
106,04725,48.2,56.8,373.0,-75.981,42.208,BINGHAMTON,NY
107,04726,45.7,46.8,514.8,-78.834,40.301,JOHNSTOWN,PA
108,04751,45.2,52.7,389.6,-78.640,41.803,BRADFORD,PA
109,04780,46.7,56.1,359.4,-71.756,42.552,FITCHBURG,MA
110,04781,52.5,61.1,375.5,-73.102,40.794,ISLIP,NY
111,04787,46.6,56.8,346.5,-78.899,41.178,DU BOIS,PA
112,04789,49.5,57.6,381.6,-74.265,41.509,MONTGOMERY,NY
113,04803,41.6,50.2,368.7,-89.465,45.631,RHINELANDER,WI
114,04804,48.6,60.0,330.5,-83.078,40.078,COLUMBUS,OH
115,04808,47.0,57.6,340.9,-88.481,41.770,CHICAGO/AURORA,IL
116,04826,44.1,53.3,360.7,-89.837,44.359,WISCONSIN RAPIDS,WI
117,04836,38.3,46.6,371.8,-68.307,47.286,FRENCHVILLE,ME
118,04838,47.5,58.7,332.3,-87.905,42.121,CHICAGO/PROSPECT HGTS/WHEELI,IL
119,04839,48.4,58.3,352.7,-86.097,42.746,HOLLAND,MI
120,04840,45.4,55.9,341.6,-88.486,43.770,FOND DU LAC,WI
121,04841,46.1,54.7,371.8,-87.851,43.769,SHEBOYGAN,WI
122,04842,48.0,58.6,341.6,-81.887,40.875,WOOSTER,OH
123,04843,47.3,57.8,342.8,-80.215,41.626,MEADVILLE,PA
124,04845,47.2,57.2,350.2,-87.938,42.595,KENOSHA,WI
125,04846,48.4,58.8,344.6,-87.006,41.453,VALPARAISO,IN
126,04847,48.4,57.7,361.9,-84.079,41.868,ADRIAN,MI
127,04848,48.2,61.2,307.7,-83.476,41.563,TOLEDO,OH
128,04849,48.7,59.7,336.0,-82.179,41.179,LORAIN/ELYRIA,OH
129,04850,48.9,60.1,333.5,-84.027,40.708,LIMA,OH
130,04851,49.2,59.1,353.3,-84.429,41.338,DEFIANCE,OH
131,04852,48.2,60.5,316.9,-81.420,40.470,NEW PHILADELPHIA,OH
132,04853,48.3,52.3,455.0,-81.684,41.518,CLEVELAND,OH
133,04854,44.0,52.2,376.7,-84.701,45.013,GAYLORD,MI
134,04855,48.5,59.4,337.2,-83.064,40.616,MARION,OH
135,04857,48.4,57.7,361.9,-80.696,41.778,ASHTABULA,OH
136,04858,49.5,58.7,364.4,-82.463,40.023,NEWARK,OH
140,12812,69.8,80.0,361.9,-81.991,26.917,PUNTA GORDA,FL
141,12815,70.8,78.5,400.1,-81.325,28.434,ORLANDO,FL
142,12816,65.8,74.0,389.6,-82.272,29.690,GAINESVILLE,FL
143,12818,67.6,77.1,371.1,-82.454,28.474,BROOKSVILLE,FL
144,12819,67.9,78.5,355.1,-81.810,28.821,LEESBURG,FL
145,12832,64.4,74.1,366.2,-85.033,29.733,APALACHICOLA,FL
146,12833,65.3,73.5,389.6,-83.105,29.550,CROSS CITY,FL
147,12834,68.0,78.1,362.5,-81.060,29.177,DAYTONA BEACH,FL
148,12835,70.4,81.2,353.9,-81.864,26.586,FORT MYERS,FL
149,12836,73.3,83.5,364.4,-81.754,24.553,KEY WEST,FL
150,12838,70.6,80.8,362.5,-80.646,28.103,MELBOURNE,FL
151,12839,71.5,81.5,366.2,-80.300,25.824,MIAMI,FL
152,12841,67.8,78.9,348.3,-81.333,28.545,ORLANDO,FL
153,12842,68.5,79.8,345.9,-82.540,27.961,TAMPA,FL
154,12843,72.1,80.2,394.6,-80.418,27.656,VERO BEACH,FL
155,12844,72.3,80.6,391.5,-80.099,26.685,WEST PALM BEACH,FL
156,12849,71.4,82.6,349.0,-80.154,26.072,FORT LAUDERDALE,FL
157,12854,67.7,78.6,350.8,-81.244,28.780,ORLANDO,FL
158,12871,69.8,80.4,356.3,-82.559,27.401,SARASOTA/BRADENTON,FL
159,12873,70.6,80.0,374.2,-82.688,27.911,ST PETERSBURG/CLEARWATER,FL
160,12876,69.1,78.9,367.4,-81.754,28.062,WINTER HAVEN,FL
161,12882,72.8,81.4,387.2,-80.280,25.907,MIAMI,FL
162,12884,64.5,74.6,360.0,-89.408,29.350,BOOTHVILLE,LA
163,12885,71.5,81.3,368.7,-80.171,26.197,FORT LAUDERDALE,FL
164,12888,72.2,80.6,390.3,-80.433,25.648,MIAMI,FL
165,12894,70.0,80.4,359.4,-81.755,26.536,FORT MYERS,FL
166,12895,71.6,80.4,383.5,-80.377,27.498,FORT PIERCE,FL
167,12896,72.9,82.5,372.4,-81.052,24.726,MARATHON,FL
168,12897,71.3,82.1,354.5,-81.775,26.153,NAPLES,FL
169,12904,63.6,76.1,326.1,-97.654,26.228,HARLINGEN,TX
170,12912,61.3,72.8,337.9,-96.930,28.863,VICTORIA,TX
171,12916,62.9,72.1,372.4,-90.251,29.993,NEW ORLEANS,LA
172,12917,59.5,71.7,327.4,-94.021,29.951,BEAUMONT/PORT ARTHUR,TX
173,12918,60.2,74.2,304.0,-95.279,29.645,HOUSTON,TX
174,12919,64.6,76.9,329.2,-97.426,25.906,BROWNSVILLE,TX
175,12921,57.4,73.1,280.5,-98.464,29.533,SAN ANTONIO,TX
176,12923,63.4,75.4,332.9,-94.860,29.265,GALVESTON,TX
177,12924,63.8,74.8,346.5,-97.513,27.773,CORPUS CHRISTI,TX
178,12926,64.5,77.7,317.5,-97.283,27.700,CORPUS CHRISTI,TX
179,12928,61.6,74.5,319.4,-97.817,27.500,KINGSVILLE,TX
180,12932,60.5,74.8,300.3,-98.027,27.741,ALICE,TX
181,12935,62.2,73.4,342.8,-96.251,28.728,PALACIOS,TX
182,12947,59.2,74.2,290.4,-99.220,28.458,COTULLA,TX
183,12957,65.7,76.3,353.9,-97.346,26.166,PORT ISABEL,TX
184,12958,63.3,68.1,445.1,-90.033,29.833,NEW ORLEANS,LA
185,12959,62.2,77.6,287.9,-98.238,26.175,MC ALLEN,TX
186,12960,59.7,73.0,312.6,-95.364,29.993,HOUSTON,TX
187,12962,54.4,71.0,267.6,-99.174,29.359,HONDO,TX
188,12968,61.8,72.4,351.4,-91.526,29.562,SALT POINT,LA
189,12970,57.2,72.9,280.5,-98.471,29.337,SAN ANTONIO,TX
190,12971,56.0,71.9,276.8,-98.045,29.709,NEW BRAUNFELS,TX
191,12972,64.9,77.5,325.5,-97.046,28.084,ROCKPORT,TX
192,12975,60.3,72.6,326.1,-95.240,29.521,HOUSTON,TX
193,12976,61.1,71.3,356.3,-95.462,29.110,ANGLETON/LAKE JACKSON,TX
194,12977,60.2,72.4,327.4,-95.656,29.622,HOUSTON,TX
195,13721,55.6,66.6,340.9,-76.400,38.283,PATUXENT RIVER,MD
196,13722,55.2,67.4,323.7,-78.786,35.871,RALEIGH/DURHAM,NC
197,13723,51.5,66.0,290.4,-79.944,36.098,GREENSBORO,NC
198,13728,53.0,65.2,322.4,-79.336,36.573,DANVILLE,VA
199,13729,47.5,56.7,363.1,-79.853,38.885,ELKINS,WV
200,13733,52.0,61.8,356.3,-79.207,37.338,LYNCHBURG,VA
201,13734,51.0,60.7,357.6,-77.984,39.402,MARTINSBURG,WV
202,13735,55.3,62.4,402.0,-75.078,39.366,MILLVILLE,NJ
203,13736,48.6,61.3,312.0,-79.916,39.643,MORGANTOWN,WV
204,13737,58.8,69.1,353.3,-76.192,36.904,NORFOLK,VA
205,13739,53.4,64.5,337.9,-75.231,39.868,PHILADELPHIA,PA
206,13740,54.2,66.9,316.3,-77.323,37.511,RICHMOND,VA
207,13741,49.4,63.6,292.9,-79.974,37.317,ROANOKE,VA
208,13743,53.9,67.1,309.5,-77.034,38.865,WASHINGTON,DC
209,13744,58.3,69.8,336.0,-79.731,34.188,FLORENCE,SC
210,13748,60.4,70.6,356.3,-77.906,34.268,WILMINGTON,NC
211,13750,56.8,73.2,271.9,-76.283,36.933,NORFOLK,VA
212,13752,56.6,65.0,381.0,-76.483,38.991,ANNAPOLIS,MD
213,13754,61.9,70.4,382.9,-76.883,34.900,CHERRY POINT,NC
214,13764,56.7,64.5,390.9,-75.359,38.689,GEORGETOWN,DE
215,13769,58.0,68.4,351.4,-76.033,36.817,OCEANA,VA
216,13773,55.8,64.1,382.2,-77.300,38.500,QUANTICO,VA
217,13776,58.3,69.2,344.6,-79.059,34.610,LUMBERTON,NC
218,13781,54.0,63.5,362.5,-75.601,39.673,WILMINGTON,DE
219,13786,59.6,68.4,376.7,-76.175,36.261,ELIZABETH CITY,NC
220,13809,49.4,63.2,297.8,-87.606,38.764,LAWRENCEVILLE,IL
221,13810,50.3,63.8,302.7,-85.664,38.228,LOUISVILLE,KY
222,13833,57.6,69.3,332.3,-89.253,31.265,HATTIESBURG,MS
223,13837,56.7,71.0,297.2,-82.039,33.467,AUGUSTA,GA
224,13838,59.8,71.9,328.6,-88.068,30.626,MOBILE,AL
225,13839,58.1,70.4,324.9,-85.450,31.321,DOTHAN,AL
226,13841,48.5,60.6,320.0,-83.822,39.420,WILMINGTON,OH
227,13865,57.1,66.7,363.1,-88.751,32.333,MERIDIAN,MS
228,13866,50.3,62.6,318.7,-81.591,38.379,CHARLESTON,WV
229,13869,59.0,71.6,321.2,-84.194,31.536,ALBANY,GA
230,13870,61.1,71.9,347.7,-82.507,31.536,ALMA,GA
231,13871,54.5,67.0,319.4,-85.858,33.588,ANNISTON,AL
232,13873,53.8,66.5,316.3,-83.327,33.948,ATHENS,GA
233,13874,53.8,66.0,323.1,-84.427,33.640,ATLANTA,GA
234,13876,54.3,67.8,305.8,-86.754,33.564,BIRMINGHAM,AL
235,13877,49.1,62.5,302.7,-82.399,36.480,BRISTOL/JHNSN CTY/KNGSPRT,TN
236,13878,65.7,73.4,397.6,-81.391,31.252,BRUNSWICK,GA
237,13880,62.3,71.6,370.5,-80.041,32.899,CHARLESTON,SC
238,13881,53.0,66.1,310.1,-80.944,35.214,CHARLOTTE,NC
239,13882,53.3,66.3,311.4,-85.200,35.033,CHATTANOOGA,TN
240,13883,56.6,69.2,319.4,-81.118,33.942,COLUMBIA,SC
241,13884,59.4,69.7,353.9,-86.523,30.780,CRESTVIEW,FL
242,13886,52.0,66.4,292.2,-82.346,34.846,GREENVILLE,SC
243,13889,66.7,73.7,409.4,-81.693,30.494,JACKSONVILLE,FL
244,13891,51.4,65.1,300.9,-83.986,35.818,KNOXVILLE,TN
245,13893,54.3,68.6,295.3,-89.985,35.061,MEMPHIS,TN
246,13894,58.5,70.0,336.0,-88.246,30.688,MOBILE,AL
247,13895,56.2,68.9,317.5,-86.394,32.301,MONTGOMERY,AL
248,13896,53.6,65.5,326.8,-87.610,34.745,MUSCLE SHOALS,AL
249,13897,52.2,65.5,306.4,-86.689,36.119,NASHVILLE,TN
250,13899,60.3,71.8,337.2,-87.188,30.473,PENSACOLA,FL
251,13904,56.2,70.1,302.1,-97.681,30.179,AUSTIN/BERGSTROM,TX
252,13911,53.3,70.9,254.6,-97.441,32.769,FORT WORTH,TX
253,13920,47.8,54.3,408.1,-95.664,38.950,TOPEKA,KS
254,13927,57.1,68.8,332.3,-90.223,32.335,JACKSON,MS
255,13932,48.9,61.9,308.3,-97.037,37.168,WINFIELD/ARKANSAS CITY,KS
256,13935,57.8,67.7,358.8,-92.296,31.395,ALEXANDRIA,LA
257,13939,55.5,67.6,325.5,-90.986,33.483,GREENVILLE,MS
258,13942,56.9,67.5,347.7,-92.038,32.511,MONROE,LA
259,13957,55.0,69.7,291.0,-93.824,32.447,SHREVEPORT,LA
260,13958,55.4,74.0,246.0,-97.767,30.317,AUSTIN/CITY,TX
261,13959,54.5,70.4,275.6,-97.229,31.611,WACO,TX
262,13960,55.0,70.6,279.9,-96.851,32.847,DALLAS,TX
263,13961,53.1,69.2,271.9,-97.361,32.819,FORT WORTH,TX
264,13962,49.0,68.7,228.1,-99.682,32.411,ABILENE,TX
265,13963,54.1,65.7,331.7,-92.233,34.747,LITTLE ROCK,AR
266,13964,54.3,66.5,323.1,-94.365,35.334,FORT SMITH,AR
267,13966,49.3,69.7,221.4,-98.493,33.979,WICHITA FALLS,TX
268,13967,50.4,65.5,281.8,-97.600,35.389,OKLAHOMA CITY,OK
269,13968,52.0,64.8,313.2,-95.886,36.198,TULSA,OK
270,13969,50.9,63.0,321.8,-97.100,36.731,PONCA CITY,OK
271,13970,59.7,71.0,339.7,-91.147,30.537,BATON ROUGE,LA
272,13971,50.1,62.5,317.5,-93.155,36.261,HARRISON,AR
273,13972,54.7,69.1,294.1,-95.402,32.354,TYLER,TX
274,13973,50.1,68.3,245.4,-99.766,30.511,JUNCTION,TX
275,13975,42.5,61.8,226.3,-99.775,36.297,GAGE,OK
276,13976,59.6,71.8,327.4,-91.988,30.205,LAFAYETTE,LA
277,13977,55.1,66.7,332.3,-94.008,33.454,TEXARKANA,AR
278,13978,56.4,66.5,355.1,-90.084,33.496,GREENWOOD,MS
279,13981,48.7,61.0,317.5,-95.484,37.670,CHANUTE,KS
280,13984,46.5,58.1,325.5,-97.652,39.549,CONCORDIA,KS
281,13985,39.6,60.2,210.3,-99.970,37.773,DODGE CITY,KS
282,13986,45.5,59.2,295.9,-97.861,38.068,HUTCHINSON,KS
283,13987,50.3,62.4,321.8,-94.498,37.149,JOPLIN,MO
284,13988,47.7,61.6,295.3,-94.593,39.123,KANSAS CITY,MO
285,13989,47.1,59.8,310.7,-96.190,38.331,EMPORIA,KS
286,13993,47.0,58.2,332.3,-94.907,39.774,ST JOSEPH,MO
287,13994,48.4,63.1,285.5,-90.374,38.753,ST LOUIS,MO
288,13995,49.3,60.8,329.2,-93.390,37.240,SPRINGFIELD,MO
289,13996,47.4,60.0,312.6,-95.626,39.073,TOPEKA,KS
290,13997,48.5,60.0,328.6,-91.769,38.128,ROLLA/VICHY,MO
291,14605,43.8,53.4,353.9,-69.797,44.321,AUGUSTA,ME
292,14606,42.6,51.8,359.4,-68.824,44.808,BANGOR,ME
293,14607,39.5,47.7,374.2,-68.033,46.867,CARIBOU,ME
294,14609,40.4,47.9,386.6,-67.792,46.123,HOULTON,ME
295,14610,40.8,50.9,344.0,-68.686,45.648,MILLINOCKET,ME
296,14611,44.8,52.7,382.2,-69.933,43.900,BRUNSWICK,ME
297,14702,47.6,55.8,379.2,-71.289,42.470,BEDFORD,MA
298,14707,51.9,59.2,396.4,-72.049,41.328,GROTON NEW LONDON,CT
299,14710,47.0,56.3,360.7,-71.438,42.933,MANCHESTER,NH
300,14711,53.1,62.0,371.1,-76.763,40.194,HARRISBURG,PA
301,14712,51.3,61.5,350.2,-75.959,40.373,READING,PA
302,14719,51.7,58.8,400.1,-72.632,40.844,WESTHAMPTON BEACH,NY
303,14732,52.4,65.5,309.5,-73.881,40.779,NEW YORK,NY
304,14733,48.8,58.8,351.4,-78.736,42.941,BUFFALO,NY
305,14734,52.1,63.5,332.9,-74.169,40.716,NEWARK,NJ
306,14735,48.1,56.8,371.1,-73.803,42.748,ALBANY,NY
307,14736,49.3,57.9,373.6,-78.317,40.300,ALTOONA,PA
308,14737,51.2,60.8,358.8,-75.449,40.651,ALLENTOWN,PA
309,14739,48.6,59.2,342.2,-71.011,42.361,BOSTON,MA
310,14740,49.5,59.7,349.0,-72.683,41.938,WINDSOR LOCKS,CT
311,14742,44.5,54.1,354.5,-73.150,44.468,BURLINGTON,VT
312,14745,45.9,54.2,376.7,-71.501,43.195,CONCORD,NH
313,14747,48.9,57.2,377.9,-79.272,42.493,DUNKIRK,NY
314,14750,47.3,52.4,433.4,-73.610,43.341,GLENS FALLS,NY
315,14751,51.6,58.1,410.0,-76.851,40.217,HARRISBURG,PA
316,14752,50.2,60.4,349.0,-72.651,41.736,HARTFORD,CT
317,14753,47.9,58.1,347.7,-71.115,42.212,MILTON,MA
318,14756,51.7,57.7,419.2,-70.061,41.253,NANTUCKET,MA
319,14757,50.8,58.0,397.6,-73.884,41.627,POUGHKEEPSIE,NY
320,14758,52.3,60.1,388.4,-72.887,41.264,NEW HAVEN,CT
321,14762,48.4,60.0,327.4,-79.922,40.355,PITTSBURGH,PA
322,14763,47.7,55.1,392.7,-73.289,42.427,PITTSFIELD,MA
323,14764,45.7,53.7,381.0,-70.304,43.642,PORTLAND,ME
324,14765,49.7,59.6,353.3,-71.433,41.722,PROVIDENCE,RI
325,14768,48.5,58.0,358.8,-77.677,43.117,ROCHESTER,NY
326,14770,50.3,58.7,377.3,-76.864,40.821,SELINSGROVE,PA
327,14771,48.6,58.0,360.7,-76.103,43.109,SYRACUSE,NY
328,14775,47.9,56.2,377.9,-72.716,42.158,WESTFIELD/SPRINGFIELD,MA
329,14777,48.8,59.0,348.3,-75.727,41.339,WILKES-BARRE/SCRANTON,PA
330,14778,49.1,59.4,347.1,-76.922,41.243,WILLIAMSPORT,PA
331,14787,51.3,58.7,394.6,-71.284,41.530,NEWPORT,RI
332,14792,52.8,62.4,360.0,-74.814,40.277,TRENTON,NJ
333,14793,50.7,61.9,334.8,-75.150,40.200,WILLOW GROVE,PA
334,14794,51.4,58.0,408.1,-71.799,41.350,WESTERLY,RI
335,14813,48.3,59.0,340.3,-81.464,41.038,AKRON,OH
336,14815,48.4,57.2,369.9,-85.251,42.308,BATTLE CREEK,MI
337,14819,47.1,60.2,305.2,-87.752,41.786,CHICAGO,IL
338,14820,47.1,60.2,305.2,-81.853,41.405,CLEVELAND,OH
339,14821,49.5,62.1,313.8,-82.881,39.991,COLUMBUS,OH
340,14822,48.3,59.8,328.6,-83.010,42.409,DETROIT,MI
341,14825,48.3,60.4,320.0,-83.669,41.014,FINDLAY,OH
342,14826,47.0,57.3,345.3,-83.749,42.967,FLINT,MI
343,14827,48.2,59.7,328.6,-85.206,41.006,FORT WAYNE,IN
344,14829,48.7,58.6,352.7,-85.792,41.527,GOSHEN,IN
345,14833,47.5,57.1,356.3,-84.459,42.260,JACKSON,MI
346,14835,48.7,60.9,318.7,-86.937,40.412,LAFAYETTE,IN
347,14836,47.5,56.5,366.2,-84.579,42.780,LANSING,MI
348,14837,46.2,56.4,346.5,-89.345,43.141,MADISON,WI
349,14839,47.3,58.1,337.9,-87.897,42.947,MILWAUKEE,WI
350,14840,47.8,57.0,363.1,-86.237,43.171,MUSKEGON,MI
351,14841,45.3,53.0,385.9,-84.796,45.571,PELLSTON,MI
352,14842,47.1,59.9,309.5,-89.684,40.668,PEORIA,IL
353,14845,46.6,56.8,346.5,-84.080,43.533,SAGINAW,MI
354,14847,44.6,50.9,410.0,-84.367,46.467,SAULT STE MARIE,MI
355,14848,47.9,59.0,334.2,-86.333,41.707,SOUTH BEND,IN
356,14850,45.9,56.0,347.7,-85.583,44.741,TRAVERSE CITY,MI
357,14852,47.4,58.4,335.4,-80.674,41.254,YOUNGSTOWN/WARREN,OH
358,14853,47.9,57.3,360.0,-83.230,42.237,DETROIT,MI
359,14858,41.6,48.9,390.9,-88.506,47.169,HANCOCK,MI
360,14860,49.0,61.1,320.6,-80.183,42.080,ERIE,PA
361,14880,47.8,57.5,355.1,-87.868,42.422,CHICAGO/WAUKEGAN,IL
362,14891,48.0,58.6,341.6,-82.518,40.820,MANSFIELD,OH
363,14894,47.1,60.3,304.0,-80.647,40.176,WHEELING,WV
364,14895,47.8,58.2,344.6,-81.443,40.918,AKRON,OH
365,14897,43.5,52.3,366.8,-89.627,44.929,WAUSAU,WI
366,14898,45.6,54.8,361.3,-88.120,44.513,GREEN BAY,WI
367,14910,40.9,49.5,368.1,-95.393,45.883,ALEXANDRIA,MN
368,14913,38.5,47.7,357.0,-92.194,46.844,DULUTH,MN
369,14914,39.9,50.0,343.4,-96.811,46.925,FARGO,ND
370,14916,37.4,47.0,349.6,-97.176,47.949,GRAND FORKS,ND
371,14918,37.7,44.4,399.5,-93.403,48.566,INTERNATIONAL FALLS,MN
372,14919,36.8,47.0,339.7,-98.678,46.930,JAMESTOWN,ND
373,14920,45.6,56.5,335.4,-91.256,43.754,LA CROSSE,WI
374,14921,45.0,55.7,337.9,-90.181,43.212,LONE ROCK,WI
375,14922,43.4,54.3,333.5,-93.229,44.883,MINNEAPOLIS,MN
376,14923,46.0,59.1,304.6,-90.523,41.465,MOLINE,IL
377,14925,44.7,54.5,351.4,-92.492,43.904,ROCHESTER,MN
378,14926,41.3,50.9,352.0,-94.052,45.545,ST CLOUD,MN
379,14927,43.7,55.8,316.3,-93.048,44.930,ST PAUL,MN
380,14929,38.2,49.1,329.8,-98.421,45.450,ABERDEEN,SD
381,14931,47.1,61.1,293.5,-91.125,40.783,BURLINGTON,IA
382,14933,46.5,57.2,339.1,-93.666,41.538,DES MOINES,IA
383,14935,43.1,56.1,303.3,-98.313,40.958,GRAND ISLAND,NE
384,14936,40.4,51.4,329.8,-98.229,44.385,HURON,SD
385,14937,46.5,56.8,345.3,-91.543,41.633,IOWA CITY,IA
386,14938,46.5,57.2,339.1,-92.543,40.097,KIRKSVILLE,MO
387,14939,45.2,57.4,316.3,-96.764,40.831,LINCOLN,NE
388,14940,44.8,53.5,369.3,-93.331,43.158,MASON CITY,IA
389,14942,45.9,56.9,334.2,-95.899,41.310,OMAHA,NE
390,14943,43.8,54.5,337.2,-96.379,42.391,SIOUX CITY,IA
391,14944,42.5,53.5,331.7,-96.754,43.577,SIOUX FALLS,SD
392,14946,40.1,50.8,334.2,-97.154,44.931,WATERTOWN,SD
393,14950,47.0,56.8,353.3,-92.448,41.107,OTTUMWA,IA
394,14972,43.7,53.6,349.0,-95.202,43.164,SPENCER,IA
395,14990,46.8,55.0,378.5,-91.709,41.884,CEDAR RAPIDS,IA
396,14991,44.4,53.3,365.6,-91.485,44.865,EAU CLAIRE,WI
397,14992,42.2,53.2,331.1,-95.082,44.547,REDWOOD FALLS,MN
398,21504,65.2,75.0,365.0,-155.051,19.723,HILO,HI
399,21510,66.9,79.4,328.6,-156.049,19.736,KAILUA/KONA,HI
400,22010,55.5,73.6,251.6,-100.922,29.367,DEL RIO,TX
401,22501,63.0,78.3,289.8,-159.789,22.025,"KEKAHA, KAUAI",HI
402,22516,65.9,77.6,338.5,-156.433,20.902,KAHULUI,HI
403,22519,67.5,78.6,347.7,-157.768,21.451,KANEOHE,HI
404,22521,64.9,80.2,291.6,-157.943,21.328,HONOLULU,HI
405,22534,65.3,77.6,329.8,-157.099,21.157,KAUNAKAKAI,HI
406,22536,67.7,79.0,345.3,-159.341,21.979,LIHUE,HI
407,22551,64.4,79.9,288.5,-158.067,21.317,KAPOLEI,HI
408,23007,42.9,66.3,186.2,-100.288,34.434,CHILDRESS,TX
409,23009,33.6,65.4,111.6,-104.541,33.308,ROSWELL,NM
410,23023,43.9,68.5,176.4,-102.208,31.932,MIDLAND,TX
411,23034,49.6,68.5,237.4,-100.494,31.351,SAN ANGELO,TX
412,23040,41.6,72.1,128.3,-103.201,31.780,WINK,TX
413,23042,41.7,65.1,185.0,-101.821,33.668,LUBBOCK,TX
414,23044,33.2,68.0,93.1,-106.376,31.811,EL PASO,TX
415,23047,39.4,62.0,189.9,-101.706,35.219,AMARILLO,TX
416,23048,33.8,62.8,131.4,-103.603,35.182,TUCUMCARI,NM
417,23049,25.3,54.6,120.9,-106.089,35.617,SANTA FE,NM
418,23050,27.1,59.8,99.3,-106.616,35.042,ALBUQUERQUE,NM
419,23051,32.2,58.9,147.4,-103.154,36.446,CLAYTON,NM
420,23052,27.1,53.3,146.2,-104.502,36.741,RATON,NM
421,23054,23.6,53.3,116.0,-105.143,35.654,LAS VEGAS,NM
422,23055,33.3,64.9,112.9,-104.809,31.831,GUADALUPE PASS,TX
423,23061,21.4,44.3,169.0,-105.866,37.436,ALAMOSA,CO
424,23064,38.9,60.6,198.6,-100.725,37.927,GARDEN CITY,KS
425,23065,35.5,54.5,222.6,-101.693,39.368,GOODLAND,KS
426,23066,31.9,52.9,198.6,-108.538,39.134,GRAND JUNCTION,CO
427,23067,32.8,57.0,169.0,-103.527,38.051,LA JUNTA,CO
428,23070,29.3,55.7,146.8,-104.341,37.259,TRINIDAD,CO
429,23078,29.9,63.7,95.6,-107.721,32.262,DEMING,NM
430,23081,22.5,49.4,135.7,-108.789,35.511,GALLUP,NM
431,23090,25.4,53.5,129.5,-108.229,36.744,FARMINGTON,NM
432,23091,42.6,71.3,142.5,-102.912,30.915,FORT STOCKTON,TX
433,23110,42.0,62.5,213.3,-119.950,36.333,LEMOORE,CA
434,23129,47.7,68.4,217.0,-118.163,33.828,LONG BEACH,CA
435,23130,41.7,68.2,158.5,-118.489,34.210,VAN NUYS,CA
436,23136,45.0,64.6,225.7,-119.083,34.217,CAMARILLO,CA
437,23152,40.4,67.5,152.3,-118.359,34.201,BURBANK,CA
438,23153,23.3,51.3,128.3,-117.087,38.060,TONOPAH,NV
439,23154,23.2,44.8,183.8,-114.845,39.295,ELY,NV
440,23155,42.0,64.5,193.6,-119.056,35.434,BAKERSFIELD,CA
441,23157,22.7,55.6,93.8,-118.363,37.373,BISHOP,CA
442,23158,30.6,74.5,45.7,-114.717,33.619,BLYTHE,CA
443,23159,22.2,41.5,206.6,-112.146,37.706,BRYCE CANYON,UT
444,23160,32.4,72.9,62.3,-110.955,32.131,TUCSON,AZ
445,23161,30.5,66.7,82.7,-116.787,34.854,DAGGETT,CA
446,23169,27.3,69.8,48.8,-115.155,36.079,LAS VEGAS,NV
447,23174,49.5,66.3,260.8,-118.406,33.938,LOS ANGELES,CA
448,23176,26.5,50.4,165.3,-113.028,38.443,MILFORD,UT
449,23179,29.5,74.8,39.5,-114.623,34.766,NEEDLES,CA
450,23182,31.5,61.9,119.0,-118.084,34.629,PALMDALE,CA
451,23183,33.6,78.2,45.7,-111.990,33.443,PHOENIX,AZ
452,23184,26.6,57.9,107.9,-112.421,34.652,PRESCOTT,AZ
453,23185,28.6,52.5,167.1,-119.771,39.484,RENO,NV
454,23187,29.8,57.3,138.8,-118.724,34.744,SANDBERG,CA
455,23188,49.7,66.7,258.3,-117.169,32.735,SAN DIEGO,CA
456,23190,46.2,60.8,284.8,-119.844,34.426,SANTA BARBARA,CA
457,23191,40.0,64.2,176.4,-118.416,33.405,AVALON,CA
458,23194,22.8,57.1,85.7,-110.722,35.022,WINSLOW,AZ
459,23199,37.8,74.3,87.6,-115.667,32.817,EL CENTRO,CA
460,23213,46.2,57.8,325.5,-122.812,38.509,SANTA ROSA,CA
461,23225,32.1,50.6,225.1,-120.708,39.292,EMIGRANT GAP,CA
462,23230,49.0,59.3,347.1,-122.221,37.755,OAKLAND,CA
463,23232,45.5,61.2,270.7,-121.493,38.513,SACRAMENTO,CA
464,23233,46.5,59.7,303.3,-121.605,36.663,SALINAS,CA
465,23234,48.5,59.9,330.5,-122.398,37.620,SAN FRANCISCO,CA
466,23237,44.7,63.3,236.2,-121.237,37.894,STOCKTON,CA
467,23244,47.4,61.2,295.9,-122.048,37.415,MOUNTAIN VIEW,CA
468,23254,46.0,61.1,278.1,-122.052,37.992,CONCORD,CA
469,23257,43.9,61.6,245.4,-120.513,37.285,MERCED,CA
470,23258,45.4,64.3,233.7,-120.953,37.626,MODESTO,CA
471,23273,46.2,61.7,273.1,-120.465,34.916,SANTA MARIA,CA
472,23275,45.4,57.7,315.0,-123.201,39.126,UKIAH,CA
473,23277,46.8,59.3,313.2,-121.789,36.936,WATSONVILLE,CA
474,23285,44.4,60.7,262.0,-121.817,37.694,LIVERMORE,CA
475,23293,46.5,61.7,277.4,-121.928,37.362,SAN JOSE,CA
476,24011,35.2,47.0,313.8,-100.748,46.774,BISMARCK,ND
477,24012,32.0,46.7,271.3,-102.802,46.797,DICKINSON,ND
478,24013,32.7,46.9,278.1,-101.281,48.259,MINOT,ND
479,24015,31.6,53.4,189.9,-103.232,40.172,AKRON,CO
480,24017,33.4,50.7,239.8,-103.095,42.838,CHADRON,NE
481,24018,27.2,49.0,185.6,-104.807,41.158,CHEYENNE,WY
482,24021,29.2,47.8,221.4,-108.733,42.817,LANDER,WY
483,24022,26.1,43.7,229.4,-105.674,41.313,LARAMIE,WY
484,24023,39.5,52.4,302.1,-100.668,41.122,NORTH PLATTE,NE
485,24024,35.9,50.7,273.1,-101.601,44.051,PHILIP,SD
486,24025,38.4,50.7,309.5,-100.286,44.383,PIERRE,SD
487,24028,33.3,51.4,230.6,-103.595,41.874,SCOTTSBLUFF,NE
488,24029,33.3,48.4,267.0,-106.976,44.774,SHERIDAN,WY
489,24030,32.1,51.2,218.3,-102.985,41.101,SIDNEY,NE
490,24032,37.3,51.1,287.9,-100.551,42.859,VALENTINE,NE
491,24033,33.6,50.2,248.5,-108.543,45.808,BILLINGS,MT
492,24036,28.6,45.9,235.5,-109.467,47.049,LEWISTOWN,MT
493,24037,31.6,49.3,233.7,-105.886,46.428,MILES CITY,MT
494,24044,32.8,49.2,250.3,-102.800,42.057,ALLIANCE,NE
495,24046,31.7,40.6,357.0,-107.521,40.495,CRAIG,CO
496,24057,27.7,44.8,236.8,-107.200,41.806,RAWLINS,WY
497,24061,29.0,47.2,225.7,-108.459,43.064,RIVERTON,WY
498,24062,33.8,47.6,284.8,-107.951,43.966,WORLAND,WY
499,24089,30.3,47.5,238.0,-106.473,42.898,CASPER,WY
500,24090,32.2,50.3,230.0,-103.054,44.046,RAPID CITY,SD
501,24091,37.5,54.1,252.2,-101.620,40.510,IMPERIAL,NE
502,24110,36.4,48.1,316.3,-119.319,47.208,MOSES LAKE,WA
503,24112,32.1,51.7,213.3,-111.187,47.504,GREAT FALLS,MT
504,24121,28.9,46.2,235.5,-115.792,40.825,ELKO,NV
505,24126,35.8,50.6,273.1,-112.011,41.196,OGDEN,UT
506,24127,36.5,51.9,266.4,-111.968,40.787,SALT LAKE CITY,UT
507,24128,27.5,46.4,215.8,-117.807,40.902,WINNEMUCCA,NV
508,24130,32.4,42.7,334.8,-117.810,44.838,BAKER CITY,OR
509,24132,32.6,46.5,282.4,-111.152,45.794,BOZEMAN,MT
510,24133,34.3,46.8,303.3,-113.772,42.543,BURLEY,ID
511,24135,27.9,40.8,292.2,-112.513,45.953,BUTTE,MT
512,24137,28.6,45.4,241.7,-112.376,48.608,CUT BANK,MT
513,24138,29.9,43.4,285.5,-112.552,45.255,DILLON,MT
514,24141,35.1,48.8,287.3,-119.514,47.304,EPHRATA,WA
515,24143,30.1,48.5,224.4,-111.382,47.473,GREAT FALLS,MT
516,24144,32.0,47.6,259.6,-111.964,46.606,HELENA,MT
517,24145,32.9,44.3,318.1,-112.067,43.516,IDAHO FALLS,ID
518,24146,33.0,44.8,312.6,-114.264,48.304,KALISPELL,MT
519,24149,38.1,52.3,283.0,-117.014,46.375,LEWISTON,ID
520,24150,29.9,45.9,252.2,-110.448,45.699,LIVINGSTON,MT
521,24152,33.4,43.2,343.4,-118.425,45.511,MEACHAM,OR
522,24153,33.8,45.8,310.1,-114.093,46.921,MISSOULA,MT
523,24154,29.0,36.2,385.3,-115.645,47.457,MULLAN PASS,ID
524,24155,37.6,49.6,313.2,-118.834,45.698,PENDLETON,OR
525,24156,32.7,45.7,294.7,-112.571,42.920,POCATELLO,ID
526,24157,35.6,46.9,321.8,-117.528,47.621,SPOKANE,WA
527,24160,39.3,52.4,299.0,-118.287,46.095,WALLA WALLA,WA
528,24162,35.8,50.0,281.1,-117.013,44.021,ONTARIO,OR
529,24163,38.7,51.7,299.6,-119.118,46.265,PASCO,WA
530,24164,24.7,40.4,251.6,-110.108,42.584,BIG PINEY,WY
531,24172,27.4,50.8,170.8,-118.565,40.066,LOVELOCK,NV
532,24215,37.1,48.0,329.2,-122.333,41.333,MOUNT SHASTA,CA
533,24216,41.5,61.3,220.1,-122.254,40.152,RED BLUFF,CA
534,24217,43.3,49.1,418.6,-122.537,48.794,BELLINGHAM,WA
535,24219,41.7,51.4,350.8,-121.167,45.619,THE DALLES,OR
536,24220,35.9,47.9,312.0,-120.530,47.034,ELLENSBURG,WA
537,24221,46.1,51.2,432.8,-123.214,44.133,EUGENE,OR
538,24222,43.1,50.5,389.6,-122.280,47.908,EVERETT,WA
539,24225,41.5,53.1,321.8,-122.871,42.389,MEDFORD,OR
540,24227,43.3,48.6,427.9,-122.903,46.973,OLYMPIA,WA
541,24229,45.9,53.1,395.2,-122.600,45.591,PORTLAND,OR
542,24230,33.3,45.3,309.5,-121.150,44.254,REDMOND,OR
543,24231,46.3,53.8,390.3,-123.355,43.239,ROSEBURG,OR
544,24232,44.9,51.5,405.0,-122.995,44.908,SALEM,OR
545,24233,44.5,50.6,413.7,-122.314,47.461,SEATTLE,WA
546,24234,44.5,51.5,397.6,-122.301,47.530,SEATTLE,WA
547,24235,38.2,47.0,363.1,-123.381,42.617,SEXTON SUMMIT,OR
548,24237,33.8,40.2,402.6,-121.337,47.293,STAMPEDE PASS,WA
549,24242,45.2,52.1,400.1,-122.400,45.549,PORTLAND,OR
550,24243,35.6,47.1,318.7,-120.534,46.564,YAKIMA,WA
551,24255,43.7,49.5,418.6,-122.650,48.350,WHIDBEY ISLAND,WA
552,24257,41.7,60.5,231.2,-122.313,40.515,REDDING,CA
553,24259,37.6,48.9,323.7,-122.468,41.781,MONTAGUE,CA
554,24283,47.5,52.6,433.4,-124.109,40.978,ARCATA/EUREKA,CA
555,24284,46.1,52.8,403.8,-124.250,43.417,NORTH BEND,OR
556,24286,48.1,54.2,415.5,-124.237,41.780,CRESCENT CITY,CA
557,25308,41.5,47.0,423.5,-131.570,55.043,ANNETTE,AK
558,25309,39.1,42.0,474.7,-134.575,58.355,JUNEAU,AK
559,25323,38.1,41.3,467.9,-135.520,59.245,HAINES,AK
560,25325,41.9,44.5,481.5,-131.712,55.357,KETCHIKAN,AK
561,25331,26.8,35.2,361.9,-149.092,61.596,PALMER,AK
562,25333,39.6,45.5,414.9,-135.360,57.048,SITKA,AK
563,25335,36.1,42.4,405.7,-135.313,59.460,SKAGWAY,AK
564,25339,37.1,40.1,471.6,-139.628,59.510,YAKUTAT,AK
565,25367,40.5,45.5,432.2,-133.075,55.580,KLAWOCK,AK
566,25501,31.2,39.3,370.5,-152.492,57.750,KODIAK,AK
567,25503,28.9,34.8,409.4,-156.654,58.684,KING SALMON,AK
568,25506,27.7,34.6,389.6,-154.915,59.753,ILIAMNA,AK
569,25507,31.0,37.9,391.5,-151.477,59.647,HOMER,AK
570,25516,33.7,38.3,437.1,-151.702,59.443,SELDOVIA,AK
571,25624,35.0,39.7,435.9,-162.722,55.207,COLD BAY,AK
572,25628,34.9,39.3,442.0,-169.565,56.600,ST. GEORGE ISLAND,AK
573,25713,35.5,39.0,460.5,-170.220,57.163,ST PAUL ISLAND,AK
574,26409,28.6,35.7,386.6,-149.855,61.217,ANCHORAGE,AK
575,26410,32.8,38.7,411.2,-145.451,60.489,CORDOVA,AK
576,26411,16.3,21.2,422.9,-147.855,64.817,FAIRBANKS,AK
577,26415,18.3,21.6,459.3,-145.718,63.995,DELTA JUNCTION/FT GREELY,AK
578,26422,14.6,21.2,387.2,-141.148,64.777,EAGLE,AK
579,26425,20.7,27.7,383.5,-145.458,62.160,GULKANA,AK
580,26435,16.5,21.9,413.1,-149.072,64.550,NENANA,AK
581,26438,31.3,39.2,374.2,-149.417,60.128,SEWARD,AK
582,26451,27.5,35.6,368.1,-149.993,61.175,ANCHORAGE,AK
583,26491,28.4,38.1,341.6,-149.961,61.179,ANCHORAGE,AK
584,26492,31.6,37.5,410.6,-148.839,60.785,PORTAGE GLACIER,AK
585,26510,20.5,25.3,427.2,-155.603,62.953,MC GRATH,AK
586,26523,29.9,36.5,396.4,-151.239,60.580,KENAI,AK
587,26528,24.4,33.4,350.2,-150.092,62.322,TALKEETNA,AK
588,26529,16.3,21.9,408.7,-152.107,65.174,TANANA,AK
589,26533,12.9,18.6,404.4,-151.509,66.916,BETTLES,AK
590,26615,27.6,32.0,438.9,-161.826,60.786,BETHEL,AK
591,26616,18.6,23.9,416.1,-162.597,66.885,KOTZEBUE,AK
592,26617,23.6,28.8,420.5,-165.443,64.513,NOME,AK
593,26642,15.4,20.4,420.5,-164.548,67.732,KIVALINA,AK
594,26643,20.2,24.1,446.3,-162.764,66.069,DEERING,AK
595,27406,15.3,17.8,476.5,-148.477,70.192,DEADHORSE,AK
596,27502,19.9,23.4,455.0,-156.763,71.287,BARROW,AK
597,27503,17.4,20.1,472.8,-159.995,70.639,WAINWRIGHT,AK
606,53119,45.5,62.0,260.8,-119.629,36.319,HANFORD,CA
607,53120,40.4,62.8,193.0,-116.917,33.033,RAMONA,CA
608,53121,49.7,62.7,308.9,-117.349,33.219,OCEANSIDE,CA
609,53123,28.2,68.0,61.7,-115.196,36.212,LAS VEGAS,NV
610,53144,28.2,61.2,98.7,-117.865,34.988,EDWARDS,CA
611,53145,22.8,50.4,130.7,-116.264,37.617,NELLIS AIR FORCE BASE,NV
612,53147,25.8,60.3,87.6,-115.667,36.583,NELLIS AIR FORCE BASE,NV
613,53802,49.3,60.4,335.4,-88.280,39.478,MATTOON/CHARLESTON,IL
614,53819,53.6,63.4,357.6,-84.567,33.355,ATLANTA,GA
615,53820,58.0,67.7,361.9,-87.044,31.416,EVERGREEN,AL
616,53838,52.1,65.1,310.7,-83.830,34.272,GAINESVILLE,GA
617,53841,49.7,61.8,321.2,-84.903,38.185,FRANKFORT,KY
618,53842,48.7,61.4,312.0,-86.296,39.825,INDIANAPOLIS,IN
619,53843,58.3,70.1,331.7,-86.394,31.309,ANDALUSIA (FT RUCKER),AL
620,53844,48.7,60.1,330.5,-82.657,39.756,LANCASTER,OH
621,53847,58.6,72.9,299.0,-87.023,30.704,MILTON,FL
622,53850,53.4,67.6,295.9,-82.886,34.672,CLEMSON,SC
623,53852,52.5,65.1,316.3,-86.945,34.653,DECATUR,AL
624,53853,61.0,73.0,331.1,-86.472,30.400,DESTIN,FL
625,53854,59.7,70.0,353.9,-80.858,33.462,ORANGEBURG,SC
626,53855,49.4,61.0,328.0,-84.525,39.364,HAMILTON,OH
627,53858,61.9,70.3,384.1,-88.532,30.464,PASCAGOULA,MS
628,53859,48.7,60.4,326.1,-84.226,39.594,DAYTON,OH
629,53860,67.3,75.6,389.0,-81.515,30.336,JACKSONVILLE,FL
630,53862,63.4,74.4,346.5,-83.574,30.072,PERRY-FOLEY,FL
631,53863,54.4,65.4,340.3,-84.302,33.875,ATLANTA,GA
632,53864,55.6,66.8,338.5,-86.782,33.178,ALABASTER,AL
633,53865,61.2,69.8,381.0,-89.821,30.345,SLIDELL,LA
634,53866,49.1,60.6,329.2,-85.803,39.578,SHELBYVILLE,IN
635,53867,58.1,70.6,321.8,-80.996,33.971,COLUMBIA,SC
636,53868,51.7,64.2,316.9,-84.233,36.023,OAK RIDGE,TN
637,53869,54.1,65.9,328.6,-89.831,35.940,BLYTHEVILLE,AR
638,53870,53.8,67.5,302.7,-81.156,35.197,GASTONIA,NC
639,53871,54.3,66.5,323.1,-81.058,34.987,ROCK HILL,SC
640,53872,52.5,67.1,289.8,-80.621,35.017,MONROE,NC
641,53873,53.1,64.8,329.2,-84.849,34.123,CARTERSVILLE,GA
642,53874,54.8,66.4,331.7,-82.159,34.249,GREENWOOD,SC
643,53879,47.0,54.4,392.1,-94.371,38.960,LEE'S SUMMIT,MO
644,53901,50.4,60.3,353.9,-91.903,36.878,WEST PLAINS,MO
645,53902,59.7,69.8,357.0,-95.414,30.352,CONROE,TX
646,53903,57.4,70.6,312.0,-95.587,30.747,HUNTSVILLE,TX
647,53904,48.1,61.4,303.3,-90.428,38.929,ST CHARLES,MO
648,53905,56.5,68.1,332.9,-93.744,32.540,SHREVEPORT,LA
649,53907,54.1,69.7,279.3,-97.094,32.664,ARLINGTON,TX
650,53908,52.1,64.9,313.2,-95.984,36.039,TULSA,OK
651,53909,51.6,69.5,250.3,-97.318,32.973,FORT WORTH,TX
652,53910,59.3,72.0,320.0,-95.553,30.062,HOUSTON,TX
653,53911,55.5,69.1,305.2,-96.267,32.710,TERRELL,TX
654,53912,56.5,70.7,298.4,-96.398,32.027,CORSICANA,TX
655,53913,50.5,64.3,298.4,-97.416,35.850,GUTHRIE,OK
656,53914,55.4,67.6,324.3,-96.590,33.180,MC KINNEY,TX
657,53915,59.9,72.0,328.6,-91.884,30.038,NEW IBERIA,LA
658,53916,48.7,58.4,355.7,-93.579,39.823,CHILLICOTHE,MO
659,53917,62.2,73.8,337.2,-90.028,30.043,NEW ORLEANS,LA
660,53918,51.2,62.4,334.8,-92.470,36.369,MOUNTAIN HOME,AR
661,53919,55.0,65.9,342.2,-91.751,33.638,MONTICELLO,AR
662,53920,54.4,64.8,349.0,-93.095,35.258,RUSSELLVILLE,AR
663,53921,53.2,63.7,346.5,-93.578,34.547,MOUNT IDA,AR
664,53922,51.5,60.6,366.8,-94.307,36.282,FAYETTEVILLE/SPRINGDALE,AR
665,53925,55.3,66.0,345.3,-94.399,34.047,DE QUEEN,AR
666,53959,54.4,65.6,337.2,-90.234,35.135,WEST MEMPHIS,AR
667,53988,58.8,68.5,362.5,-92.967,31.150,FORT POLK,LA
668,53989,46.5,62.7,265.1,-96.926,39.294,FORT RILEY,KS
669,54704,47.2,55.4,378.5,-71.174,42.191,NORWOOD,MA
670,54728,41.6,49.6,378.5,-71.545,44.368,WHITEFIELD,NH
671,54733,47.5,55.5,382.2,-70.918,42.584,BEVERLY,MA
672,54734,50.4,57.9,392.1,-73.483,41.371,DANBURY,CT
673,54737,52.0,53.3,511.1,-76.294,40.120,LANCASTER,PA
674,54740,45.0,53.1,379.2,-72.518,43.344,SPRINGFIELD,VT
675,54742,43.0,51.9,365.0,-72.019,44.419,SAINT JOHNSBURY,VT
676,54743,51.4,58.1,406.9,-74.283,40.876,CALDWELL,NJ
677,54756,47.0,54.5,390.3,-72.291,42.570,ORANGE,MA
678,54757,45.9,57.5,325.5,-77.992,42.109,WELLSVILLE,NY
679,54767,48.9,57.7,369.9,-72.184,41.742,WILLIMANTIC,CT
680,54768,47.8,55.4,389.0,-73.171,42.696,NORTH ADAMS,MA
681,54769,49.4,57.1,388.4,-70.729,41.910,PLYMOUTH,MA
682,54770,45.4,53.5,379.2,-72.004,42.805,JAFFREY,NH
683,54771,42.8,51.4,369.3,-72.614,44.534,MORRISVILLE,VT
684,54772,42.8,52.1,358.2,-70.948,43.991,FRYEBURG,ME
685,54777,49.5,59.5,352.0,-71.021,41.876,TAUNTON,MA
686,54778,48.7,57.6,368.7,-77.056,42.643,PENN YAN,NY
687,54779,50.7,59.1,377.9,-74.737,41.009,ANDOVER,NJ
688,54780,52.3,61.0,373.6,-71.923,41.073,MONTAUK,NY
689,54781,47.1,54.4,393.9,-73.247,42.891,BENNINGTON,VT
690,54782,52.1,61.6,361.3,-75.557,40.238,POTTSTOWN,PA
691,54785,51.9,61.0,367.4,-74.669,40.624,SOMERVILLE,NJ
692,54786,51.2,61.5,348.3,-75.123,40.330,DOYLESTOWN,PA
693,54787,52.4,61.7,364.4,-73.417,40.734,FARMINGDALE,NY
694,54788,51.0,59.2,381.0,-72.828,41.510,MERIDEN,CT
695,54789,48.5,55.9,392.7,-75.379,41.139,MOUNT POCONO,PA
696,54790,52.4,60.6,382.2,-72.869,40.822,SHIRLEY,NY
697,54791,46.2,54.2,381.6,-70.922,43.278,ROCHESTER,NH
698,54792,46.1,57.1,334.2,-78.412,41.047,CLEARFIELD,PA
699,54793,50.2,58.2,384.1,-74.623,41.200,SUSSEX,NJ
701,63870,61.6,70.3,379.2,-86.312,31.043,FLORALA,AL
702,63871,57.7,64.6,406.3,-85.601,30.846,BONIFAY,FL
703,63872,47.0,68.7,205.9,-85.129,31.951,EUFAULA,AL
704,63873,59.1,69.6,350.8,-85.654,31.346,FORT RUCKER/OZARK,AL
705,63874,57.5,68.6,340.9,-86.611,31.846,GREENVILLE,AL
706,63890,66.4,73.5,407.5,-81.883,30.350,JACKSONVILLE,FL
707,64775,48.0,48.3,533.3,-75.412,43.234,ROME,NY
708,64776,44.5,51.8,392.7,-73.468,44.651,PLATTSBURG,NY
709,92762,49.9,61.2,332.9,-77.430,39.734,SITE R,PA
710,92805,71.6,81.1,373.6,-80.108,26.250,POMPANO BEACH,FL
711,92806,70.2,79.8,371.1,-82.628,27.765,ST PETERSBURG,FL
712,92809,72.4,81.0,387.2,-80.241,25.999,HOLLYWOOD,FL
713,93005,25.1,47.4,178.8,-107.760,37.143,DURANGO,CO
714,93010,29.2,49.4,204.1,-103.716,39.189,LIMON,CO
715,93013,32.4,49.7,239.2,-107.898,38.505,MONTROSE,CO
716,93026,31.9,65.1,101.2,-109.604,31.469,DOUGLAS BISBEE,AZ
717,93027,24.9,55.7,109.8,-109.379,34.518,ST JOHNS,AZ
718,93033,39.7,65.8,159.7,-104.263,32.338,CARLSBAD,NM
719,93037,25.6,52.6,138.1,-104.711,38.812,COLORADO SPRINGS,CO
720,93042,35.7,59.3,177.6,-102.547,36.023,DALHART,TX
721,93045,25.9,63.2,72.2,-107.268,33.237,TRUTH OR CONSEQUENCES,NM
722,93057,23.6,50.2,139.4,-107.902,35.165,GRANTS,NM
723,93058,28.5,54.0,153.6,-104.498,38.290,PUEBLO,CO
724,93067,27.9,52.9,157.3,-104.849,39.570,DENVER,CO
725,93069,27.4,49.3,185.0,-108.628,37.303,CORTEZ,CO
726,93073,26.0,42.5,242.3,-106.868,39.223,ASPEN,CO
727,93075,27.4,53.4,148.0,-109.754,38.755,MOAB,UT
728,93084,30.1,68.4,71.0,-109.635,32.855,SAFFORD,AZ
729,93102,27.7,51.5,167.1,-118.700,39.417,FALLON,NV
730,93104,25.2,64.3,62.3,-117.683,35.683,CHINA LAKE,CA
731,93107,44.7,66.0,207.8,-117.150,32.867,MIRAMAR,CA
732,93110,46.6,62.1,273.8,-119.206,34.201,OXNARD,CA
733,93111,47.5,62.7,278.1,-119.117,34.117,POINT MUGU,CA
734,93112,52.1,68.9,263.3,-117.200,32.700,SAN DIEGO,CA
735,93115,50.6,62.6,323.1,-117.117,32.567,IMPERIAL BEACH,CA
736,93129,24.6,49.8,151.7,-113.097,37.702,CEDAR CITY,UT
737,93134,48.4,68.4,224.4,-118.296,34.028,LOS ANGELES,CA
738,93138,34.3,75.5,61.1,-116.505,33.828,PALM SPRINGS,CA
739,93141,26.1,48.6,177.6,-110.750,39.545,PRICE,UT
740,93167,25.9,63.3,71.6,-113.937,35.259,KINGMAN,AZ
741,93193,44.5,64.4,222.0,-119.719,36.780,FRESNO,CA
742,93197,48.8,64.9,268.2,-118.451,34.016,SANTA MONICA,CA
743,93205,45.6,60.7,278.1,-121.570,39.098,MARYSVILLE,CA
744,93206,45.6,62.5,255.9,-120.641,35.237,SAN LUIS OBISPO,CA
745,93209,40.2,60.4,214.6,-120.627,35.673,PASO ROBLES,CA
746,93210,44.9,61.2,262.7,-121.618,39.490,OROVILLE,CA
747,93225,45.2,61.2,266.4,-121.590,38.696,SACRAMENTO,CA
748,93227,46.3,58.2,321.2,-122.280,38.213,NAPA,CA
749,93228,48.1,60.2,320.0,-122.121,37.659,HAYWARD,CA
750,93230,28.8,43.8,263.9,-119.995,38.894,SOUTH LAKE TAHOE,CA
751,93241,43.3,62.3,230.6,-121.961,38.377,VACAVILLE,CA
752,93242,45.0,62.4,249.7,-120.111,36.988,MADERA,CA
753,93706,50.0,52.3,489.5,-77.730,39.708,HAGERSTOWN,MD
754,93718,61.8,71.0,371.8,-78.721,33.816,NORTH MYRTLE BEACH,SC
755,93719,61.3,69.8,382.2,-77.047,35.068,NEW BERN,NC
756,93720,55.5,63.1,393.3,-75.510,38.341,SALISBURY,MD
757,93721,52.6,63.4,342.2,-76.684,39.172,BALTIMORE,MD
758,93727,61.5,70.2,379.2,-77.433,34.700,NEW RIVER,NC
759,93729,63.3,72.9,366.8,-75.623,35.232,CAPE HATTERAS,NC
760,93730,56.2,64.1,389.0,-74.457,39.458,ATLANTIC CITY,NJ
761,93736,51.6,61.9,348.3,-78.453,38.139,CHARLOTTESVILLE,VA
762,93738,50.5,63.6,308.3,-77.448,38.935,WASHINGTON,DC
763,93739,56.7,66.2,364.4,-75.496,37.941,WALLOPS ISLAND,VA
764,93740,57.5,69.0,335.4,-78.880,34.991,FAYETTEVILLE,NC
765,93741,57.7,67.7,357.0,-76.493,37.132,NEWPORT NEWS,VA
766,93759,56.8,66.5,361.3,-77.893,35.855,ROCKY MOUNT,NC
767,93765,63.2,71.8,382.2,-76.661,34.734,BEAUFORT,NC
768,93773,56.6,65.6,371.8,-77.007,36.984,WAKEFIELD,VA
769,93775,53.4,65.8,320.0,-77.434,37.708,RICHMOND/ASHLAND,VA
770,93778,49.4,58.3,368.7,-76.874,39.918,YORK,PA
771,93780,54.2,62.8,376.7,-74.841,39.941,MOUNT HOLLY,NJ
772,93781,55.2,68.5,308.9,-77.710,36.439,ROANOKE RAPIDS,NC
773,93782,57.1,68.5,336.6,-79.366,34.792,MAXTON,NC
774,93783,51.5,65.3,299.6,-79.477,36.047,BURLINGTON,NC
775,93784,52.7,68.0,281.8,-76.610,39.281,BALTIMORE,MD
776,93785,53.0,65.6,316.9,-79.064,35.933,CHAPEL HILL,NC
777,93786,58.6,65.1,413.7,-75.124,38.308,OCEAN CITY,MD
778,93801,52.3,64.7,318.7,-85.161,34.348,ROME,GA
779,93805,62.1,73.3,342.8,-84.353,30.393,TALLAHASSEE,FL
780,93806,55.5,67.0,334.2,-87.616,33.212,TUSCALOOSA,AL
781,93807,51.4,64.9,303.3,-80.222,36.134,WINSTON SALEM,NC
782,93808,51.5,63.7,321.2,-86.436,36.981,BOWLING GREEN,KY
783,93810,50.3,61.7,331.7,-89.250,37.780,CARBONDALE/MURPHYBORO,IL
784,93812,50.6,61.9,332.9,-84.419,39.103,CINCINNATI,OH
785,93814,50.1,61.3,334.2,-84.672,39.043,COVINGTON,KY
786,93815,48.2,60.1,323.1,-84.219,39.906,DAYTON,OH
787,93817,50.8,63.3,316.3,-87.537,38.043,EVANSVILLE,IN
788,93819,49.3,62.1,311.4,-86.272,39.710,INDIANAPOLIS,IN
789,93820,50.2,62.7,315.7,-84.606,38.041,LEXINGTON,KY
790,93821,50.4,65.9,276.8,-85.730,38.177,LOUISVILLE,KY
791,93822,47.0,60.2,304.0,-89.684,39.845,SPRINGFIELD,IL
792,93824,49.4,59.1,356.3,-81.892,39.944,ZANESVILLE,OH
793,93831,62.5,71.8,370.5,-80.717,32.483,BEAUFORT,SC
794,93841,59.2,70.1,345.3,-87.022,30.724,MILTON,FL
795,93842,55.4,68.6,310.7,-84.942,32.516,COLUMBUS,GA
796,93845,61.9,71.9,360.0,-83.277,30.783,VALDOSTA,GA
797,93846,53.0,66.1,310.1,-82.709,34.495,ANDERSON,SC
798,93862,54.5,67.0,319.4,-88.771,34.261,TUPELO,MS
799,93874,61.3,71.1,362.5,-89.070,30.407,GULFPORT,MS
800,93909,48.2,59.0,338.5,-94.890,38.831,OLATHE,KS
801,93915,58.5,69.9,337.2,-92.559,31.335,ALEXANDRIA,LA
802,93919,58.0,68.3,353.3,-90.472,31.178,MCCOMB,MS
803,93950,53.5,66.2,315.7,-95.783,34.899,MC ALESTER,OK
804,93953,53.4,65.2,328.0,-95.361,35.657,MUSKOGEE,OK
805,93967,51.1,62.1,337.9,-95.566,37.091,COFFEYVILLE,KS
806,93985,52.1,68.3,270.1,-98.061,32.782,MINERAL WELLS,TX
807,93986,48.4,65.6,255.3,-99.051,35.008,HOBART,OK
808,93987,56.5,69.6,312.6,-94.750,31.234,LUFKIN,TX
809,93988,55.5,65.2,360.0,-91.935,34.175,PINE BLUFF,AR
810,93989,46.9,58.8,321.8,-91.194,39.943,QUINCY,IL
811,93990,39.6,57.1,243.5,-99.830,39.376,HILL CITY,KS
812,93992,56.4,65.2,374.8,-92.813,33.221,EL DORADO,AR
813,93993,51.0,61.7,342.2,-94.170,36.005,FAYETTEVILLE,AR
814,93997,42.4,59.4,252.2,-98.828,38.872,RUSSELL,KS
815,94008,32.6,46.5,282.4,-106.621,48.214,GLASGOW,MT
816,94012,31.4,47.7,250.3,-109.780,48.559,HAVRE,MT
817,94014,32.5,45.8,290.4,-103.642,48.195,WILLISTON,ND
818,94017,32.3,45.9,286.1,-105.574,48.094,WOLF POINT,MT
819,94023,31.2,47.3,252.2,-105.542,44.339,GILLETTE,WY
820,94030,31.3,47.7,249.1,-109.509,40.441,VERNAL,UT
821,94032,28.3,44.6,247.2,-103.628,43.731,CUSTER,SD
822,94037,31.9,47.7,257.1,-103.546,45.604,BUFFALO,SD
823,94038,32.3,46.2,281.8,-102.655,46.014,HETTINGER,ND
824,94039,34.2,47.0,299.0,-102.518,43.021,PINE RIDGE,SD
825,94040,38.5,55.8,244.8,-100.591,40.206,MC COOK,NE
826,94041,33.3,45.8,302.1,-101.439,47.663,GARRISON,ND
827,94050,30.5,45.6,264.5,-107.885,40.049,MEEKER,CO
828,94051,31.5,46.1,271.9,-106.948,47.326,JORDAN,MT
829,94052,38.1,47.8,348.3,-100.408,45.546,MOBRIDGE,SD
830,94053,32.5,51.6,218.9,-104.153,42.065,TORRINGTON,WY
831,94054,30.2,46.4,250.3,-106.721,44.381,BUFFALO,WY
832,94055,31.0,46.2,263.9,-104.250,46.358,BAKER,MT
833,94056,33.9,49.6,260.2,-102.019,45.032,FAITH,SD
834,94057,31.7,48.9,239.8,-105.386,42.797,DOUGLAS,WY
835,94107,31.9,46.7,269.4,-117.864,42.591,ROME,OR
836,94119,35.4,44.0,364.4,-117.421,47.969,DEER PARK,WA
837,94128,33.8,46.6,298.4,-111.853,41.787,LOGAN,UT
838,94129,36.0,47.9,313.2,-117.109,46.744,PULLMAN/MOSCOW,WA
839,94173,25.8,34.4,358.2,-110.421,44.544,YELLOWSTONE,WY
840,94176,36.9,48.0,326.1,-117.321,47.683,SPOKANE,WA
841,94178,33.1,48.2,267.0,-114.487,42.482,TWIN FALLS,ID
842,94182,31.6,39.6,372.4,-116.102,44.889,MCCALL,ID
843,94185,30.0,42.5,299.6,-118.954,43.592,BURNS,OR
844,94194,32.6,45.5,295.9,-111.881,43.834,REXBURG,ID
845,94197,35.6,45.7,340.3,-119.517,48.464,OMAK,WA
846,94224,45.9,51.1,430.9,-123.878,46.158,ASTORIA,OR
847,94225,46.0,52.9,400.1,-123.937,46.971,HOQUIAM,WA
848,94227,43.2,48.3,431.5,-123.148,47.238,SHELTON,WA
849,94236,33.8,44.4,331.1,-121.724,42.147,KLAMATH FALLS,OR
850,94239,37.0,49.4,307.0,-120.207,47.399,WENATCHEE,WA
851,94240,44.6,49.2,442.0,-124.561,47.934,QUILLAYUTE,WA
852,94248,44.2,51.5,392.1,-122.214,47.493,RENTON,WA
853,94261,43.8,48.1,447.6,-122.949,45.541,PORTLAND,OR
854,94266,42.2,47.2,433.4,-123.498,48.120,PORT ANGELES,WA
855,94273,44.6,50.7,413.7,-123.134,45.195,MC MINNVILLE,OR
856,94274,44.3,50.8,406.3,-122.576,47.268,TACOMA,WA
857,94276,43.9,48.7,437.7,-123.023,48.522,FRIDAY HARBOR,WA
858,94281,44.7,46.7,495.0,-122.769,45.249,AURORA,OR
859,94298,44.8,52.7,382.2,-122.657,45.621,VANCOUVER,WA
860,94299,32.5,44.4,310.1,-120.567,41.483,ALTURAS,CA
861,94623,44.7,52.8,379.2,-69.712,43.964,WISCASSET,ME
862,94624,51.2,59.0,387.8,-69.993,41.688,CHATHAM,MA
863,94626,40.3,49.4,359.4,-69.595,45.462,GREENVILLE,ME
864,94700,40.4,49.0,368.1,-71.179,44.576,BERLIN,NH
865,94702,51.8,61.4,359.4,-73.146,41.175,BRIDGEPORT,CT
866,94704,47.9,58.7,338.5,-77.713,42.571,DANSVILLE,NY
867,94705,42.7,52.2,355.1,-72.579,44.203,BARRE/MONTPELIER,VT
868,94720,50.2,57.2,400.7,-70.280,41.669,HYANNIS,MA
869,94723,47.4,56.3,367.4,-71.124,42.717,LAWRENCE,MA
870,94724,50.4,56.8,411.2,-70.615,41.393,VINEYARD HAVEN,MA
871,94725,43.8,52.1,374.8,-74.846,44.936,MASSENA,NY
872,94726,49.6,56.6,400.7,-70.958,41.676,NEW BEDFORD,MA
873,94728,52.7,63.6,340.3,-73.967,40.783,NEW YORK,NY
874,94732,52.1,64.0,325.5,-75.011,40.082,PHILADELPHIA,PA
875,94740,42.1,49.8,384.1,-74.207,44.385,SARANAC LAKE,NY
876,94741,51.2,63.5,319.4,-74.061,40.850,TETERBORO,NJ
877,94745,51.4,60.1,373.0,-73.708,41.067,WHITE PLAINS,NY
878,94746,46.9,56.5,356.3,-71.876,42.267,WORCESTER,MA
879,94765,45.3,52.7,391.5,-72.305,43.626,LEBANON,NH
880,94789,52.8,63.0,350.8,-73.796,40.655,NEW YORK,NY
881,94790,46.8,55.8,365.6,-76.022,43.992,WATERTOWN,NY
882,94814,44.7,52.6,382.2,-84.691,44.368,HOUGHTON LAKE,MI
883,94815,48.5,57.4,368.1,-85.552,42.235,KALAMAZOO,MI
884,94817,47.4,58.1,339.7,-83.418,42.665,PONTIAC,MI
885,94818,47.5,57.5,350.2,-87.814,42.761,RACINE,WI
886,94822,46.5,58.5,320.0,-89.093,42.196,ROCKFORD,IL
887,94823,47.7,59.3,326.8,-80.231,40.501,PITTSBURGH,PA
888,94830,48.7,59.0,346.5,-83.801,41.589,TOLEDO,OH
889,94846,47.1,59.0,321.8,-87.914,41.986,CHICAGO,IL
890,94847,48.0,59.1,334.2,-83.349,42.215,DETROIT,MI
891,94849,45.1,53.1,381.0,-83.581,45.072,ALPENA,MI
892,94855,45.5,55.3,352.0,-88.557,43.984,OSHKOSH,WI
893,94860,47.9,58.1,347.7,-85.523,42.882,GRAND RAPIDS,MI
894,94870,48.4,59.1,340.3,-88.278,40.040,CHAMPAIGN/URBANA,IL
895,94871,49.3,58.1,370.5,-86.422,42.129,BENTON HARBOR,MI
896,94889,47.4,55.9,374.2,-83.744,42.223,ANN ARBOR,MI
897,94892,48.1,58.4,346.5,-88.246,41.914,CHICAGO/WEST CHICAGO,IL
898,94893,41.6,50.3,366.8,-88.114,45.818,IRON MOUNTAIN/KINGSFORD,MI
899,94895,48.2,61.1,308.9,-85.394,40.234,MUNCIE,IN
900,94898,47.5,54.5,399.5,-82.793,44.022,HARBOR BEACH,MI
901,94899,42.2,50.2,379.2,-87.875,47.467,COPPER HARBOR,MI
902,94908,46.2,55.1,366.8,-90.704,42.398,DUBUQUE,IA
903,94910,46.2,54.8,371.8,-92.401,42.554,WATERLOO,IA
904,94929,40.9,48.8,379.8,-90.919,46.549,ASHLAND,WI
905,94931,38.2,45.9,381.6,-92.839,47.387,HIBBING,MN
906,94938,40.5,50.2,350.2,-94.131,46.405,BRAINERD,MN
907,94943,39.4,53.1,291.0,-99.318,43.767,CHAMBERLAIN,SD
908,94946,39.9,52.8,302.1,-99.639,41.437,BROKEN BOW,NE
909,94949,42.7,56.1,297.8,-98.427,40.604,HASTINGS,NE
910,94950,41.6,53.5,317.5,-98.038,43.777,MITCHELL,SD
911,94957,46.7,58.5,323.1,-95.592,40.079,FALLS CITY,NE
912,94958,41.5,54.6,300.9,-98.952,41.624,ORD,NE
913,94960,43.1,53.0,349.0,-93.351,45.063,MINNEAPOLIS,MN
914,94961,38.2,45.5,389.0,-94.610,48.728,BAUDETTE,MN
915,94963,43.5,53.5,347.7,-93.470,44.832,MINNEAPOLIS,MN
916,94967,39.2,49.0,347.7,-95.068,46.901,PARK RAPIDS,MN
917,94971,43.6,53.3,352.0,-94.746,43.408,ESTHERVILLE,IA
918,94973,41.1,51.9,333.5,-91.444,46.026,HAYWARD,WI
919,94978,44.4,55.4,332.9,-96.178,41.764,TEKAMAH,NE
920,94982,46.0,57.7,324.3,-90.591,41.614,DAVENPORT,IA
921,94985,44.8,52.4,387.2,-90.189,44.637,MARSHFIELD,WI
922,94988,46.0,55.1,363.7,-92.918,42.113,MARSHALLTOWN,IA
923,94989,46.0,55.6,355.7,-93.622,41.992,AMES,IA
924,94990,38.5,53.0,279.3,-99.842,43.390,WINNER,SD
925,94991,46.4,57.2,337.2,-93.902,40.633,LAMONI,IA
926,94992,40.4,48.7,373.0,-90.344,47.747,GRAND MARAIS,MN
927,94993,40.1,50.6,337.2,-96.991,45.669,SISSETON,SD
928,94994,46.1,55.9,352.7,-90.678,43.156,BOSCOBEL,WI
