,wban,dewpt,tavg,wp,long,lat,stname,ststate
0,03013,17.9,40.4,169.0,-102.688,38.070,LAMAR,CO
1,03016,18.4,37.7,202.2,-107.726,39.526,RIFLE,CO
2,03017,18.2,41.4,162.8,-104.658,39.833,DENVER,CO
3,03024,24.0,49.3,150.5,-101.394,35.700,BORGER,TX
4,03026,17.1,40.9,156.6,-102.284,39.245,BURLINGTON,CO
5,03027,16.9,41.9,145.5,-105.663,35.003,CLINES CORNERS,NM
6,03028,16.7,43.8,128.3,-102.614,37.283,SPRINGFIELD,CO
7,03029,15.2,40.0,145.5,-109.061,35.658,WINDOW ROCK,AZ
8,03030,21.4,44.5,167.1,-101.505,36.682,GUYMON,OK
9,03031,34.7,55.1,207.2,-102.387,31.921,ODESSA,TX
10,03068,13.5,38.1,145.5,-104.300,38.767,BULLSEYE,CO
11,03102,41.0,62.4,203.5,-117.600,34.056,ONTARIO,CA
12,03103,18.6,41.8,163.4,-111.672,35.140,FLAGSTAFF,AZ
13,03104,35.3,64.8,129.5,-116.160,33.628,PALM SPRINGS,CA
14,03124,30.4,60.0,123.3,-110.344,31.588,FORT HUACHUCA/SIERRA VISTA,AZ
15,03131,46.1,61.5,274.4,-117.139,32.816,SAN DIEGO,CA
16,03144,36.8,65.8,134.4,-115.579,32.834,IMPERIAL,CA
17,03145,35.0,68.8,100.5,-114.617,32.650,YUMA,AZ
18,03159,22.9,54.6,101.8,-118.219,34.741,LANCASTER,CA
19,03160,20.5,54.2,87.0,-116.028,36.621,MERCURY,NV
20,03162,19.7,49.4,112.3,-111.448,36.926,PAGE,AZ
21,03166,46.2,64.2,244.2,-117.979,33.872,FULLERTON,CA
22,03167,47.8,65.0,254.6,-118.334,33.923,HAWTHORNE,CA
23,03170,15.2,37.0,173.3,-116.006,39.601,EUREKA,NV
24,03177,46.7,60.8,291.6,-117.279,33.128,CARLSBAD,CA
25,03178,45.4,60.6,276.2,-116.979,32.572,SAN DIEGO,CA
26,03179,42.9,60.0,251.6,-117.636,33.975,CHINO,CA
27,03184,29.5,67.8,70.3,-112.082,33.688,PHOENIX,AZ
28,03192,33.7,67.4,99.9,-111.911,33.623,SCOTTSDALE,AZ
29,03195,14.5,40.5,134.4,-112.155,35.946,GRAND CANYON,AZ
30,03196,32.1,60.2,136.3,-110.846,31.421,NOGALES,AZ
31,03749,30.5,42.4,308.9,-77.468,39.645,CAMP DAVID,MD
32,03802,32.8,44.3,316.3,-80.229,39.296,CLARKSBURG,WV
33,03804,33.9,44.5,331.1,-81.439,39.345,PARKERSBURG,WV
34,03810,34.5,48.8,278.7,-81.390,35.741,HICKORY,NC
35,03811,39.0,49.8,331.7,-88.917,35.593,JACKSON,TN
36,03812,32.9,45.5,300.9,-82.538,35.432,ASHEVILLE,NC
37,03813,39.2,54.1,275.0,-83.654,32.688,MACON,GA
38,03816,34.7,47.0,306.4,-88.774,37.056,PADUCAH,KY
39,03818,44.2,58.1,292.2,-85.184,30.836,MARIANNA,FL
40,03820,38.2,54.3,259.0,-81.965,33.370,AUGUSTA,GA
41,03822,45.6,57.7,318.1,-81.202,32.119,SAVANNAH,GA
42,03847,34.2,46.9,300.3,-85.085,35.951,CROSSVILLE,TN
43,03849,34.3,46.8,303.3,-84.077,37.087,LONDON,KY
44,03855,48.8,60.5,326.1,-87.317,30.350,PENSACOLA,FL
45,03856,39.6,51.6,314.4,-86.786,34.644,HUNTSVILLE,AL
46,03859,30.0,45.3,261.4,-81.208,37.296,BLUEFIELD,WV
47,03860,33.7,46.1,304.0,-82.555,38.382,HUNTINGTON,WV
48,03866,43.5,54.8,328.0,-88.567,32.550,MERIDIAN,MS
49,03868,31.9,42.7,326.8,-87.309,39.452,TERRE HAUTE,IN
50,03870,34.8,51.9,243.5,-82.219,34.899,GREER,SC
51,03872,30.7,42.4,312.0,-81.125,37.795,BECKLEY,WV
52,03878,43.1,54.6,324.9,-86.012,31.861,TROY,AL
53,03882,48.4,60.6,318.7,-85.683,30.212,PANAMA CITY,FL
54,03887,32.7,45.1,303.3,-88.866,39.984,DECATUR,IL
55,03888,37.4,51.3,286.7,-84.521,33.779,ATLANTA,GA
56,03889,32.6,47.2,273.1,-83.314,37.591,JACKSON,KY
57,03893,31.6,42.6,323.1,-86.617,39.144,BLOOMINGTON,IN
58,03894,37.1,47.4,338.5,-87.415,36.622,CLARKSVILLE,TN
59,03901,46.9,58.5,326.1,-94.711,32.385,LONGVIEW,TX
60,03902,43.1,59.9,255.3,-97.822,31.070,FORT HOOD/KILLEEN,TX
61,03904,50.9,62.2,333.5,-96.364,30.588,COLLEGE STATION,TX
62,03919,27.9,44.1,247.9,-97.661,38.813,SALINA,KS
63,03927,44.8,61.3,260.2,-97.041,32.896,DALLAS-FORT WORTH,TX
64,03928,31.0,46.1,265.1,-97.429,37.647,WICHITA,KS
65,03931,50.5,60.1,358.8,-93.192,31.045,FORT POLK,LA
66,03932,32.0,50.6,223.8,-99.200,35.340,CLINTON,OK
67,03933,46.6,61.5,281.1,-97.713,31.134,FORT HOOD (KILLEEN),TX
68,03935,35.6,45.8,338.5,-89.571,37.225,CAPE GIRARDEAU,MO
69,03936,28.0,42.5,270.1,-96.678,39.135,MANHATTAN,KS
70,03937,51.2,62.2,337.9,-93.228,30.125,LAKE CHARLES,LA
71,03940,45.0,57.1,317.5,-90.078,32.320,JACKSON,MS
72,03945,31.2,45.0,282.4,-92.218,38.817,COLUMBIA,MO
73,03947,29.7,43.9,275.6,-94.718,39.299,KANSAS CITY,MO
74,03949,49.4,59.1,356.3,-93.283,31.400,FORT POLK,LA
75,03950,37.8,54.2,254.6,-98.416,34.568,LAWTON,OK
76,03953,39.3,50.7,323.1,-90.646,35.831,JONESBORO,AR
77,03954,36.9,51.7,274.4,-97.647,35.534,OKLAHOMA CITY,OK
78,03957,28.5,45.7,236.8,-98.553,37.284,MEDICINE LODGE,KS
79,03960,32.7,45.0,304.6,-90.157,38.571,CAHOKIA/ST.LOUIS,IL
80,03962,41.6,53.9,312.0,-93.096,34.478,HOT SPRINGS,AR
81,03963,31.5,45.2,284.2,-92.156,38.591,JEFFERSON CITY,MO
82,03965,35.8,47.1,321.8,-97.086,36.160,STILLWATER,OK
83,03966,31.5,45.2,284.2,-90.656,38.657,ST LOUIS,MO
84,03967,30.9,44.7,282.4,-94.739,38.850,OLATHE,KS
85,03971,44.9,60.0,277.4,-96.868,32.681,DALLAS,TX
86,03974,31.2,46.0,268.8,-97.219,37.750,WICHITA,KS
87,03975,36.3,47.4,325.5,-90.325,36.773,POPLAR BLUFF,MO
88,03981,36.2,54.6,230.0,-98.984,34.352,FREDERICK,OK
89,03991,43.7,58.6,278.7,-97.199,33.206,DENTON,TX
90,03994,32.4,45.1,299.0,-93.183,38.704,SEDALIA,MO
91,03996,46.7,56.0,360.7,-91.030,32.348,TALLULAH/VICKSBURG,MS
92,03997,30.3,42.2,308.9,-95.212,39.008,LAWRENCE,KS
93,03998,34.1,47.1,295.9,-95.504,37.328,PARSONS,KS
94,03999,45.8,59.9,291.0,-98.235,30.741,BURNET,TX
95,04109,33.7,39.2,419.8,-115.596,46.144,ELK CITY,ID
96,04110,25.9,38.0,302.1,-114.456,42.727,JEROME,ID
97,04111,13.4,35.5,168.3,-111.031,41.273,EVANSTON,WY
98,04112,17.2,26.8,334.2,-114.927,44.171,STANLEY,ID
99,04113,32.4,39.2,394.6,-119.261,45.826,HERMISTON,OR
100,04114,18.3,31.7,276.2,-114.215,41.523,CHALLIS,ID
101,04134,17.4,38.9,178.2,-113.351,40.161,DUGWAY PROVING GROUND,UT
102,04201,37.8,43.7,414.3,-122.861,45.773,SCAPPOOSE,OR
103,04726,29.6,37.8,367.4,-78.834,40.301,JOHNSTOWN,PA
104,04751,28.9,34.6,413.1,-78.640,41.803,BRADFORD,PA
105,04780,27.1,37.9,322.4,-71.756,42.552,FITCHBURG,MA
106,04781,33.0,41.7,361.3,-73.102,40.794,ISLIP,NY
107,04787,31.2,37.2,408.7,-78.899,41.178,DU BOIS,PA
108,04789,29.3,38.9,343.4,-74.265,41.509,MONTGOMERY,NY
109,04803,20.6,29.4,350.8,-89.465,45.631,RHINELANDER,WI
110,04804,32.3,42.4,337.9,-83.078,40.078,COLUMBUS,OH
111,04808,28.3,36.9,360.0,-88.481,41.770,CHICAGO/AURORA,IL
112,04826,21.0,30.7,336.0,-89.837,44.359,WISCONSIN RAPIDS,WI
113,04836,22.2,27.9,410.0,-68.307,47.286,FRENCHVILLE,ME
114,04838,27.7,38.9,316.9,-87.905,42.121,CHICAGO/PROSPECT HGTS/WHEELI,IL
115,04839,30.1,39.8,342.8,-86.097,42.746,HOLLAND,MI
116,04840,24.6,34.5,335.4,-88.486,43.770,FOND DU LAC,WI
117,04841,25.7,34.5,354.5,-87.851,43.769,SHEBOYGAN,WI
118,04842,32.1,40.6,364.4,-81.887,40.875,WOOSTER,OH
119,04843,31.1,39.1,372.4,-80.215,41.626,MEADVILLE,PA
120,04846,30.3,39.5,350.8,-87.006,41.453,VALPARAISO,IN
121,04847,30.5,38.5,371.8,-84.079,41.868,ADRIAN,MI
122,04848,31.5,41.5,339.1,-83.476,41.563,TOLEDO,OH
123,04849,32.0,40.8,358.8,-82.179,41.179,LORAIN/ELYRIA,OH
124,04850,32.8,41.7,357.6,-84.027,40.708,LIMA,OH
125,04851,32.3,40.1,376.1,-84.429,41.338,DEFIANCE,OH
126,04852,31.9,43.3,317.5,-81.420,40.470,NEW PHILADELPHIA,OH
127,04853,32.1,43.3,320.6,-81.684,41.518,CLEVELAND,OH
128,04854,25.3,31.3,405.7,-84.701,45.013,GAYLORD,MI
129,04855,32.0,40.6,362.5,-83.064,40.616,MARION,OH
130,04857,31.6,39.0,382.9,-80.696,41.778,ASHTABULA,OH
131,04858,33.3,41.9,363.1,-82.463,40.023,NEWARK,OH
135,12812,56.7,68.6,329.2,-81.991,26.917,PUNTA GORDA,FL
136,12815,58.3,67.7,366.8,-81.325,28.434,ORLANDO,FL
137,12816,50.5,61.1,343.4,-82.272,29.690,GAINESVILLE,FL
138,12818,53.3,66.7,306.4,-82.454,28.474,BROOKSVILLE,FL
139,12819,54.9,66.9,326.1,-81.810,28.821,LEESBURG,FL
140,12833,48.4,59.8,329.8,-83.105,29.550,CROSS CITY,FL
141,12834,55.4,66.0,347.1,-81.060,29.177,DAYTONA BEACH,FL
142,12835,58.0,71.3,311.4,-81.864,26.586,FORT MYERS,FL
143,12836,64.2,78.1,308.3,-81.754,24.553,KEY WEST,FL
144,12838,58.6,75.3,270.1,-80.646,28.103,MELBOURNE,FL
145,12839,60.6,74.9,300.3,-80.300,25.824,MIAMI,FL
146,12841,55.1,68.5,307.7,-81.333,28.545,ORLANDO,FL
147,12842,55.6,68.7,312.0,-82.540,27.961,TAMPA,FL
148,12843,60.7,69.6,376.1,-80.418,27.656,VERO BEACH,FL
149,12844,61.7,72.7,345.3,-80.099,26.685,WEST PALM BEACH,FL
150,12849,60.4,75.1,295.3,-80.154,26.072,FORT LAUDERDALE,FL
151,12854,55.4,67.6,324.3,-81.244,28.780,ORLANDO,FL
152,12871,56.7,68.7,328.0,-82.559,27.401,SARASOTA/BRADENTON,FL
153,12873,57.9,69.1,339.7,-82.688,27.911,ST PETERSBURG/CLEARWATER,FL
154,12876,56.1,68.2,326.1,-81.754,28.062,WINTER HAVEN,FL
155,12882,62.2,73.8,337.2,-80.280,25.907,MIAMI,FL
156,12885,60.5,73.6,315.7,-80.171,26.197,FORT LAUDERDALE,FL
157,12888,61.3,72.2,346.5,-80.433,25.648,MIAMI,FL
158,12894,57.7,69.9,325.5,-81.755,26.536,FORT MYERS,FL
159,12895,60.4,69.6,371.1,-80.377,27.498,FORT PIERCE,FL
160,12897,59.6,71.6,329.8,-81.775,26.153,NAPLES,FL
161,12904,58.8,69.5,347.7,-97.654,26.228,HARLINGEN,TX
162,12912,54.7,63.8,369.3,-96.930,28.863,VICTORIA,TX
163,12916,52.9,62.9,353.9,-90.251,29.993,NEW ORLEANS,LA
164,12917,53.1,62.6,361.9,-94.021,29.951,BEAUMONT/PORT ARTHUR,TX
165,12918,54.2,64.9,344.6,-95.279,29.645,HOUSTON,TX
166,12919,60.5,70.4,360.7,-97.426,25.906,BROWNSVILLE,TX
167,12921,50.3,62.7,317.5,-98.464,29.533,SAN ANTONIO,TX
168,12923,58.2,66.6,382.2,-94.860,29.265,GALVESTON,TX
169,12924,58.0,66.1,386.6,-97.513,27.773,CORPUS CHRISTI,TX
170,12928,56.4,66.6,353.3,-97.817,27.500,KINGSVILLE,TX
171,12935,57.1,64.7,394.6,-96.251,28.728,PALACIOS,TX
172,12947,52.4,65.3,312.0,-99.220,28.458,COTULLA,TX
173,12957,61.6,70.2,381.0,-97.346,26.166,PORT ISABEL,TX
174,12959,57.6,70.6,315.0,-98.238,26.175,MC ALLEN,TX
175,12960,53.2,63.7,346.5,-95.364,29.993,HOUSTON,TX
176,12962,48.6,61.0,316.3,-99.174,29.359,HONDO,TX
177,12968,53.5,62.7,366.8,-91.526,29.562,SALT POINT,LA
178,12970,49.8,62.9,307.7,-98.471,29.337,SAN ANTONIO,TX
179,12971,48.3,61.7,302.1,-98.045,29.709,NEW BRAUNFELS,TX
180,12972,59.4,66.9,397.6,-97.046,28.084,ROCKPORT,TX
181,12975,54.4,64.5,353.3,-95.240,29.521,HOUSTON,TX
182,12976,55.3,63.1,390.3,-95.462,29.110,ANGLETON/LAKE JACKSON,TX
183,12977,54.3,64.0,359.4,-95.656,29.622,HOUSTON,TX
184,13721,36.8,48.9,310.7,-76.400,38.283,PATUXENT RIVER,MD
185,13722,36.2,50.7,277.4,-78.786,35.871,RALEIGH/DURHAM,NC
186,13723,32.5,50.3,233.7,-79.944,36.098,GREENSBORO,NC
187,13728,35.2,49.5,279.3,-79.336,36.573,DANVILLE,VA
188,13729,32.4,41.4,355.7,-79.853,38.885,ELKINS,WV
189,13733,33.4,45.9,302.7,-79.207,37.338,LYNCHBURG,VA
190,13734,33.1,44.1,324.3,-77.984,39.402,MARTINSBURG,WV
191,13735,36.1,44.1,375.5,-75.078,39.366,MILLVILLE,NJ
192,13736,31.8,44.8,294.1,-79.916,39.643,MORGANTOWN,WV
193,13737,40.1,52.0,316.3,-76.192,36.904,NORFOLK,VA
194,13739,32.6,45.7,293.5,-75.231,39.868,PHILADELPHIA,PA
195,13740,35.3,49.5,280.5,-77.323,37.511,RICHMOND,VA
196,13741,31.1,48.3,239.2,-79.974,37.317,ROANOKE,VA
197,13743,34.8,49.8,269.4,-77.034,38.865,WASHINGTON,DC
198,13744,39.1,54.3,270.7,-79.731,34.188,FLORENCE,SC
199,13748,42.8,55.0,314.4,-77.906,34.268,WILMINGTON,NC
200,13750,37.7,54.9,245.4,-76.283,36.933,NORFOLK,VA
201,13752,37.4,48.3,329.2,-76.483,38.991,ANNAPOLIS,MD
202,13754,43.3,53.8,339.7,-76.883,34.900,CHERRY POINT,NC
203,13762,37.3,50.9,290.4,-76.136,36.695,FENTRESS,VA
204,13764,37.4,46.8,352.7,-75.359,38.689,GEORGETOWN,DE
205,13769,38.2,52.0,288.5,-76.033,36.817,OCEANA,VA
206,13776,38.8,52.6,289.2,-79.059,34.610,LUMBERTON,NC
207,13781,34.5,45.3,328.6,-75.601,39.673,WILMINGTON,DE
208,13786,40.8,50.7,347.1,-76.175,36.261,ELIZABETH CITY,NC
209,13809,32.6,45.2,300.3,-87.606,38.764,LAWRENCEVILLE,IL
210,13810,33.9,47.3,290.4,-85.664,38.228,LOUISVILLE,KY
211,13833,46.7,58.3,326.1,-89.253,31.265,HATTIESBURG,MS
212,13837,38.1,56.8,228.8,-82.039,33.467,AUGUSTA,GA
213,13838,48.1,59.7,326.8,-88.068,30.626,MOBILE,AL
214,13839,43.9,57.3,298.4,-85.450,31.321,DOTHAN,AL
215,13841,32.8,43.2,333.5,-83.822,39.420,WILMINGTON,OH
216,13865,44.4,54.7,343.4,-88.751,32.333,MERIDIAN,MS
217,13869,42.7,57.8,275.6,-84.194,31.536,ALBANY,GA
218,13870,43.3,57.1,292.9,-82.507,31.536,ALMA,GA
219,13871,40.5,52.4,316.9,-85.858,33.588,ANNISTON,AL
220,13873,36.5,52.2,262.0,-83.327,33.948,ATHENS,GA
221,13874,37.8,53.2,267.0,-84.427,33.640,ATLANTA,GA
222,13876,40.7,53.9,298.4,-86.754,33.564,BIRMINGHAM,AL
223,13877,33.8,45.6,313.2,-82.399,36.480,BRISTOL/JHNSN CTY/KNGSPRT,TN
224,13878,48.8,59.4,342.2,-81.391,31.252,BRUNSWICK,GA
225,13880,43.3,57.5,287.3,-80.041,32.899,CHARLESTON,SC
226,13881,34.3,50.1,259.0,-80.944,35.214,CHARLOTTE,NC
227,13882,38.7,51.4,304.0,-85.200,35.033,CHATTANOOGA,TN
228,13883,37.2,53.7,253.4,-81.118,33.942,COLUMBIA,SC
229,13884,45.1,57.1,318.7,-86.523,30.780,CRESTVIEW,FL
230,13886,35.1,51.5,252.2,-82.346,34.846,GREENVILLE,SC
231,13889,50.2,59.9,357.0,-81.693,30.494,JACKSONVILLE,FL
232,13891,36.3,49.3,297.8,-83.986,35.818,KNOXVILLE,TN
233,13893,40.7,54.5,290.4,-89.985,35.061,MEMPHIS,TN
234,13894,46.9,58.9,320.6,-88.246,30.688,MOBILE,AL
235,13895,42.7,55.6,304.6,-86.394,32.301,MONTGOMERY,AL
236,13896,39.9,51.9,315.0,-87.610,34.745,MUSCLE SHOALS,AL
237,13897,37.0,49.8,300.9,-86.689,36.119,NASHVILLE,TN
238,13899,47.3,60.3,307.0,-87.188,30.473,PENSACOLA,FL
239,13904,48.7,60.0,331.7,-97.681,30.179,AUSTIN/BERGSTROM,TX
240,13911,44.3,60.2,267.0,-97.441,32.769,FORT WORTH,TX
241,13920,29.5,43.5,278.1,-95.664,38.950,TOPEKA,KS
242,13927,46.2,58.4,316.9,-90.223,32.335,JACKSON,MS
243,13932,32.8,47.7,269.4,-97.037,37.168,WINFIELD/ARKANSAS CITY,KS
244,13935,48.8,57.6,369.9,-92.296,31.395,ALEXANDRIA,LA
245,13939,44.8,55.5,337.9,-90.986,33.483,GREENVILLE,MS
246,13942,47.1,56.4,361.3,-92.038,32.511,MONROE,LA
247,13957,46.5,58.5,320.0,-93.824,32.447,SHREVEPORT,LA
248,13958,47.9,63.0,279.9,-97.767,30.317,AUSTIN/CITY,TX
249,13959,46.4,60.4,292.9,-97.229,31.611,WACO,TX
250,13960,45.0,60.4,273.8,-96.851,32.847,DALLAS,TX
251,13961,44.2,58.5,286.7,-97.361,32.819,FORT WORTH,TX
252,13962,41.3,56.8,269.4,-99.682,32.411,ABILENE,TX
253,13963,41.2,54.6,296.6,-92.233,34.747,LITTLE ROCK,AR
254,13964,39.2,53.1,287.9,-94.365,35.334,FORT SMITH,AR
255,13967,36.8,52.9,257.7,-97.600,35.389,OKLAHOMA CITY,OK
256,13968,37.3,52.2,273.1,-95.886,36.198,TULSA,OK
257,13969,34.3,49.2,270.7,-97.100,36.731,PONCA CITY,OK
258,13970,50.0,60.5,344.6,-91.147,30.537,BATON ROUGE,LA
259,13971,35.5,50.2,274.4,-93.155,36.261,HARRISON,AR
260,13972,46.6,58.8,317.5,-95.402,32.354,TYLER,TX
261,13973,42.7,57.6,278.1,-99.766,30.511,JUNCTION,TX
262,13975,27.0,46.1,213.3,-99.775,36.297,GAGE,OK
263,13976,51.3,62.2,339.7,-91.988,30.205,LAFAYETTE,LA
264,13977,44.5,56.3,321.2,-94.008,33.454,TEXARKANA,AR
265,13978,43.5,55.0,324.9,-90.084,33.496,GREENWOOD,MS
266,13981,33.4,46.9,288.5,-95.484,37.670,CHANUTE,KS
267,13984,26.9,43.2,246.0,-97.652,39.549,CONCORDIA,KS
268,13985,22.4,43.9,183.8,-99.970,37.773,DODGE CITY,KS
269,13986,28.0,43.2,260.8,-97.861,38.068,HUTCHINSON,KS
270,13987,35.2,49.4,280.5,-94.498,37.149,JOPLIN,MO
271,13988,30.5,47.0,246.6,-94.593,39.123,KANSAS CITY,MO
272,13989,30.2,45.0,268.2,-96.190,38.331,EMPORIA,KS
273,13993,28.7,41.0,301.5,-94.907,39.774,ST JOSEPH,MO
274,13994,31.8,46.5,270.7,-90.374,38.753,ST LOUIS,MO
275,13995,34.2,47.0,299.0,-93.390,37.240,SPRINGFIELD,MO
276,13996,29.9,44.4,271.9,-95.626,39.073,TOPEKA,KS
277,13997,31.7,44.9,291.0,-91.769,38.128,ROLLA/VICHY,MO
278,14605,25.9,35.5,340.9,-69.797,44.321,AUGUSTA,ME
279,14606,26.2,34.6,361.9,-68.824,44.808,BANGOR,ME
280,14607,24.1,29.2,422.9,-68.033,46.867,CARIBOU,ME
281,14609,24.7,30.6,406.9,-67.792,46.123,HOULTON,ME
282,14610,24.0,28.7,430.9,-68.686,45.648,MILLINOCKET,ME
283,14611,26.4,35.9,343.4,-69.933,43.900,BRUNSWICK,ME
284,14702,29.0,38.7,341.6,-71.289,42.470,BEDFORD,MA
285,14707,32.1,42.5,332.9,-72.049,41.328,GROTON NEW LONDON,CT
286,14710,27.4,38.5,318.1,-71.438,42.933,MANCHESTER,NH
287,14711,33.1,42.9,343.4,-76.763,40.194,HARRISBURG,PA
288,14712,32.3,41.8,347.7,-75.959,40.373,READING,PA
289,14719,33.0,41.6,363.1,-72.632,40.844,WESTHAMPTON BEACH,NY
290,14732,32.2,47.2,267.6,-73.881,40.779,NEW YORK,NY
291,14733,30.5,39.1,361.3,-78.736,42.941,BUFFALO,NY
292,14734,31.4,44.9,286.7,-74.169,40.716,NEWARK,NJ
293,14735,28.1,37.6,344.6,-73.803,42.748,ALBANY,NY
294,14736,31.8,39.5,377.9,-78.317,40.300,ALTOONA,PA
295,14737,31.1,40.8,343.4,-75.449,40.651,ALLENTOWN,PA
296,14739,30.3,43.1,295.3,-71.011,42.361,BOSTON,MA
297,14740,28.2,40.7,297.8,-72.683,41.938,WINDSOR LOCKS,CT
298,14742,25.4,35.6,331.1,-73.150,44.468,BURLINGTON,VT
299,14745,26.0,35.9,336.0,-71.501,43.195,CONCORD,NH
300,14747,31.7,40.3,361.9,-79.272,42.493,DUNKIRK,NY
301,14748,28.5,37.4,354.5,-76.892,42.159,ELMIRA/CORNING,NY
302,14750,26.9,34.1,383.5,-73.610,43.341,GLENS FALLS,NY
303,14751,32.2,42.8,329.8,-76.851,40.217,HARRISBURG,PA
304,14752,29.2,41.5,301.5,-72.651,41.736,HARTFORD,CT
305,14753,29.1,40.6,313.8,-71.115,42.212,MILTON,MA
306,14756,35.5,44.7,354.5,-70.061,41.253,NANTUCKET,MA
307,14757,30.6,39.3,359.4,-73.884,41.627,POUGHKEEPSIE,NY
308,14758,31.8,42.6,326.8,-72.887,41.264,NEW HAVEN,CT
309,14762,32.5,42.2,344.6,-79.922,40.355,PITTSBURGH,PA
310,14763,27.5,36.2,357.6,-73.289,42.427,PITTSFIELD,MA
311,14764,27.6,37.6,336.0,-70.304,43.642,PORTLAND,ME
312,14765,30.1,42.9,295.3,-71.433,41.722,PROVIDENCE,RI
313,14768,29.8,38.6,357.6,-77.677,43.117,ROCHESTER,NY
314,14770,31.6,40.4,358.8,-76.864,40.821,SELINSGROVE,PA
315,14771,29.7,37.9,367.4,-76.103,43.109,SYRACUSE,NY
316,14775,27.3,37.5,332.3,-72.716,42.158,WESTFIELD/SPRINGFIELD,MA
317,14777,29.4,39.4,337.2,-75.727,41.339,WILKES-BARRE/SCRANTON,PA
318,14778,30.0,39.9,339.1,-76.922,41.243,WILLIAMSPORT,PA
319,14787,32.7,42.8,337.9,-71.284,41.530,NEWPORT,RI
320,14794,31.9,41.7,342.2,-71.799,41.350,WESTERLY,RI
321,14813,31.8,40.5,360.7,-81.464,41.038,AKRON,OH
322,14815,30.0,38.2,368.1,-85.251,42.308,BATTLE CREEK,MI
323,14819,27.9,40.2,300.9,-87.752,41.786,CHICAGO,IL
324,14821,33.0,44.6,315.0,-82.881,39.991,COLUMBUS,OH
325,14822,29.6,40.1,329.2,-83.010,42.409,DETROIT,MI
326,14825,32.1,41.3,352.0,-83.669,41.014,FINDLAY,OH
327,14826,28.4,37.1,358.2,-83.749,42.967,FLINT,MI
328,14827,31.5,40.4,357.0,-85.206,41.006,FORT WAYNE,IN
329,14829,31.5,39.6,370.5,-85.792,41.527,GOSHEN,IN
330,14833,29.0,38.3,348.3,-84.459,42.260,JACKSON,MI
331,14835,31.0,41.7,327.4,-86.937,40.412,LAFAYETTE,IN
332,14836,29.1,37.6,361.9,-84.579,42.780,LANSING,MI
333,14837,24.9,35.4,325.5,-89.345,43.141,MADISON,WI
334,14839,26.6,38.2,310.1,-87.897,42.947,MILWAUKEE,WI
335,14840,29.0,38.5,345.3,-86.237,43.171,MUSKEGON,MI
336,14841,26.3,34.4,366.8,-84.796,45.571,PELLSTON,MI
337,14842,28.6,41.6,291.0,-89.684,40.668,PEORIA,IL
338,14845,28.3,37.0,358.2,-84.080,43.533,SAGINAW,MI
339,14847,26.1,32.2,403.8,-84.367,46.467,SAULT STE MARIE,MI
340,14848,30.3,39.8,345.9,-86.333,41.707,SOUTH BEND,IN
341,14850,27.4,35.5,368.1,-85.583,44.741,TRAVERSE CITY,MI
342,14852,31.6,39.8,368.7,-80.674,41.254,YOUNGSTOWN/WARREN,OH
343,14853,29.5,38.0,362.5,-83.230,42.237,DETROIT,MI
344,14858,23.4,31.4,366.8,-88.506,47.169,HANCOCK,MI
345,14860,32.0,41.7,344.0,-80.183,42.080,ERIE,PA
346,14880,27.7,38.1,329.2,-87.868,42.422,CHICAGO/WAUKEGAN,IL
347,14891,31.2,40.1,357.0,-82.518,40.820,MANSFIELD,OH
348,14894,31.3,42.0,327.4,-80.647,40.176,WHEELING,WV
349,14895,31.8,40.0,369.3,-81.443,40.918,AKRON,OH
350,14897,21.4,31.7,326.1,-89.627,44.929,WAUSAU,WI
351,14898,24.3,34.8,325.5,-88.120,44.513,GREEN BAY,WI
352,14910,21.0,29.8,350.8,-95.393,45.883,ALEXANDRIA,MN
353,14913,19.0,28.9,331.1,-92.194,46.844,DULUTH,MN
354,14914,20.4,31.2,317.5,-96.811,46.925,FARGO,ND
355,14916,18.7,28.5,332.3,-97.176,47.949,GRAND FORKS,ND
356,14918,18.5,26.0,373.0,-93.403,48.566,INTERNATIONAL FALLS,MN
357,14919,18.9,29.6,317.5,-98.678,46.930,JAMESTOWN,ND
358,14920,23.0,36.0,286.1,-91.256,43.754,LA CROSSE,WI
359,14921,23.7,35.2,308.9,-90.181,43.212,LONE ROCK,WI
360,14922,21.6,34.5,286.7,-93.229,44.883,MINNEAPOLIS,MN
361,14923,25.9,39.7,277.4,-90.523,41.465,MOLINE,IL
362,14925,22.8,33.7,317.5,-92.492,43.904,ROCHESTER,MN
363,14926,20.2,31.2,313.8,-94.052,45.545,ST CLOUD,MN
364,14927,21.7,35.4,275.0,-93.048,44.930,ST PAUL,MN
365,14929,19.4,31.1,302.1,-98.421,45.450,ABERDEEN,SD
366,14931,28.8,43.3,270.7,-91.125,40.783,BURLINGTON,IA
367,14933,25.3,39.0,278.7,-93.666,41.538,DES MOINES,IA
368,14935,23.8,41.3,228.1,-98.313,40.958,GRAND ISLAND,NE
369,14936,20.8,34.2,278.7,-98.229,44.385,HURON,SD
370,14937,26.6,38.9,299.6,-91.543,41.633,IOWA CITY,IA
371,14938,28.2,40.5,300.9,-92.543,40.097,KIRKSVILLE,MO
372,14939,24.8,39.5,264.5,-96.764,40.831,LINCOLN,NE
373,14940,22.8,33.7,317.5,-93.331,43.158,MASON CITY,IA
374,14941,23.0,38.8,248.5,-97.437,41.981,NORFOLK,NE
375,14942,25.3,38.7,282.4,-95.899,41.310,OMAHA,NE
376,14943,22.3,36.9,263.3,-96.379,42.391,SIOUX CITY,IA
377,14944,20.7,35.1,264.5,-96.754,43.577,SIOUX FALLS,SD
378,14946,19.6,31.5,299.6,-97.154,44.931,WATERTOWN,SD
379,14950,27.4,39.4,304.6,-92.448,41.107,OTTUMWA,IA
380,14972,21.8,34.1,295.3,-95.202,43.164,SPENCER,IA
381,14990,26.4,36.5,333.5,-91.709,41.884,CEDAR RAPIDS,IA
382,14991,21.7,33.0,310.7,-91.485,44.865,EAU CLAIRE,WI
383,14992,20.7,33.1,292.9,-95.082,44.547,REDWOOD FALLS,MN
384,21504,65.4,74.4,377.3,-155.051,19.723,HILO,HI
385,22010,47.4,62.3,281.8,-100.922,29.367,DEL RIO,TX
386,22501,62.9,75.8,320.0,-159.789,22.025,"KEKAHA, KAUAI",HI
387,22516,66.0,73.7,397.6,-156.433,20.902,KAHULUI,HI
388,22519,68.1,76.0,395.8,-157.768,21.451,KANEOHE,HI
389,22521,65.7,76.6,349.6,-157.943,21.328,HONOLULU,HI
390,22534,65.5,73.4,393.9,-157.099,21.157,KAUNAKAKAI,HI
391,22536,66.4,76.2,365.6,-159.341,21.979,LIHUE,HI
392,22551,65.3,76.5,345.3,-158.067,21.317,KAPOLEI,HI
393,23007,31.0,51.6,201.6,-100.288,34.434,CHILDRESS,TX
394,23009,25.9,50.8,156.0,-104.541,33.308,ROSWELL,NM
395,23023,35.7,53.9,231.8,-102.208,31.932,MIDLAND,TX
396,23034,40.3,57.7,245.4,-100.494,31.351,SAN ANGELO,TX
397,23040,33.0,56.5,175.7,-103.201,31.780,WINK,TX
398,23042,30.5,50.7,205.3,-101.821,33.668,LUBBOCK,TX
399,23044,30.4,45.2,268.2,-106.376,31.811,EL PASO,TX
400,23047,24.0,48.3,159.1,-101.706,35.219,AMARILLO,TX
401,23048,21.1,47.9,135.1,-103.603,35.182,TUCUMCARI,NM
402,23049,17.5,43.4,138.8,-106.089,35.617,SANTA FE,NM
403,23050,20.9,48.5,128.9,-106.616,35.042,ALBUQUERQUE,NM
404,23051,16.8,46.2,111.0,-103.154,36.446,CLAYTON,NM
405,23052,14.7,41.3,130.1,-104.502,36.741,RATON,NM
406,23054,14.1,42.2,117.8,-105.143,35.654,LAS VEGAS,NM
407,23055,27.5,51.6,164.6,-104.809,31.831,GUADALUPE PASS,TX
408,23061,10.6,30.6,186.8,-105.866,37.436,ALAMOSA,CO
409,23064,21.6,44.1,173.3,-100.725,37.927,GARDEN CITY,KS
410,23065,18.7,40.7,175.1,-101.693,39.368,GOODLAND,KS
411,23066,17.6,41.5,156.0,-108.538,39.134,GRAND JUNCTION,CO
412,23067,17.4,43.0,141.2,-103.527,38.051,LA JUNTA,CO
413,23070,15.1,44.3,111.0,-104.341,37.259,TRINIDAD,CO
414,23078,26.8,53.5,141.8,-107.721,32.262,DEMING,NM
415,23081,15.4,41.2,137.5,-108.789,35.511,GALLUP,NM
416,23090,17.6,43.6,138.1,-108.229,36.744,FARMINGTON,NM
417,23091,34.9,55.5,205.3,-102.912,30.915,FORT STOCKTON,TX
418,23110,38.5,54.6,259.0,-119.950,36.333,LEMOORE,CA
419,23129,46.8,62.7,268.8,-118.163,33.828,LONG BEACH,CA
420,23130,40.7,62.1,202.9,-118.489,34.210,VAN NUYS,CA
421,23136,44.2,58.8,283.0,-119.083,34.217,CAMARILLO,CA
422,23152,39.0,61.5,190.5,-118.359,34.201,BURBANK,CA
423,23153,16.4,43.3,129.5,-117.087,38.060,TONOPAH,NV
424,23154,12.2,36.4,147.4,-114.845,39.295,ELY,NV
425,23155,43.3,57.7,284.8,-119.056,35.434,BAKERSFIELD,CA
426,23157,17.9,47.7,109.8,-118.363,37.373,BISHOP,CA
427,23158,25.4,65.6,57.4,-114.717,33.619,BLYTHE,CA
428,23159,11.1,34.0,158.5,-112.146,37.706,BRYCE CANYON,UT
429,23160,31.1,65.7,91.9,-110.955,32.131,TUCSON,AZ
430,23161,22.5,59.1,72.8,-116.787,34.854,DAGGETT,CA
431,23169,21.3,60.9,56.2,-115.155,36.079,LAS VEGAS,NV
432,23174,47.2,61.5,289.8,-118.406,33.938,LOS ANGELES,CA
433,23176,15.3,40.4,143.1,-113.028,38.443,MILFORD,UT
434,23179,24.4,66.3,48.8,-114.623,34.766,NEEDLES,CA
435,23182,24.3,56.1,102.4,-118.084,34.629,PALMDALE,CA
436,23183,33.0,70.1,80.2,-111.990,33.443,PHOENIX,AZ
437,23185,24.2,44.4,198.6,-119.771,39.484,RENO,NV
438,23187,22.8,55.6,95.0,-118.724,34.744,SANDBERG,CA
439,23188,48.3,61.2,308.9,-117.169,32.735,SAN DIEGO,CA
440,23190,46.0,54.8,368.1,-119.844,34.426,SANTA BARBARA,CA
441,23191,39.4,60.1,209.0,-118.416,33.405,AVALON,CA
442,23194,17.6,48.0,104.9,-110.722,35.022,WINSLOW,AZ
443,23199,35.0,66.0,118.4,-115.667,32.817,EL CENTRO,CA
444,23213,42.8,53.5,336.6,-122.812,38.509,SANTA ROSA,CA
445,23225,23.6,50.9,133.8,-120.708,39.292,EMIGRANT GAP,CA
446,23230,44.9,54.3,358.2,-122.221,37.755,OAKLAND,CA
447,23232,41.4,55.1,292.2,-121.493,38.513,SACRAMENTO,CA
448,23233,42.7,56.2,296.6,-121.605,36.663,SALINAS,CA
449,23234,45.4,55.7,344.0,-122.398,37.620,SAN FRANCISCO,CA
450,23254,42.7,55.9,300.3,-122.052,37.992,CONCORD,CA
451,23257,41.3,53.9,307.7,-120.513,37.285,MERCED,CA
452,23258,42.3,57.4,275.0,-120.953,37.626,MODESTO,CA
453,23259,42.4,56.8,284.2,-121.845,36.588,MONTEREY,CA
454,23273,43.5,57.6,289.2,-120.465,34.916,SANTA MARIA,CA
455,23275,40.8,52.6,318.7,-123.201,39.126,UKIAH,CA
456,23277,42.9,55.2,313.2,-121.789,36.936,WATSONVILLE,CA
457,23285,39.3,55.7,256.5,-121.817,37.694,LIVERMORE,CA
458,23293,42.1,56.8,279.9,-121.928,37.362,SAN JOSE,CA
459,24011,18.2,31.1,283.6,-100.748,46.774,BISMARCK,ND
460,24012,16.4,31.3,254.0,-102.802,46.797,DICKINSON,ND
461,24013,16.4,30.2,268.8,-101.281,48.259,MINOT,ND
462,24015,17.6,41.3,157.9,-103.232,40.172,AKRON,CO
463,24017,18.4,37.4,205.9,-103.095,42.838,CHADRON,NE
464,24018,15.2,37.7,166.5,-104.807,41.158,CHEYENNE,WY
465,24021,15.8,35.6,194.2,-108.733,42.817,LANDER,WY
466,24022,13.6,33.4,191.8,-105.674,41.313,LARAMIE,WY
467,24023,20.8,38.4,224.4,-100.668,41.122,NORTH PLATTE,NE
468,24024,19.6,36.4,232.5,-101.601,44.051,PHILIP,SD
469,24025,21.2,35.5,266.4,-100.286,44.383,PIERRE,SD
470,24027,13.7,35.4,172.7,-109.065,41.594,ROCK SPRINGS,WY
471,24028,19.7,40.2,191.2,-103.595,41.874,SCOTTSBLUFF,NE
472,24029,19.9,35.1,253.4,-106.976,44.774,SHERIDAN,WY
473,24030,17.2,37.5,190.5,-102.985,41.101,SIDNEY,NE
474,24032,19.9,38.2,215.2,-100.551,42.859,VALENTINE,NE
475,24033,20.2,36.5,239.2,-108.543,45.808,BILLINGS,MT
476,24036,16.7,32.1,247.2,-109.467,47.049,LEWISTOWN,MT
477,24037,18.4,34.7,237.4,-105.886,46.428,MILES CITY,MT
478,24044,17.2,35.4,213.3,-102.800,42.057,ALLIANCE,NE
479,24046,17.1,33.0,241.7,-107.521,40.495,CRAIG,CO
480,24048,19.6,34.9,251.6,-108.082,44.517,GREYBULL,WY
481,24057,14.5,35.7,178.2,-107.200,41.806,RAWLINS,WY
482,24061,15.5,34.8,199.8,-108.459,43.064,RIVERTON,WY
483,24062,19.5,26.5,382.9,-107.951,43.966,WORLAND,WY
484,24089,15.7,35.6,193.0,-106.473,42.898,CASPER,WY
485,24090,17.9,37.8,195.5,-103.054,44.046,RAPID CITY,SD
486,24091,20.3,40.2,197.9,-101.620,40.510,IMPERIAL,NE
487,24110,29.4,36.4,389.0,-119.319,47.208,MOSES LAKE,WA
488,24121,19.4,35.8,237.4,-115.792,40.825,ELKO,NV
489,24126,25.0,41.5,241.7,-112.011,41.196,OGDEN,UT
490,24127,27.4,41.3,277.4,-111.968,40.787,SALT LAKE CITY,UT
491,24128,20.8,36.8,243.5,-117.807,40.902,WINNEMUCCA,NV
492,24130,25.4,32.0,393.9,-117.810,44.838,BAKER CITY,OR
493,24131,29.3,40.9,312.0,-116.220,43.565,BOISE,ID
494,24132,18.9,32.2,278.1,-111.152,45.794,BOZEMAN,MT
495,24133,25.2,37.7,295.3,-113.772,42.543,BURLEY,ID
496,24135,16.0,29.1,278.7,-112.513,45.953,BUTTE,MT
497,24137,17.2,31.8,258.3,-112.376,48.608,CUT BANK,MT
498,24138,18.0,31.7,271.9,-112.552,45.255,DILLON,MT
499,24141,28.1,37.1,352.7,-119.514,47.304,EPHRATA,WA
500,24143,18.9,31.0,295.9,-111.382,47.473,GREAT FALLS,MT
501,24144,20.0,32.7,287.9,-111.964,46.606,HELENA,MT
502,24145,23.1,34.2,315.0,-112.067,43.516,IDAHO FALLS,ID
503,24146,23.8,33.7,334.8,-114.264,48.304,KALISPELL,MT
504,24149,31.1,39.9,358.2,-117.014,46.375,LEWISTON,ID
505,24150,17.3,34.6,224.4,-110.448,45.699,LIVINGSTON,MT
506,24152,25.3,32.2,388.4,-118.425,45.511,MEACHAM,OR
507,24153,23.3,32.3,349.6,-114.093,46.921,MISSOULA,MT
508,24154,20.7,26.7,403.2,-115.645,47.457,MULLAN PASS,ID
509,24155,30.9,39.6,360.0,-118.834,45.698,PENDLETON,OR
510,24156,23.8,36.2,295.9,-112.571,42.920,POCATELLO,ID
511,24157,28.1,35.0,390.3,-117.528,47.621,SPOKANE,WA
512,24160,32.6,41.7,354.5,-118.287,46.095,WALLA WALLA,WA
513,24162,29.0,38.3,348.3,-117.013,44.021,ONTARIO,OR
514,24163,32.5,40.6,371.1,-119.118,46.265,PASCO,WA
515,24164,9.8,28.4,201.6,-110.108,42.584,BIG PINEY,WY
516,24172,23.9,41.0,233.1,-118.565,40.066,LOVELOCK,NV
517,24215,31.4,42.8,316.9,-122.333,41.333,MOUNT SHASTA,CA
518,24216,36.3,56.0,216.4,-122.254,40.152,RED BLUFF,CA
519,24217,35.4,41.5,409.4,-122.537,48.794,BELLINGHAM,WA
520,24219,34.5,41.1,399.5,-121.167,45.619,THE DALLES,OR
521,24220,28.7,36.2,379.2,-120.530,47.034,ELLENSBURG,WA
522,24221,39.7,42.5,476.5,-123.214,44.133,EUGENE,OR
523,24222,36.9,43.0,410.0,-122.280,47.908,EVERETT,WA
524,24225,36.8,45.2,368.7,-122.871,42.389,MEDFORD,OR
525,24227,37.4,42.3,432.8,-122.903,46.973,OLYMPIA,WA
526,24229,38.9,44.8,414.9,-122.600,45.591,PORTLAND,OR
527,24230,27.9,38.1,332.9,-121.150,44.254,REDMOND,OR
528,24231,41.2,44.1,475.3,-123.355,43.239,ROSEBURG,OR
529,24232,39.3,43.7,443.9,-122.995,44.908,SALEM,OR
530,24233,38.1,44.3,408.7,-122.314,47.461,SEATTLE,WA
531,24234,38.4,45.0,401.3,-122.301,47.530,SEATTLE,WA
532,24235,31.1,44.0,294.7,-123.381,42.617,SEXTON SUMMIT,OR
533,24237,27.1,32.5,418.0,-121.337,47.293,STAMPEDE PASS,WA
534,24242,38.3,45.1,397.6,-122.400,45.549,PORTLAND,OR
535,24243,28.3,37.2,354.5,-120.534,46.564,YAKIMA,WA
536,24255,37.3,42.4,429.1,-122.650,48.350,WHIDBEY ISLAND,WA
537,24257,36.6,55.9,220.7,-122.313,40.515,REDDING,CA
538,24259,32.9,40.7,376.7,-122.468,41.781,MONTAGUE,CA
539,24283,43.9,49.0,432.2,-124.109,40.978,ARCATA/EUREKA,CA
540,24286,43.7,49.9,411.2,-124.237,41.780,CRESCENT CITY,CA
541,25308,34.6,40.0,421.7,-131.570,55.043,ANNETTE,AK
542,25309,32.2,35.0,474.7,-134.575,58.355,JUNEAU,AK
543,25323,30.4,34.1,455.0,-135.520,59.245,HAINES,AK
544,25325,35.2,38.0,475.3,-131.712,55.357,KETCHIKAN,AK
545,25331,22.2,30.5,360.7,-149.092,61.596,PALMER,AK
546,25333,33.8,40.1,404.4,-135.360,57.048,SITKA,AK
547,25335,29.1,36.7,377.9,-135.313,59.460,SKAGWAY,AK
548,25339,32.6,35.3,477.2,-139.628,59.510,YAKUTAT,AK
549,25367,34.5,38.5,450.0,-133.075,55.580,KLAWOCK,AK
550,25501,30.5,35.7,424.2,-152.492,57.750,KODIAK,AK
551,25503,26.5,31.4,427.9,-156.654,58.684,KING SALMON,AK
552,25506,27.0,32.7,412.4,-154.915,59.753,ILIAMNA,AK
553,25507,29.9,34.7,431.5,-151.477,59.647,HOMER,AK
554,25516,32.4,35.2,474.7,-151.702,59.443,SELDOVIA,AK
555,25624,31.4,35.0,457.4,-162.722,55.207,COLD BAY,AK
556,25628,28.9,33.5,435.2,-169.565,56.600,ST. GEORGE ISLAND,AK
557,26409,25.5,30.4,427.9,-149.855,61.217,ANCHORAGE,AK
558,26410,31.0,36.2,424.2,-145.451,60.489,CORDOVA,AK
559,26411,7.8,11.5,445.7,-147.855,64.817,FAIRBANKS,AK
560,26412,0.8,3.5,467.3,-141.946,62.961,NORTHWAY,AK
561,26415,12.9,19.7,382.2,-145.718,63.995,DELTA JUNCTION/FT GREELY,AK
562,26422,11.7,17.7,397.6,-141.148,64.777,EAGLE,AK
563,26425,12.4,17.8,410.6,-145.458,62.160,GULKANA,AK
564,26435,9.0,14.6,404.4,-149.072,64.550,NENANA,AK
565,26438,30.1,33.3,465.5,-149.417,60.128,SEWARD,AK
566,26451,24.7,30.8,403.2,-149.993,61.175,ANCHORAGE,AK
567,26491,25.3,32.5,382.9,-149.961,61.179,ANCHORAGE,AK
568,26502,11.7,15.4,447.6,-158.742,64.327,KALTAG,AK
569,26510,11.2,14.9,447.0,-155.603,62.953,MC GRATH,AK
570,26523,26.8,31.5,432.2,-151.239,60.580,KENAI,AK
571,26528,22.1,29.0,386.6,-150.092,62.322,TALKEETNA,AK
572,26529,6.2,10.9,422.3,-152.107,65.174,TANANA,AK
573,26533,8.2,12.9,423.5,-151.509,66.916,BETTLES,AK
574,26615,20.8,24.7,447.0,-161.826,60.786,BETHEL,AK
575,26616,12.3,16.4,438.9,-162.597,66.885,KOTZEBUE,AK
576,26617,16.7,21.6,423.5,-165.443,64.513,NOME,AK
577,26642,9.8,13.5,446.3,-164.548,67.732,KIVALINA,AK
578,26643,13.0,16.0,464.2,-162.764,66.069,DEERING,AK
579,27406,6.8,8.9,483.9,-148.477,70.192,DEADHORSE,AK
580,27502,11.4,13.9,475.3,-156.763,71.287,BARROW,AK
583,53119,42.4,54.3,318.1,-119.629,36.319,HANFORD,CA
584,53120,38.7,58.1,221.4,-116.917,33.033,RAMONA,CA
585,53121,47.8,59.1,331.1,-117.349,33.219,OCEANSIDE,CA
586,53123,22.0,60.0,64.8,-115.196,36.212,LAS VEGAS,NV
587,53144,19.6,53.8,83.3,-117.865,34.988,EDWARDS,CA
588,53145,16.2,42.5,133.8,-116.264,37.617,NELLIS AIR FORCE BASE,NV
589,53147,19.4,51.3,96.8,-115.667,36.583,NELLIS AIR FORCE BASE,NV
590,53802,32.3,42.8,331.7,-88.280,39.478,MATTOON/CHARLESTON,IL
591,53819,37.2,50.0,301.5,-84.567,33.355,ATLANTA,GA
592,53820,44.9,55.7,336.6,-87.044,31.416,EVERGREEN,AL
593,53838,35.8,51.4,262.7,-83.830,34.272,GAINESVILLE,GA
594,53841,33.8,44.9,323.7,-84.903,38.185,FRANKFORT,KY
595,53842,31.4,43.2,310.7,-86.296,39.825,INDIANAPOLIS,IN
596,53844,32.7,43.5,327.4,-82.657,39.756,LANCASTER,OH
597,53847,45.9,60.9,279.3,-87.023,30.704,MILTON,FL
598,53850,36.9,53.4,252.8,-82.886,34.672,CLEMSON,SC
599,53852,39.8,50.4,335.4,-86.945,34.653,DECATUR,AL
600,53853,48.8,60.8,321.8,-86.472,30.400,DESTIN,FL
601,53854,40.3,55.1,276.8,-80.858,33.462,ORANGEBURG,SC
602,53855,33.3,43.5,337.2,-84.525,39.364,HAMILTON,OH
603,53858,50.3,58.7,377.3,-88.532,30.464,PASCAGOULA,MS
604,53859,32.5,42.8,334.8,-84.226,39.594,DAYTON,OH
605,53860,51.4,63.8,318.1,-81.515,30.336,JACKSONVILLE,FL
606,53862,47.0,61.0,293.5,-83.574,30.072,PERRY-FOLEY,FL
607,53863,38.6,51.2,305.2,-84.302,33.875,ATLANTA,GA
608,53864,41.7,53.3,321.8,-86.782,33.178,ALABASTER,AL
609,53865,50.1,59.5,361.3,-89.821,30.345,SLIDELL,LA
610,53866,32.3,42.6,334.8,-85.803,39.578,SHELBYVILLE,IN
611,53867,39.5,55.0,267.6,-80.996,33.971,COLUMBIA,SC
612,53868,35.5,48.9,291.6,-84.233,36.023,OAK RIDGE,TN
613,53869,40.5,51.0,337.9,-89.831,35.940,BLYTHEVILLE,AR
614,53870,35.7,51.7,257.7,-81.156,35.197,GASTONIA,NC
615,53871,36.0,50.6,276.2,-81.058,34.987,ROCK HILL,SC
616,53872,35.5,50.9,265.1,-80.621,35.017,MONROE,NC
617,53873,37.7,50.0,308.9,-84.849,34.123,CARTERSVILLE,GA
618,53874,36.9,51.9,271.3,-82.159,34.249,GREENWOOD,SC
619,53879,30.7,45.0,275.0,-94.371,38.960,LEE'S SUMMIT,MO
620,53901,34.7,47.2,303.3,-91.903,36.878,WEST PLAINS,MO
621,53902,51.9,60.8,370.5,-95.414,30.352,CONROE,TX
622,53903,50.6,61.6,337.9,-95.587,30.747,HUNTSVILLE,TX
623,53904,31.8,44.8,294.1,-90.428,38.929,ST CHARLES,MO
624,53905,47.3,58.1,337.9,-93.744,32.540,SHREVEPORT,LA
625,53907,44.8,59.4,283.6,-97.094,32.664,ARLINGTON,TX
626,53908,37.6,52.0,279.9,-95.984,36.039,TULSA,OK
627,53909,42.4,59.4,252.2,-97.318,32.973,FORT WORTH,TX
628,53910,52.0,61.9,355.1,-95.553,30.062,HOUSTON,TX
629,53911,45.8,59.2,300.3,-96.267,32.710,TERRELL,TX
630,53912,47.7,60.4,311.4,-96.398,32.027,CORSICANA,TX
631,53913,36.5,51.8,267.6,-97.416,35.850,GUTHRIE,OK
632,53914,44.5,57.4,305.8,-96.590,33.180,MC KINNEY,TX
633,53915,51.1,61.5,346.5,-91.884,30.038,NEW IBERIA,LA
634,53916,30.6,41.9,318.1,-93.579,39.823,CHILLICOTHE,MO
635,53917,52.0,64.6,315.7,-90.028,30.043,NEW ORLEANS,LA
636,53918,35.5,50.1,275.6,-92.470,36.369,MOUNTAIN HOME,AR
637,53919,44.4,54.9,340.3,-91.751,33.638,MONTICELLO,AR
638,53920,40.1,52.6,307.7,-93.095,35.258,RUSSELLVILLE,AR
639,53922,37.2,48.8,318.7,-94.307,36.282,FAYETTEVILLE/SPRINGDALE,AR
640,53925,43.5,54.4,333.5,-94.399,34.047,DE QUEEN,AR
641,53959,40.8,51.6,333.5,-90.234,35.135,WEST MEMPHIS,AR
642,54704,29.2,38.5,348.3,-71.174,42.191,NORWOOD,MA
643,54728,23.8,30.2,397.0,-71.545,44.368,WHITEFIELD,NH
644,54733,29.1,39.1,337.2,-70.918,42.584,BEVERLY,MA
645,54734,29.8,39.5,342.2,-73.483,41.371,DANBURY,CT
646,54737,32.9,42.2,351.4,-76.294,40.120,LANCASTER,PA
647,54740,25.5,34.5,350.8,-72.518,43.344,SPRINGFIELD,VT
648,54742,24.5,32.8,362.5,-72.019,44.419,SAINT JOHNSBURY,VT
649,54743,31.2,41.5,333.5,-74.283,40.876,CALDWELL,NJ
650,54756,27.1,35.9,355.7,-72.291,42.570,ORANGE,MA
651,54767,28.7,39.5,324.3,-72.184,41.742,WILLIMANTIC,CT
652,54768,28.3,37.1,356.3,-73.171,42.696,NORTH ADAMS,MA
653,54769,31.4,40.3,357.0,-70.729,41.910,PLYMOUTH,MA
654,54770,25.7,35.1,344.0,-72.004,42.805,JAFFREY,NH
655,54771,24.0,31.8,371.1,-72.614,44.534,MORRISVILLE,VT
656,54772,24.4,33.8,343.4,-70.948,43.991,FRYEBURG,ME
657,54773,29.3,37.1,374.2,-76.385,43.350,FULTON,NY
658,54777,31.0,42.1,321.2,-71.021,41.876,TAUNTON,MA
659,54778,30.0,38.7,359.4,-77.056,42.643,PENN YAN,NY
660,54779,31.3,39.6,366.8,-74.737,41.009,ANDOVER,NJ
661,54780,33.7,45.5,312.6,-71.923,41.073,MONTAUK,NY
662,54781,27.7,36.1,362.5,-73.247,42.891,BENNINGTON,VT
663,54782,32.8,42.6,342.8,-75.557,40.238,POTTSTOWN,PA
664,54785,31.7,41.3,345.3,-74.669,40.624,SOMERVILLE,NJ
665,54786,31.3,42.7,316.9,-75.123,40.330,DOYLESTOWN,PA
666,54787,32.1,44.3,305.8,-73.417,40.734,FARMINGDALE,NY
667,54788,30.3,40.2,339.7,-72.828,41.510,MERIDEN,CT
668,54789,28.6,36.3,375.5,-75.379,41.139,MOUNT POCONO,PA
669,54790,33.0,42.8,343.4,-72.869,40.822,SHIRLEY,NY
670,54791,27.0,36.9,337.2,-70.922,43.278,ROCHESTER,NH
671,54793,30.3,39.5,350.8,-74.623,41.200,SUSSEX,NJ
672,54813,25.5,35.9,328.0,-86.651,46.429,MUNISING,MI
673,63870,48.8,58.4,357.6,-86.312,31.043,FLORALA,AL
674,63874,45.7,54.3,371.1,-86.611,31.846,GREENVILLE,AL
675,64775,28.6,37.1,361.9,-75.412,43.234,ROME,NY
676,64776,25.4,34.8,344.0,-73.468,44.651,PLATTSBURG,NY
677,92805,60.8,73.6,320.0,-80.108,26.250,POMPANO BEACH,FL
678,92806,58.1,69.4,338.5,-82.628,27.765,ST PETERSBURG,FL
679,92809,61.7,73.1,339.7,-80.241,25.999,HOLLYWOOD,FL
680,93005,16.9,38.6,175.7,-107.760,37.143,DURANGO,CO
681,93009,8.1,17.6,328.6,-106.316,39.228,LEADVILLE,CO
682,93010,14.6,36.2,174.5,-103.716,39.189,LIMON,CO
683,93013,20.8,40.0,205.9,-107.898,38.505,MONTROSE,CO
684,93026,30.4,57.5,142.5,-109.604,31.469,DOUGLAS BISBEE,AZ
685,93027,20.1,47.4,130.1,-109.379,34.518,ST JOHNS,AZ
686,93033,30.2,52.1,187.5,-104.263,32.338,CARLSBAD,NM
687,93037,13.7,41.3,121.5,-104.711,38.812,COLORADO SPRINGS,CO
688,93042,20.6,43.9,164.6,-102.547,36.023,DALHART,TX
689,93057,17.2,41.5,151.7,-107.902,35.165,GRANTS,NM
690,93058,15.9,31.5,244.2,-104.498,38.290,PUEBLO,CO
691,93067,16.5,41.7,143.7,-104.849,39.570,DENVER,CO
692,93069,17.5,39.4,174.5,-108.628,37.303,CORTEZ,CO
693,93073,14.3,32.6,209.6,-106.868,39.223,ASPEN,CO
694,93075,15.0,41.0,135.1,-109.754,38.755,MOAB,UT
695,93084,28.4,58.5,117.8,-109.635,32.855,SAFFORD,AZ
696,93102,24.9,42.3,230.6,-118.700,39.417,FALLON,NV
697,93104,20.1,55.9,74.7,-117.683,35.683,CHINA LAKE,CA
698,93107,45.0,61.4,261.4,-117.150,32.867,MIRAMAR,CA
699,93110,45.3,57.2,320.6,-119.206,34.201,OXNARD,CA
700,93112,50.5,64.4,297.2,-117.200,32.700,SAN DIEGO,CA
701,93115,48.3,58.5,347.7,-117.117,32.567,IMPERIAL BEACH,CA
702,93129,16.7,41.8,144.3,-113.097,37.702,CEDAR CITY,UT
703,93134,46.0,62.6,260.2,-118.296,34.028,LOS ANGELES,CA
704,93138,29.9,68.9,67.3,-116.505,33.828,PALM SPRINGS,CA
705,93141,11.2,39.7,111.6,-110.750,39.545,PRICE,UT
706,93167,22.5,56.0,90.1,-113.937,35.259,KINGMAN,AZ
707,93184,46.1,62.4,263.9,-117.866,33.680,SANTA ANA,CA
708,93193,43.6,57.4,292.9,-119.719,36.780,FRESNO,CA
709,93197,46.1,60.0,293.5,-118.451,34.016,SANTA MONICA,CA
710,93205,41.0,53.8,304.6,-121.570,39.098,MARYSVILLE,CA
711,93206,42.4,58.8,259.0,-120.641,35.237,SAN LUIS OBISPO,CA
712,93209,36.8,54.9,234.3,-120.627,35.673,PASO ROBLES,CA
713,93210,41.2,55.3,287.3,-121.618,39.490,OROVILLE,CA
714,93225,40.8,54.7,289.2,-121.590,38.696,SACRAMENTO,CA
715,93227,41.4,51.4,345.9,-122.280,38.213,NAPA,CA
716,93228,42.9,56.2,299.0,-122.121,37.659,HAYWARD,CA
717,93230,23.4,38.4,259.0,-119.995,38.894,SOUTH LAKE TAHOE,CA
718,93241,37.3,56.6,221.4,-121.961,38.377,VACAVILLE,CA
719,93242,42.6,55.2,308.3,-120.111,36.988,MADERA,CA
720,93706,31.7,43.5,311.4,-77.730,39.708,HAGERSTOWN,MD
721,93718,43.1,55.4,313.2,-78.721,33.816,NORTH MYRTLE BEACH,SC
722,93719,42.5,52.8,342.2,-77.047,35.068,NEW BERN,NC
723,93720,37.3,44.6,388.4,-75.510,38.341,SALISBURY,MD
724,93721,34.1,46.2,308.9,-76.684,39.172,BALTIMORE,MD
725,93727,42.9,54.0,330.5,-77.433,34.700,NEW RIVER,NC
726,93729,47.2,56.9,354.5,-75.623,35.232,CAPE HATTERAS,NC
727,93730,36.4,45.8,352.0,-74.457,39.458,ATLANTIC CITY,NJ
728,93736,33.5,46.1,300.9,-78.453,38.139,CHARLOTTESVILLE,VA
729,93738,32.5,46.1,286.1,-77.448,38.935,WASHINGTON,DC
730,93739,37.9,48.7,331.1,-75.496,37.941,WALLOPS ISLAND,VA
731,93740,37.2,52.6,267.0,-78.880,34.991,FAYETTEVILLE,NC
732,93741,38.6,50.2,320.0,-76.493,37.132,NEWPORT NEWS,VA
733,93759,37.9,49.4,320.6,-77.893,35.855,ROCKY MOUNT,NC
734,93765,45.6,56.5,335.4,-76.661,34.734,BEAUFORT,NC
735,93773,37.4,48.2,331.1,-77.007,36.984,WAKEFIELD,VA
736,93775,35.5,48.9,291.6,-77.434,37.708,RICHMOND/ASHLAND,VA
737,93778,32.1,43.6,316.3,-76.874,39.918,YORK,PA
738,93780,34.4,44.3,342.8,-74.841,39.941,MOUNT HOLLY,NJ
739,93781,36.6,51.7,270.1,-77.710,36.439,ROANOKE RAPIDS,NC
740,93782,38.1,52.0,287.3,-79.366,34.792,MAXTON,NC
741,93783,33.4,49.3,257.1,-79.477,36.047,BURLINGTON,NC
742,93784,33.2,48.8,260.8,-76.610,39.281,BALTIMORE,MD
743,93785,34.5,49.7,267.0,-79.064,35.933,CHAPEL HILL,NC
744,93786,39.3,47.7,370.5,-75.124,38.308,OCEAN CITY,MD
745,93801,37.5,50.1,304.6,-85.161,34.348,ROME,GA
746,93805,45.7,58.2,312.6,-84.353,30.393,TALLAHASSEE,FL
747,93806,41.8,53.2,324.9,-87.616,33.212,TUSCALOOSA,AL
748,93807,32.2,49.0,244.8,-80.222,36.134,WINSTON SALEM,NC
749,93808,35.5,47.1,317.5,-86.436,36.981,BOWLING GREEN,KY
750,93810,34.1,45.7,316.3,-89.250,37.780,CARBONDALE/MURPHYBORO,IL
751,93812,33.9,44.9,324.9,-84.419,39.103,CINCINNATI,OH
752,93814,33.9,43.8,342.2,-84.672,39.043,COVINGTON,KY
753,93815,31.9,42.6,328.0,-84.219,39.906,DAYTON,OH
754,93817,34.1,45.9,313.2,-87.537,38.043,EVANSVILLE,IN
755,93819,32.3,43.4,322.4,-86.272,39.710,INDIANAPOLIS,IN
756,93820,34.6,45.5,327.4,-84.606,38.041,LEXINGTON,KY
757,93821,33.8,39.0,425.4,-85.730,38.177,LOUISVILLE,KY
758,93822,29.8,43.2,286.7,-89.684,39.845,SPRINGFIELD,IL
759,93824,32.7,42.4,344.6,-81.892,39.944,ZANESVILLE,OH
760,93831,45.5,58.0,312.0,-80.717,32.483,BEAUFORT,SC
761,93841,46.5,57.6,332.9,-87.022,30.724,MILTON,FL
762,93842,39.8,55.2,268.8,-84.942,32.516,COLUMBUS,GA
763,93845,45.1,58.2,304.0,-83.277,30.783,VALDOSTA,GA
764,93846,36.4,51.2,273.8,-82.709,34.495,ANDERSON,SC
765,93862,41.0,53.1,314.4,-88.771,34.261,TUPELO,MS
766,93874,50.3,59.8,360.0,-89.070,30.407,GULFPORT,MS
767,93909,30.8,43.5,297.2,-94.890,38.831,OLATHE,KS
768,93915,49.9,60.3,345.9,-92.559,31.335,ALEXANDRIA,LA
769,93919,48.1,58.3,347.7,-90.472,31.178,MCCOMB,MS
770,93950,40.8,54.2,295.9,-95.783,34.899,MC ALESTER,OK
771,93953,39.1,52.3,297.2,-95.361,35.657,MUSKOGEE,OK
772,93967,34.4,49.0,274.4,-95.566,37.091,COFFEYVILLE,KS
773,93985,43.0,57.6,281.8,-98.061,32.782,MINERAL WELLS,TX
774,93986,34.8,51.1,253.4,-99.051,35.008,HOBART,OK
775,93987,49.4,59.9,344.0,-94.750,31.234,LUFKIN,TX
776,93988,43.6,54.1,339.7,-91.935,34.175,PINE BLUFF,AR
777,93989,29.6,42.1,299.0,-91.194,39.943,QUINCY,IL
778,93990,20.5,41.3,188.7,-99.830,39.376,HILL CITY,KS
779,93992,46.4,54.1,386.6,-92.813,33.221,EL DORADO,AR
780,93993,36.7,49.3,304.0,-94.170,36.005,FAYETTEVILLE,AR
781,93997,23.8,43.4,204.7,-98.828,38.872,RUSSELL,KS
782,94008,17.6,31.1,274.4,-106.621,48.214,GLASGOW,MT
783,94012,18.0,32.2,264.5,-109.780,48.559,HAVRE,MT
784,94014,16.8,29.3,287.9,-103.642,48.195,WILLISTON,ND
785,94017,16.8,30.0,277.4,-105.574,48.094,WOLF POINT,MT
786,94023,17.4,34.9,222.0,-105.542,44.339,GILLETTE,WY
787,94030,16.5,36.7,190.5,-109.509,40.441,VERNAL,UT
788,94032,14.3,32.7,208.4,-103.628,43.731,CUSTER,SD
789,94037,17.3,32.8,246.6,-103.546,45.604,BUFFALO,SD
790,94038,16.7,30.3,271.9,-102.655,46.014,HETTINGER,ND
791,94039,18.2,36.7,211.5,-102.518,43.021,PINE RIDGE,SD
792,94040,20.0,40.7,189.3,-100.591,40.206,MC COOK,NE
793,94041,17.7,29.1,305.8,-101.439,47.663,GARRISON,ND
794,94050,17.2,35.7,210.3,-107.885,40.049,MEEKER,CO
795,94051,19.0,32.4,276.8,-106.948,47.326,JORDAN,MT
796,94052,19.6,32.3,287.3,-100.408,45.546,MOBRIDGE,SD
797,94053,18.3,39.0,187.5,-104.153,42.065,TORRINGTON,WY
798,94054,17.5,35.9,211.5,-106.721,44.381,BUFFALO,WY
799,94055,17.0,31.9,254.6,-104.250,46.358,BAKER,MT
800,94056,18.2,34.6,236.2,-102.019,45.032,FAITH,SD
801,94057,17.0,36.2,202.2,-105.386,42.797,DOUGLAS,WY
802,94107,24.6,37.8,284.8,-117.864,42.591,ROME,OR
803,94119,26.7,32.1,418.0,-117.421,47.969,DEER PARK,WA
804,94128,23.5,35.9,295.3,-111.853,41.787,LOGAN,UT
805,94129,29.4,36.5,387.2,-117.109,46.744,PULLMAN/MOSCOW,WA
806,94176,29.2,36.9,376.1,-117.321,47.683,SPOKANE,WA
807,94178,24.9,39.5,265.7,-114.487,42.482,TWIN FALLS,ID
808,94182,23.0,29.2,400.1,-116.102,44.889,MCCALL,ID
809,94185,24.9,34.4,342.2,-118.954,43.592,BURNS,OR
810,94194,23.2,33.5,327.4,-111.881,43.834,REXBURG,ID
811,94197,26.0,33.6,376.1,-119.517,48.464,OMAK,WA
812,94224,39.9,45.2,426.6,-123.878,46.158,ASTORIA,OR
813,94225,40.2,46.9,400.7,-123.937,46.971,HOQUIAM,WA
814,94227,37.1,41.3,447.0,-123.148,47.238,SHELTON,WA
815,94236,28.6,38.2,343.4,-121.724,42.147,KLAMATH FALLS,OR
816,94239,30.0,37.7,376.7,-120.207,47.399,WENATCHEE,WA
817,94240,38.6,43.0,443.3,-124.561,47.934,QUILLAYUTE,WA
818,94248,38.1,44.9,397.6,-122.214,47.493,RENTON,WA
819,94261,37.6,42.6,430.9,-122.949,45.541,PORTLAND,OR
820,94266,36.6,41.4,434.6,-123.498,48.120,PORT ANGELES,WA
821,94273,38.0,43.7,418.0,-123.134,45.195,MC MINNVILLE,OR
822,94274,38.9,44.5,420.5,-122.576,47.268,TACOMA,WA
823,94276,38.1,42.3,447.0,-123.023,48.522,FRIDAY HARBOR,WA
824,94281,37.8,44.6,397.6,-122.769,45.249,AURORA,OR
825,94298,37.6,44.2,400.7,-122.657,45.621,VANCOUVER,WA
826,94299,28.0,37.8,339.7,-120.567,41.483,ALTURAS,CA
827,94623,27.7,36.6,354.5,-69.712,43.964,WISCASSET,ME
828,94626,23.0,30.0,385.3,-69.595,45.462,GREENVILLE,ME
829,94700,22.7,29.6,386.6,-71.179,44.576,BERLIN,NH
830,94702,30.8,44.6,281.8,-73.146,41.175,BRIDGEPORT,CT
831,94704,30.2,39.2,354.5,-77.713,42.571,DANSVILLE,NY
832,94705,23.5,32.8,344.6,-72.579,44.203,BARRE/MONTPELIER,VT
833,94720,33.4,42.4,356.3,-70.280,41.669,HYANNIS,MA
834,94723,28.5,39.2,325.5,-71.124,42.717,LAWRENCE,MA
835,94724,33.7,42.8,355.1,-70.615,41.393,VINEYARD HAVEN,MA
836,94725,25.9,33.9,368.7,-74.846,44.936,MASSENA,NY
837,94726,32.4,40.3,374.8,-70.958,41.676,NEW BEDFORD,MA
838,94728,32.3,45.5,291.6,-73.967,40.783,NEW YORK,NY
839,94732,32.3,45.3,294.1,-75.011,40.082,PHILADELPHIA,PA
840,94740,22.9,28.9,404.4,-74.207,44.385,SARANAC LAKE,NY
841,94741,30.8,44.6,281.8,-74.061,40.850,TETERBORO,NJ
842,94745,30.4,42.0,313.2,-73.708,41.067,WHITE PLAINS,NY
843,94746,26.7,38.2,311.4,-71.876,42.267,WORCESTER,MA
844,94765,26.0,34.4,361.9,-72.305,43.626,LEBANON,NH
845,94789,32.2,45.1,295.9,-73.796,40.655,NEW YORK,NY
846,94790,27.4,36.1,357.6,-76.022,43.992,WATERTOWN,NY
847,94814,26.2,32.7,396.4,-84.691,44.368,HOUGHTON LAKE,MI
848,94815,30.2,38.3,369.9,-85.552,42.235,KALAMAZOO,MI
849,94817,28.8,37.4,360.0,-83.418,42.665,PONTIAC,MI
850,94818,27.2,38.0,323.1,-87.814,42.761,RACINE,WI
851,94822,26.3,38.3,304.0,-89.093,42.196,ROCKFORD,IL
852,94823,32.1,41.8,344.0,-80.231,40.501,PITTSBURGH,PA
853,94830,31.1,39.8,360.0,-83.801,41.589,TOLEDO,OH
854,94846,27.5,39.4,306.4,-87.914,41.986,CHICAGO,IL
855,94847,29.3,40.0,326.1,-83.349,42.215,DETROIT,MI
856,94849,26.8,33.9,385.3,-83.581,45.072,ALPENA,MI
857,94855,24.6,34.6,333.5,-88.557,43.984,OSHKOSH,WI
858,94860,29.5,39.0,345.3,-85.523,42.882,GRAND RAPIDS,MI
859,94870,31.1,41.0,340.3,-88.278,40.040,CHAMPAIGN/URBANA,IL
860,94871,31.2,39.6,365.0,-86.422,42.129,BENTON HARBOR,MI
861,94889,29.2,37.4,367.4,-83.744,42.223,ANN ARBOR,MI
862,94892,27.9,38.6,324.9,-88.246,41.914,CHICAGO/WEST CHICAGO,IL
863,94893,21.2,30.2,347.7,-88.114,45.818,IRON MOUNTAIN/KINGSFORD,MI
864,94895,31.4,41.5,337.2,-85.394,40.234,MUNCIE,IN
865,94898,28.7,38.4,341.6,-82.793,44.022,HARBOR BEACH,MI
866,94899,25.4,34.3,352.7,-87.875,47.467,COPPER HARBOR,MI
867,94908,25.6,36.2,324.9,-90.704,42.398,DUBUQUE,IA
868,94910,24.6,35.7,316.3,-92.401,42.554,WATERLOO,IA
869,94929,21.8,31.3,339.7,-90.919,46.549,ASHLAND,WI
870,94931,18.7,27.0,358.2,-92.839,47.387,HIBBING,MN
871,94938,20.3,31.3,313.8,-94.131,46.405,BRAINERD,MN
872,94943,21.6,37.4,247.2,-99.318,43.767,CHAMBERLAIN,SD
873,94946,20.5,39.3,210.3,-99.639,41.437,BROKEN BOW,NE
874,94949,23.2,40.9,225.7,-98.427,40.604,HASTINGS,NE
875,94950,21.4,36.2,260.2,-98.038,43.777,MITCHELL,SD
876,94957,27.8,41.5,280.5,-95.592,40.079,FALLS CITY,NE
877,94958,22.1,40.8,212.7,-98.952,41.624,ORD,NE
878,94960,21.4,33.0,305.8,-93.351,45.063,MINNEAPOLIS,MN
879,94961,19.3,26.9,371.1,-94.610,48.728,BAUDETTE,MN
880,94963,21.7,33.8,298.4,-93.470,44.832,MINNEAPOLIS,MN
881,94967,19.6,30.0,323.1,-95.068,46.901,PARK RAPIDS,MN
882,94971,21.6,33.9,295.3,-94.746,43.408,ESTHERVILLE,IA
883,94973,20.5,32.5,299.0,-91.444,46.026,HAYWARD,WI
884,94978,23.3,36.8,279.3,-96.178,41.764,TEKAMAH,NE
885,94982,27.0,38.8,307.0,-90.591,41.614,DAVENPORT,IA
886,94985,23.3,31.5,363.1,-90.189,44.637,MARSHFIELD,WI
887,94988,24.9,36.2,313.2,-92.918,42.113,MARSHALLTOWN,IA
888,94989,24.6,36.8,299.0,-93.622,41.992,AMES,IA
889,94990,21.0,39.3,216.4,-99.842,43.390,WINNER,SD
890,94991,26.9,36.9,335.4,-93.902,40.633,LAMONI,IA
891,94992,21.5,31.7,328.0,-90.344,47.747,GRAND MARAIS,MN
892,94993,19.6,32.9,278.7,-96.991,45.669,SISSETON,SD
893,94994,24.0,36.1,300.3,-90.678,43.156,BOSCOBEL,WI
