,wban,dewpt,tavg,wp,long,lat,stname,ststate
0,03013,57.1,75.2,252.8,-102.688,38.070,LAMAR,CO
1,03016,40.5,71.6,123.3,-107.726,39.526,RIFLE,CO
2,03017,49.1,71.5,201.6,-104.658,39.833,DENVER,CO
3,03024,58.5,77.7,242.3,-101.394,35.700,BORGER,TX
4,03026,56.6,70.9,297.2,-102.284,39.245,BURLINGTON,CO
5,03027,50.4,67.2,261.4,-105.663,35.003,CLINES CORNERS,NM
6,03028,57.0,73.2,274.4,-102.614,37.283,SPRINGFIELD,CO
7,03029,44.6,67.5,192.4,-109.061,35.658,WINDOW ROCK,AZ
8,03030,59.8,76.7,268.8,-101.505,36.682,GUYMON,OK
9,03031,61.1,78.3,266.4,-102.387,31.921,ODESSA,TX
10,03032,63.9,80.5,275.6,-102.213,30.048,DRYDEN,TX
11,03068,50.0,66.7,262.0,-104.300,38.767,BULLSEYE,CO
12,03102,58.8,80.0,222.0,-117.600,34.056,ONTARIO,CA
13,03103,48.9,66.9,246.6,-111.672,35.140,FLAGSTAFF,AZ
14,03104,58.2,91.7,124.6,-116.160,33.628,PALM SPRINGS,CA
15,03124,59.5,75.6,277.4,-110.344,31.588,FORT HUACHUCA/SIERRA VISTA,AZ
16,03131,61.1,73.7,323.1,-117.139,32.816,SAN DIEGO,CA
17,03144,62.5,92.5,152.3,-115.579,32.834,IMPERIAL,CA
18,03145,64.1,93.0,161.6,-114.617,32.650,YUMA,AZ
19,03159,42.6,83.4,70.3,-118.219,34.741,LANCASTER,CA
20,03160,35.9,86.1,27.2,-116.028,36.621,MERCURY,NV
21,03162,42.5,82.3,75.3,-111.448,36.926,PAGE,AZ
22,03164,51.2,74.2,197.9,-116.467,32.617,CAMPO,CA
23,03166,61.0,76.6,284.8,-117.979,33.872,FULLERTON,CA
24,03167,61.8,72.5,349.6,-118.334,33.923,HAWTHORNE,CA
25,03170,27.1,69.4,49.4,-116.006,39.601,EUREKA,NV
26,03171,57.9,80.2,210.9,-117.439,33.952,RIVERSIDE,CA
27,03177,62.5,70.9,384.7,-117.279,33.128,CARLSBAD,CA
28,03178,61.5,72.6,344.0,-116.979,32.572,SAN DIEGO,CA
29,03179,58.9,78.1,242.3,-117.636,33.975,CHINO,CA
30,03184,57.9,90.7,128.9,-112.082,33.688,PHOENIX,AZ
31,03192,58.6,91.8,127.0,-111.911,33.623,SCOTTSDALE,AZ
32,03195,46.2,66.0,224.4,-112.155,35.946,GRAND CANYON,AZ
33,03196,62.0,76.8,295.3,-110.846,31.421,NOGALES,AZ
34,03749,55.9,69.9,300.3,-77.468,39.645,CAMP DAVID,MD
35,03757,62.0,73.8,334.2,-76.429,38.142,ST INIGOES,MD
36,03810,63.8,75.3,339.7,-81.390,35.741,HICKORY,NC
37,03812,60.2,72.8,322.4,-82.538,35.432,ASHEVILLE,NC
38,03813,69.6,80.0,358.8,-83.654,32.688,MACON,GA
39,03816,63.6,76.0,327.4,-88.774,37.056,PADUCAH,KY
40,03818,70.0,80.7,355.1,-85.184,30.836,MARIANNA,FL
41,03820,69.4,80.3,352.0,-81.965,33.370,AUGUSTA,GA
42,03822,72.3,82.1,369.3,-81.202,32.119,SAVANNAH,GA
43,03847,59.8,73.4,308.9,-85.085,35.951,CROSSVILLE,TN
44,03849,60.6,74.4,307.0,-84.077,37.087,LONDON,KY
45,03853,72.1,81.2,379.8,-81.417,30.400,MAYPORT,FL
46,03855,73.3,81.1,400.1,-87.317,30.350,PENSACOLA,FL
47,03856,65.4,78.9,314.4,-86.786,34.644,HUNTSVILLE,AL
48,03859,57.5,69.8,324.3,-81.208,37.296,BLUEFIELD,WV
49,03860,60.1,73.4,312.6,-82.555,38.382,HUNTINGTON,WV
50,03866,68.8,79.0,361.3,-88.567,32.550,MERIDIAN,MS
51,03868,61.0,71.8,347.7,-87.309,39.452,TERRE HAUTE,IN
52,03870,63.5,78.8,290.4,-82.219,34.899,GREER,SC
53,03872,57.6,67.0,366.2,-81.125,37.795,BECKLEY,WV
54,03878,68.5,79.2,353.9,-86.012,31.861,TROY,AL
55,03882,72.3,80.5,393.3,-85.683,30.212,PANAMA CITY,FL
56,03887,62.9,71.3,384.7,-88.866,39.984,DECATUR,IL
57,03888,66.1,78.1,334.8,-84.521,33.779,ATLANTA,GA
58,03889,59.7,73.6,304.6,-83.314,37.591,JACKSON,KY
59,03893,61.2,71.6,353.9,-86.617,39.144,BLOOMINGTON,IN
60,03894,64.2,76.1,334.8,-87.415,36.622,CLARKSVILLE,TN
61,03901,69.4,82.2,326.1,-94.711,32.385,LONGVIEW,TX
62,03902,68.1,84.8,278.1,-97.822,31.070,FORT HOOD/KILLEEN,TX
63,03904,71.4,85.0,317.5,-96.364,30.588,COLLEGE STATION,TX
64,03919,62.8,77.2,300.9,-97.661,38.813,SALINA,KS
65,03927,67.4,86.7,249.1,-97.041,32.896,DALLAS-FORT WORTH,TX
66,03928,64.6,77.9,316.3,-97.429,37.647,WICHITA,KS
67,03931,70.8,83.6,327.4,-93.192,31.045,FORT POLK,LA
68,03932,63.6,79.9,278.7,-99.200,35.340,CLINTON,OK
69,03935,65.3,74.5,374.2,-89.571,37.225,CAPE GIRARDEAU,MO
70,03936,63.8,75.2,340.9,-96.678,39.135,MANHATTAN,KS
71,03937,74.0,82.2,393.9,-93.228,30.125,LAKE CHARLES,LA
72,03940,69.6,79.4,367.4,-90.078,32.320,JACKSON,MS
73,03945,65.5,70.9,435.9,-92.218,38.817,COLUMBIA,MO
74,03947,63.2,75.2,332.3,-94.718,39.299,KANSAS CITY,MO
75,03949,70.1,82.4,333.5,-93.283,31.400,FORT POLK,LA
76,03950,65.9,82.3,279.3,-98.416,34.568,LAWTON,OK
77,03953,67.6,78.9,345.3,-90.646,35.831,JONESBORO,AR
78,03954,65.9,78.6,324.9,-97.647,35.534,OKLAHOMA CITY,OK
79,03957,63.9,78.4,300.3,-98.553,37.284,MEDICINE LODGE,KS
80,03960,64.2,74.4,358.8,-90.157,38.571,CAHOKIA/ST.LOUIS,IL
81,03962,67.1,80.3,319.4,-93.096,34.478,HOT SPRINGS,AR
82,03963,65.7,75.3,368.1,-92.156,38.591,JEFFERSON CITY,MO
83,03965,66.2,81.2,295.9,-97.086,36.160,STILLWATER,OK
84,03966,63.9,74.9,347.1,-90.656,38.657,ST LOUIS,MO
85,03967,64.0,75.8,336.0,-94.739,38.850,OLATHE,KS
86,03971,67.2,85.0,264.5,-96.868,32.681,DALLAS,TX
87,03974,64.7,76.6,334.8,-97.219,37.750,WICHITA,KS
88,03975,66.6,76.2,368.7,-90.325,36.773,POPLAR BLUFF,MO
89,03981,64.7,82.0,268.2,-98.984,34.352,FREDERICK,OK
90,03991,67.5,83.8,281.8,-97.199,33.206,DENTON,TX
91,03994,65.2,74.9,366.2,-93.183,38.704,SEDALIA,MO
92,03996,71.2,79.8,386.6,-91.030,32.348,TALLULAH/VICKSBURG,MS
93,03997,64.1,75.5,341.6,-95.212,39.008,LAWRENCE,KS
94,03998,66.9,76.5,369.3,-95.504,37.328,PARSONS,KS
95,03999,67.1,83.2,283.6,-98.235,30.741,BURNET,TX
96,04109,52.9,71.1,247.9,-115.596,46.144,ELK CITY,ID
97,04110,41.0,70.5,135.1,-114.456,42.727,JEROME,ID
98,04111,31.1,65.8,91.3,-111.031,41.273,EVANSTON,WY
99,04112,32.3,56.7,166.5,-114.927,44.171,STANLEY,ID
100,04113,46.9,71.2,181.9,-119.261,45.826,HERMISTON,OR
101,04114,34.6,67.0,109.2,-114.215,41.523,CHALLIS,ID
102,04134,33.0,78.3,42.6,-113.351,40.161,DUGWAY PROVING GROUND,UT
103,04201,55.4,68.9,306.4,-122.861,45.773,SCAPPOOSE,OR
104,04724,57.9,67.2,368.1,-78.945,43.107,NIAGARA FALLS,NY
105,04725,55.5,65.1,361.9,-75.981,42.208,BINGHAMTON,NY
106,04726,53.0,65.6,316.9,-78.834,40.301,JOHNSTOWN,PA
107,04751,52.3,60.9,375.5,-78.640,41.803,BRADFORD,PA
108,04780,57.5,68.5,342.2,-71.756,42.552,FITCHBURG,MA
109,04781,59.0,71.3,325.5,-73.102,40.794,ISLIP,NY
110,04787,55.5,65.0,363.1,-78.899,41.178,DU BOIS,PA
111,04789,57.5,67.8,352.7,-74.265,41.509,MONTGOMERY,NY
112,04803,53.4,64.1,344.0,-89.465,45.631,RHINELANDER,WI
113,04804,56.5,71.8,284.8,-83.078,40.078,COLUMBUS,OH
114,04808,60.7,69.1,383.5,-88.481,41.770,CHICAGO/AURORA,IL
115,04826,55.9,67.4,334.2,-89.837,44.359,WISCONSIN RAPIDS,WI
116,04836,55.3,62.6,398.3,-68.307,47.286,FRENCHVILLE,ME
117,04838,60.1,71.4,339.7,-87.905,42.121,CHICAGO/PROSPECT HGTS/WHEELI,IL
118,04839,58.2,69.6,337.2,-86.097,42.746,HOLLAND,MI
119,04840,57.5,68.8,337.9,-88.486,43.770,FOND DU LAC,WI
120,04841,58.9,67.0,387.2,-87.851,43.769,SHEBOYGAN,WI
121,04842,58.5,68.3,360.7,-81.887,40.875,WOOSTER,OH
122,04843,56.5,66.6,355.1,-80.215,41.626,MEADVILLE,PA
123,04845,59.7,68.6,375.5,-87.938,42.595,KENOSHA,WI
124,04846,59.3,70.1,346.5,-87.006,41.453,VALPARAISO,IN
125,04847,57.1,70.3,312.0,-84.079,41.868,ADRIAN,MI
126,04848,57.0,72.9,278.1,-83.476,41.563,TOLEDO,OH
127,04849,57.7,69.0,338.5,-82.179,41.179,LORAIN/ELYRIA,OH
128,04850,57.9,71.3,310.1,-84.027,40.708,LIMA,OH
129,04851,58.3,70.3,329.2,-84.429,41.338,DEFIANCE,OH
130,04852,57.8,69.7,329.8,-81.420,40.470,NEW PHILADELPHIA,OH
131,04853,60.3,72.9,322.4,-81.684,41.518,CLEVELAND,OH
132,04854,52.6,64.4,327.4,-84.701,45.013,GAYLORD,MI
133,04855,57.0,70.3,310.7,-83.064,40.616,MARION,OH
134,04857,58.1,67.9,360.7,-80.696,41.778,ASHTABULA,OH
135,04858,58.6,69.3,347.7,-82.463,40.023,NEWARK,OH
139,12815,70.8,81.6,354.5,-81.325,28.434,ORLANDO,FL
140,12816,71.4,80.3,382.2,-82.272,29.690,GAINESVILLE,FL
141,12818,72.4,80.5,394.6,-82.454,28.474,BROOKSVILLE,FL
142,12819,71.7,81.9,363.1,-81.810,28.821,LEESBURG,FL
143,12832,72.8,81.7,382.9,-85.033,29.733,APALACHICOLA,FL
144,12834,72.3,81.3,381.0,-81.060,29.177,DAYTONA BEACH,FL
145,12835,72.9,84.0,351.4,-81.864,26.586,FORT MYERS,FL
146,12836,75.1,84.9,371.1,-81.754,24.553,KEY WEST,FL
147,12838,73.5,81.2,401.3,-80.646,28.103,MELBOURNE,FL
148,12839,74.0,83.9,368.7,-80.300,25.824,MIAMI,FL
149,12841,71.2,81.7,358.8,-81.333,28.545,ORLANDO,FL
150,12842,73.0,82.2,378.5,-82.540,27.961,TAMPA,FL
151,12843,74.0,81.6,403.2,-80.418,27.656,VERO BEACH,FL
152,12844,73.0,83.5,360.0,-80.099,26.685,WEST PALM BEACH,FL
153,12849,72.3,85.5,323.1,-80.154,26.072,FORT LAUDERDALE,FL
154,12854,71.5,82.9,346.5,-81.244,28.780,ORLANDO,FL
155,12871,73.3,83.0,371.1,-82.559,27.401,SARASOTA/BRADENTON,FL
156,12873,74.0,83.2,379.2,-82.688,27.911,ST PETERSBURG/CLEARWATER,FL
157,12876,72.7,81.1,390.3,-81.754,28.062,WINTER HAVEN,FL
158,12882,74.3,83.8,374.8,-80.280,25.907,MIAMI,FL
159,12884,74.5,82.4,398.9,-89.408,29.350,BOOTHVILLE,LA
160,12885,73.8,83.4,373.0,-80.171,26.197,FORT LAUDERDALE,FL
161,12888,75.2,81.5,424.8,-80.433,25.648,MIAMI,FL
162,12894,73.5,83.0,374.2,-81.755,26.536,FORT MYERS,FL
163,12895,73.6,82.1,389.0,-80.377,27.498,FORT PIERCE,FL
164,12896,75.0,85.4,362.5,-81.052,24.726,MARATHON,FL
165,12897,75.1,82.7,403.8,-81.775,26.153,NAPLES,FL
166,12912,73.0,84.5,345.9,-96.930,28.863,VICTORIA,TX
167,12916,74.2,82.5,392.7,-90.251,29.993,NEW ORLEANS,LA
168,12917,74.0,82.6,387.8,-94.021,29.951,BEAUMONT/PORT ARTHUR,TX
169,12918,72.8,83.7,353.9,-95.279,29.645,HOUSTON,TX
170,12919,75.5,85.2,373.0,-97.426,25.906,BROWNSVILLE,TX
171,12921,69.5,84.4,300.3,-98.464,29.533,SAN ANTONIO,TX
172,12923,75.1,84.1,382.9,-94.860,29.265,GALVESTON,TX
173,12924,75.8,83.3,405.7,-97.513,27.773,CORPUS CHRISTI,TX
174,12926,75.6,82.4,416.8,-97.283,27.700,CORPUS CHRISTI,TX
175,12928,74.3,83.9,373.6,-97.817,27.500,KINGSVILLE,TX
176,12932,73.7,84.7,353.3,-98.027,27.741,ALICE,TX
177,12935,74.9,84.3,376.7,-96.251,28.728,PALACIOS,TX
178,12947,71.1,85.6,305.8,-99.220,28.458,COTULLA,TX
179,12957,76.1,85.0,384.7,-97.346,26.166,PORT ISABEL,TX
180,12958,73.4,80.7,407.5,-90.033,29.833,NEW ORLEANS,LA
181,12959,74.1,85.3,350.8,-98.238,26.175,MC ALLEN,TX
182,12960,72.5,84.0,345.9,-95.364,29.993,HOUSTON,TX
183,12962,69.0,83.4,305.8,-99.174,29.359,HONDO,TX
184,12968,75.3,81.9,419.8,-91.526,29.562,SALT POINT,LA
185,12970,69.3,84.3,298.4,-98.471,29.337,SAN ANTONIO,TX
186,12971,70.5,84.8,308.3,-98.045,29.709,NEW BRAUNFELS,TX
187,12972,76.0,84.9,384.7,-97.046,28.084,ROCKPORT,TX
188,12975,72.9,82.9,366.8,-95.240,29.521,HOUSTON,TX
189,12976,74.5,82.6,395.8,-95.462,29.110,ANGLETON/LAKE JACKSON,TX
190,13721,62.8,74.7,333.5,-76.400,38.283,PATUXENT RIVER,MD
191,13722,65.3,78.5,318.1,-78.786,35.871,RALEIGH/DURHAM,NC
192,13723,61.3,76.7,287.3,-79.944,36.098,GREENSBORO,NC
193,13728,63.6,75.3,336.6,-79.336,36.573,DANVILLE,VA
194,13733,59.1,73.8,294.1,-79.207,37.338,LYNCHBURG,VA
195,13734,59.2,70.3,342.2,-77.984,39.402,MARTINSBURG,WV
196,13735,60.5,72.4,331.7,-75.078,39.366,MILLVILLE,NJ
197,13736,58.0,70.3,324.3,-79.916,39.643,MORGANTOWN,WV
198,13737,66.1,77.7,339.7,-76.192,36.904,NORFOLK,VA
199,13739,58.3,74.6,274.4,-75.231,39.868,PHILADELPHIA,PA
200,13740,61.5,77.2,284.2,-77.323,37.511,RICHMOND,VA
201,13741,58.8,74.2,285.5,-79.974,37.317,ROANOKE,VA
202,13743,59.9,77.9,256.5,-77.034,38.865,WASHINGTON,DC
203,13744,69.6,79.2,370.5,-79.731,34.188,FLORENCE,SC
204,13748,70.3,78.9,385.9,-77.906,34.268,WILMINGTON,NC
205,13750,66.0,78.7,324.9,-76.283,36.933,NORFOLK,VA
206,13752,63.4,75.8,327.4,-76.483,38.991,ANNAPOLIS,MD
207,13754,69.5,78.0,387.2,-76.883,34.900,CHERRY POINT,NC
208,13762,64.4,76.6,330.5,-76.136,36.695,FENTRESS,VA
209,13764,61.4,74.7,313.8,-75.359,38.689,GEORGETOWN,DE
210,13769,67.2,76.5,373.6,-76.033,36.817,OCEANA,VA
211,13776,69.8,78.9,377.9,-79.059,34.610,LUMBERTON,NC
212,13781,59.8,73.2,311.4,-75.601,39.673,WILMINGTON,DE
213,13786,66.9,77.1,360.0,-76.175,36.261,ELIZABETH CITY,NC
214,13809,62.2,75.0,321.2,-87.606,38.764,LAWRENCEVILLE,IL
215,13810,62.1,76.9,295.3,-85.664,38.228,LOUISVILLE,KY
216,13833,70.9,81.1,362.5,-89.253,31.265,HATTIESBURG,MS
217,13837,67.2,81.5,305.8,-82.039,33.467,AUGUSTA,GA
218,13838,71.4,81.3,367.4,-88.068,30.626,MOBILE,AL
219,13839,69.6,80.3,355.1,-85.450,31.321,DOTHAN,AL
220,13841,58.0,71.7,305.8,-83.822,39.420,WILMINGTON,OH
221,13865,70.7,78.6,397.0,-88.751,32.333,MERIDIAN,MS
222,13869,68.9,80.8,337.9,-84.194,31.536,ALBANY,GA
223,13870,69.6,81.3,340.9,-82.507,31.536,ALMA,GA
224,13871,67.0,78.2,345.9,-85.858,33.588,ANNISTON,AL
225,13873,64.7,79.7,294.7,-83.327,33.948,ATHENS,GA
226,13874,64.9,78.2,316.3,-84.427,33.640,ATLANTA,GA
227,13876,65.4,79.2,310.1,-86.754,33.564,BIRMINGHAM,AL
228,13877,60.3,73.0,320.6,-82.399,36.480,BRISTOL/JHNSN CTY/KNGSPRT,TN
229,13878,74.0,81.1,411.2,-81.391,31.252,BRUNSWICK,GA
230,13880,71.5,81.3,368.7,-80.041,32.899,CHARLESTON,SC
231,13881,64.7,77.7,320.0,-80.944,35.214,CHARLOTTE,NC
232,13882,63.6,79.3,285.5,-85.200,35.033,CHATTANOOGA,TN
233,13883,67.9,79.6,339.7,-81.118,33.942,COLUMBIA,SC
234,13884,71.8,80.2,389.6,-86.523,30.780,CRESTVIEW,FL
235,13886,62.9,79.5,274.4,-82.346,34.846,GREENVILLE,SC
236,13889,72.5,81.0,389.0,-81.693,30.494,JACKSONVILLE,FL
237,13891,61.7,77.1,287.9,-83.986,35.818,KNOXVILLE,TN
238,13893,67.5,80.4,323.7,-89.985,35.061,MEMPHIS,TN
239,13894,70.1,80.2,363.7,-88.246,30.688,MOBILE,AL
240,13895,69.2,80.6,344.6,-86.394,32.301,MONTGOMERY,AL
241,13896,64.9,78.8,308.9,-87.610,34.745,MUSCLE SHOALS,AL
242,13897,62.2,79.0,271.9,-86.689,36.119,NASHVILLE,TN
243,13899,72.3,83.1,355.1,-87.188,30.473,PENSACOLA,FL
244,13904,68.9,84.5,291.0,-97.681,30.179,AUSTIN/BERGSTROM,TX
245,13911,66.7,85.6,252.8,-97.441,32.769,FORT WORTH,TX
246,13920,64.2,75.1,348.3,-95.664,38.950,TOPEKA,KS
247,13927,70.2,80.4,362.5,-90.223,32.335,JACKSON,MS
248,13932,64.9,78.3,315.0,-97.037,37.168,WINFIELD/ARKANSAS CITY,KS
249,13935,72.2,81.4,377.9,-92.296,31.395,ALEXANDRIA,LA
250,13939,70.5,81.2,355.7,-90.986,33.483,GREENVILLE,MS
251,13942,69.9,81.7,339.7,-92.038,32.511,MONROE,LA
252,13957,70.9,82.6,342.2,-93.824,32.447,SHREVEPORT,LA
253,13958,68.8,86.2,270.7,-97.767,30.317,AUSTIN/CITY,TX
254,13959,67.8,84.4,278.7,-97.229,31.611,WACO,TX
255,13960,68.7,85.2,280.5,-96.851,32.847,DALLAS,TX
256,13961,66.6,84.1,267.6,-97.361,32.819,FORT WORTH,TX
257,13962,64.1,80.4,279.3,-99.682,32.411,ABILENE,TX
258,13963,69.0,80.4,344.6,-92.233,34.747,LITTLE ROCK,AR
259,13964,67.7,80.5,324.9,-94.365,35.334,FORT SMITH,AR
260,13966,64.8,84.4,243.5,-98.493,33.979,WICHITA FALLS,TX
261,13967,65.8,81.2,291.0,-97.600,35.389,OKLAHOMA CITY,OK
262,13968,67.6,80.8,320.0,-95.886,36.198,TULSA,OK
263,13969,66.0,79.2,318.7,-97.100,36.731,PONCA CITY,OK
264,13970,72.6,82.6,366.8,-91.147,30.537,BATON ROUGE,LA
265,13971,67.2,74.7,401.3,-93.155,36.261,HARRISON,AR
266,13972,69.2,82.3,322.4,-95.402,32.354,TYLER,TX
267,13973,63.2,82.0,250.3,-99.766,30.511,JUNCTION,TX
268,13975,62.0,78.5,275.0,-99.775,36.297,GAGE,OK
269,13976,73.3,82.1,384.7,-91.988,30.205,LAFAYETTE,LA
270,13977,68.4,80.3,337.2,-94.008,33.454,TEXARKANA,AR
271,13978,70.3,79.4,378.5,-90.084,33.496,GREENWOOD,MS
272,13981,65.7,76.5,350.8,-95.484,37.670,CHANUTE,KS
273,13984,64.5,73.5,376.7,-97.652,39.549,CONCORDIA,KS
274,13985,60.5,77.7,265.7,-99.970,37.773,DODGE CITY,KS
275,13986,63.2,77.2,306.4,-97.861,38.068,HUTCHINSON,KS
276,13987,65.5,77.5,334.2,-94.498,37.149,JOPLIN,MO
277,13988,63.0,77.2,303.3,-94.593,39.123,KANSAS CITY,MO
278,13989,64.8,74.9,360.7,-96.190,38.331,EMPORIA,KS
279,13993,63.5,73.1,366.8,-94.907,39.774,ST JOSEPH,MO
280,13994,64.1,76.7,324.9,-90.374,38.753,ST LOUIS,MO
281,13995,64.3,76.3,333.5,-93.390,37.240,SPRINGFIELD,MO
282,13996,64.0,76.2,330.5,-95.626,39.073,TOPEKA,KS
283,13997,64.3,74.6,357.0,-91.769,38.128,ROLLA/VICHY,MO
284,14605,58.0,66.1,386.6,-69.797,44.321,AUGUSTA,ME
285,14606,57.6,64.9,399.5,-68.824,44.808,BANGOR,ME
286,14607,56.3,63.2,405.7,-68.033,46.867,CARIBOU,ME
287,14609,56.5,62.5,421.1,-67.792,46.123,HOULTON,ME
288,14610,56.1,64.8,376.1,-68.686,45.648,MILLINOCKET,ME
289,14611,57.4,65.9,380.4,-69.933,43.900,BRUNSWICK,ME
290,14702,58.4,68.1,361.9,-71.289,42.470,BEDFORD,MA
291,14707,60.9,68.6,395.2,-72.049,41.328,GROTON NEW LONDON,CT
292,14710,58.2,69.1,344.6,-71.438,42.933,MANCHESTER,NH
293,14711,58.6,73.0,297.8,-76.763,40.194,HARRISBURG,PA
294,14712,58.1,71.3,312.6,-75.959,40.373,READING,PA
295,14719,57.7,67.3,363.1,-72.632,40.844,WESTHAMPTON BEACH,NY
296,14732,57.6,75.0,260.8,-73.881,40.779,NEW YORK,NY
297,14733,57.3,68.5,339.7,-78.736,42.941,BUFFALO,NY
298,14734,56.4,74.1,256.5,-74.169,40.716,NEWARK,NJ
299,14735,58.3,68.5,354.5,-73.803,42.748,ALBANY,NY
300,14736,56.1,67.1,341.6,-78.317,40.300,ALTOONA,PA
301,14737,57.3,69.5,325.5,-75.449,40.651,ALLENTOWN,PA
302,14739,58.5,70.1,334.8,-71.011,42.361,BOSTON,MA
303,14740,58.6,70.0,337.2,-72.683,41.938,WINDSOR LOCKS,CT
304,14742,56.9,67.0,355.1,-73.150,44.468,BURLINGTON,VT
305,14745,57.3,66.4,370.5,-71.501,43.195,CONCORD,NH
306,14747,57.9,67.8,358.8,-79.272,42.493,DUNKIRK,NY
307,14748,55.6,65.1,363.1,-76.892,42.159,ELMIRA/CORNING,NY
308,14750,59.1,65.0,424.2,-73.610,43.341,GLENS FALLS,NY
309,14751,57.3,72.1,291.6,-76.851,40.217,HARRISBURG,PA
310,14752,58.6,70.5,330.5,-72.651,41.736,HARTFORD,CT
311,14753,57.5,68.5,342.2,-71.115,42.212,MILTON,MA
312,14756,61.4,67.6,419.8,-70.061,41.253,NANTUCKET,MA
313,14757,59.6,68.0,382.9,-73.884,41.627,POUGHKEEPSIE,NY
314,14758,60.0,71.3,339.7,-72.887,41.264,NEW HAVEN,CT
315,14762,56.2,70.2,300.9,-79.922,40.355,PITTSBURGH,PA
316,14763,57.0,65.9,373.6,-73.289,42.427,PITTSFIELD,MA
317,14764,58.4,66.2,392.1,-70.304,43.642,PORTLAND,ME
318,14765,58.2,70.2,328.6,-71.433,41.722,PROVIDENCE,RI
319,14768,56.6,67.6,341.6,-77.677,43.117,ROCHESTER,NY
320,14770,58.7,68.0,368.7,-76.864,40.821,SELINSGROVE,PA
321,14771,58.6,67.0,382.2,-76.103,43.109,SYRACUSE,NY
322,14775,57.9,67.7,360.7,-72.716,42.158,WESTFIELD/SPRINGFIELD,MA
323,14777,55.5,67.5,326.8,-75.727,41.339,WILKES-BARRE/SCRANTON,PA
324,14778,55.6,68.8,310.7,-76.922,41.243,WILLIAMSPORT,PA
325,14787,59.8,69.5,363.1,-71.284,41.530,NEWPORT,RI
326,14792,58.5,72.1,307.7,-74.814,40.277,TRENTON,NJ
327,14793,55.7,71.9,273.1,-75.150,40.200,WILLOW GROVE,PA
328,14794,59.9,68.7,376.7,-71.799,41.350,WESTERLY,RI
329,14813,57.0,69.5,321.2,-81.464,41.038,AKRON,OH
330,14815,56.9,70.4,307.7,-85.251,42.308,BATTLE CREEK,MI
331,14819,59.7,73.4,307.0,-87.752,41.786,CHICAGO,IL
332,14820,58.4,71.1,319.4,-81.853,41.405,CLEVELAND,OH
333,14821,57.4,73.9,271.3,-82.881,39.991,COLUMBUS,OH
334,14822,56.6,71.3,292.2,-83.010,42.409,DETROIT,MI
335,14825,57.2,71.0,304.0,-83.669,41.014,FINDLAY,OH
336,14826,56.4,68.7,323.7,-83.749,42.967,FLINT,MI
337,14827,57.9,71.2,311.4,-85.206,41.006,FORT WAYNE,IN
338,14829,57.7,69.7,328.6,-85.792,41.527,GOSHEN,IN
339,14833,57.1,69.4,323.7,-84.459,42.260,JACKSON,MI
340,14835,60.4,71.8,339.1,-86.937,40.412,LAFAYETTE,IN
341,14836,56.0,68.8,316.3,-84.579,42.780,LANSING,MI
342,14837,58.4,69.2,345.9,-89.345,43.141,MADISON,WI
343,14839,59.8,71.0,340.9,-87.897,42.947,MILWAUKEE,WI
344,14840,58.1,68.7,349.0,-86.237,43.171,MUSKEGON,MI
345,14841,54.1,63.9,357.6,-84.796,45.571,PELLSTON,MI
346,14842,60.9,73.0,329.2,-89.684,40.668,PEORIA,IL
347,14845,58.0,67.7,361.9,-84.080,43.533,SAGINAW,MI
348,14847,54.5,65.1,346.5,-84.367,46.467,SAULT STE MARIE,MI
349,14848,57.3,70.5,312.0,-86.333,41.707,SOUTH BEND,IN
350,14850,55.9,68.4,320.6,-85.583,44.741,TRAVERSE CITY,MI
351,14852,56.0,67.8,329.8,-80.674,41.254,YOUNGSTOWN/WARREN,OH
352,14853,56.4,69.9,307.0,-83.230,42.237,DETROIT,MI
353,14858,53.4,64.2,342.8,-88.506,47.169,HANCOCK,MI
354,14860,58.7,70.1,337.9,-80.183,42.080,ERIE,PA
355,14880,60.2,68.4,386.6,-87.868,42.422,CHICAGO/WAUKEGAN,IL
356,14891,56.4,69.2,316.9,-82.518,40.820,MANSFIELD,OH
357,14894,55.6,70.1,294.1,-80.647,40.176,WHEELING,WV
358,14895,55.7,69.1,308.3,-81.443,40.918,AKRON,OH
359,14897,55.0,67.6,318.1,-89.627,44.929,WAUSAU,WI
360,14898,56.5,68.8,323.7,-88.120,44.513,GREEN BAY,WI
361,14910,57.4,69.5,326.8,-95.393,45.883,ALEXANDRIA,MN
362,14913,53.6,64.4,342.8,-92.194,46.844,DULUTH,MN
363,14914,57.5,69.5,328.6,-96.811,46.925,FARGO,ND
364,14916,56.9,68.0,340.3,-97.176,47.949,GRAND FORKS,ND
365,14918,53.3,62.2,371.1,-93.403,48.566,INTERNATIONAL FALLS,MN
366,14919,55.8,67.7,328.6,-98.678,46.930,JAMESTOWN,ND
367,14920,58.4,70.4,329.2,-91.256,43.754,LA CROSSE,WI
368,14921,58.7,69.5,345.9,-90.181,43.212,LONE ROCK,WI
369,14922,57.5,72.5,289.2,-93.229,44.883,MINNEAPOLIS,MN
370,14923,59.6,70.8,340.9,-90.523,41.465,MOLINE,IL
371,14925,58.2,68.5,353.3,-92.492,43.904,ROCHESTER,MN
372,14926,56.2,68.4,324.9,-94.052,45.545,ST CLOUD,MN
373,14929,58.9,70.0,342.2,-98.421,45.450,ABERDEEN,SD
374,14931,62.8,72.4,366.2,-91.125,40.783,BURLINGTON,IA
375,14933,60.6,72.7,329.2,-93.666,41.538,DES MOINES,IA
376,14935,60.7,73.5,320.0,-98.313,40.958,GRAND ISLAND,NE
377,14936,59.1,72.3,313.2,-98.229,44.385,HURON,SD
378,14937,62.3,71.4,373.6,-91.543,41.633,IOWA CITY,IA
379,14938,61.7,70.6,376.7,-92.543,40.097,KIRKSVILLE,MO
380,14939,61.2,75.5,300.9,-96.764,40.831,LINCOLN,NE
381,14940,58.9,68.1,369.9,-93.331,43.158,MASON CITY,IA
382,14941,59.3,72.6,312.0,-97.437,41.981,NORFOLK,NE
383,14942,61.4,75.8,299.6,-95.899,41.310,OMAHA,NE
384,14943,62.0,71.7,364.4,-96.379,42.391,SIOUX CITY,IA
385,14944,59.3,71.6,325.5,-96.754,43.577,SIOUX FALLS,SD
386,14946,57.4,69.3,329.8,-97.154,44.931,WATERTOWN,SD
387,14972,59.2,68.8,364.4,-95.202,43.164,SPENCER,IA
388,14990,61.5,69.1,397.0,-91.709,41.884,CEDAR RAPIDS,IA
389,14991,56.7,68.3,333.5,-91.485,44.865,EAU CLAIRE,WI
390,14992,58.2,70.5,324.9,-95.082,44.547,REDWOOD FALLS,MN
391,21504,65.1,76.1,347.7,-155.051,19.723,HILO,HI
392,21508,53.6,70.1,267.6,-155.557,19.753,CAMP POHAKULOA,HI
393,21510,66.1,79.7,313.2,-156.049,19.736,KAILUA/KONA,HI
394,22010,67.6,83.9,281.8,-100.922,29.367,DEL RIO,TX
395,22501,64.5,79.0,300.9,-159.789,22.025,"KEKAHA, KAUAI",HI
396,22516,65.7,79.2,314.4,-156.433,20.902,KAHULUI,HI
397,22519,69.0,79.4,358.8,-157.768,21.451,KANEOHE,HI
398,22521,65.0,81.6,276.2,-157.943,21.328,HONOLULU,HI
399,22534,65.7,78.7,321.2,-157.099,21.157,KAUNAKAKAI,HI
400,22536,66.8,80.8,308.9,-159.341,21.979,LIHUE,HI
401,22551,64.7,79.3,299.6,-158.067,21.317,KAPOLEI,HI
402,23009,59.0,77.7,247.9,-104.541,33.308,ROSWELL,NM
403,23023,61.1,79.2,256.5,-102.208,31.932,MIDLAND,TX
404,23034,62.2,81.3,246.6,-100.494,31.351,SAN ANGELO,TX
405,23040,59.8,80.8,225.1,-103.201,31.780,WINK,TX
406,23042,60.4,77.6,265.7,-101.821,33.668,LUBBOCK,TX
407,23044,58.3,79.2,224.4,-106.376,31.811,EL PASO,TX
408,23047,58.6,74.6,278.1,-101.706,35.219,AMARILLO,TX
409,23048,57.7,76.2,249.1,-103.603,35.182,TUCUMCARI,NM
410,23049,48.1,71.7,189.3,-106.089,35.617,SANTA FE,NM
411,23050,50.0,76.6,165.9,-106.616,35.042,ALBUQUERQUE,NM
412,23051,55.2,73.4,249.7,-103.154,36.446,CLAYTON,NM
413,23052,50.6,68.9,244.8,-104.502,36.741,RATON,NM
414,23054,50.7,65.4,287.3,-105.143,35.654,LAS VEGAS,NM
415,23055,53.7,73.1,235.5,-104.809,31.831,GUADALUPE PASS,TX
416,23061,45.5,63.6,242.3,-105.866,37.436,ALAMOSA,CO
417,23064,60.5,75.8,287.9,-100.725,37.927,GARDEN CITY,KS
418,23065,58.2,72.1,303.3,-101.693,39.368,GOODLAND,KS
419,23066,39.5,76.7,85.7,-108.538,39.134,GRAND JUNCTION,CO
420,23067,55.1,73.3,249.7,-103.527,38.051,LA JUNTA,CO
421,23070,49.5,71.1,209.6,-104.341,37.259,TRINIDAD,CO
422,23078,59.2,76.1,268.2,-107.721,32.262,DEMING,NM
423,23081,46.0,70.0,183.8,-108.789,35.511,GALLUP,NM
424,23090,44.0,75.4,124.6,-108.229,36.744,FARMINGTON,NM
425,23091,59.1,80.1,224.4,-102.912,30.915,FORT STOCKTON,TX
426,23110,49.3,81.2,126.4,-119.950,36.333,LEMOORE,CA
427,23129,62.2,74.4,329.2,-118.163,33.828,LONG BEACH,CA
428,23130,57.6,78.6,223.2,-118.489,34.210,VAN NUYS,CA
429,23136,60.1,69.7,365.0,-119.083,34.217,CAMARILLO,CA
430,23152,57.0,76.8,234.3,-118.359,34.201,BURBANK,CA
431,23153,26.7,75.6,24.1,-117.087,38.060,TONOPAH,NV
432,23154,27.5,67.8,58.6,-114.845,39.295,ELY,NV
433,23155,49.6,85.1,104.9,-119.056,35.434,BAKERSFIELD,CA
434,23157,32.1,76.7,44.5,-118.363,37.373,BISHOP,CA
435,23158,57.4,94.3,104.2,-114.717,33.619,BLYTHE,CA
436,23159,36.2,62.3,156.0,-112.146,37.706,BRYCE CANYON,UT
437,23160,61.0,85.4,194.9,-110.955,32.131,TUCSON,AZ
438,23161,43.2,90.1,45.1,-116.787,34.854,DAGGETT,CA
439,23169,41.8,93.0,28.4,-115.155,36.079,LAS VEGAS,NV
440,23174,61.5,70.0,382.2,-118.406,33.938,LOS ANGELES,CA
441,23176,37.0,75.1,78.4,-113.028,38.443,MILFORD,UT
442,23179,53.4,95.7,72.8,-114.623,34.766,NEEDLES,CA
443,23182,42.5,83.9,67.3,-118.084,34.629,PALMDALE,CA
444,23183,60.3,93.0,132.0,-111.990,33.443,PHOENIX,AZ
445,23184,52.5,75.5,199.2,-112.421,34.652,PRESCOTT,AZ
446,23185,33.5,77.0,50.0,-119.771,39.484,RENO,NV
447,23187,42.1,75.2,111.6,-118.724,34.744,SANDBERG,CA
448,23188,61.2,72.2,345.3,-117.169,32.735,SAN DIEGO,CA
449,23190,58.9,67.4,381.0,-119.844,34.426,SANTA BARBARA,CA
450,23191,54.3,69.9,279.3,-118.416,33.405,AVALON,CA
451,23194,48.7,78.0,143.7,-110.722,35.022,WINSLOW,AZ
452,23199,61.2,92.3,143.1,-115.667,32.817,EL CENTRO,CA
453,23213,50.6,69.1,242.3,-122.812,38.509,SANTA ROSA,CA
454,23225,36.8,71.9,94.4,-120.708,39.292,EMIGRANT GAP,CA
455,23230,54.3,64.2,356.3,-122.221,37.755,OAKLAND,CA
456,23232,52.5,76.0,194.9,-121.493,38.513,SACRAMENTO,CA
457,23233,54.1,63.4,365.6,-121.605,36.663,SALINAS,CA
458,23234,54.1,64.4,350.2,-122.398,37.620,SAN FRANCISCO,CA
459,23237,50.9,78.2,160.9,-121.237,37.894,STOCKTON,CA
460,23244,55.8,68.6,316.3,-122.048,37.415,MOUNTAIN VIEW,CA
461,23257,50.8,79.8,148.0,-120.513,37.285,MERCED,CA
462,23258,51.4,81.0,144.3,-120.953,37.626,MODESTO,CA
463,23259,53.0,61.2,382.2,-121.845,36.588,MONTEREY,CA
464,23273,54.4,64.0,361.3,-120.465,34.916,SANTA MARIA,CA
465,23275,47.6,74.5,160.9,-123.201,39.126,UKIAH,CA
466,23277,53.9,63.1,366.8,-121.789,36.936,WATSONVILLE,CA
467,23285,50.1,73.3,194.9,-121.817,37.694,LIVERMORE,CA
468,23293,54.5,70.5,274.4,-121.928,37.362,SAN JOSE,CA
469,24011,54.7,71.6,263.9,-100.748,46.774,BISMARCK,ND
470,24012,49.8,69.8,225.7,-102.802,46.797,DICKINSON,ND
471,24013,53.6,68.9,282.4,-101.281,48.259,MINOT,ND
472,24015,54.3,69.7,281.8,-103.232,40.172,AKRON,CO
473,24017,53.4,73.1,232.5,-103.095,42.838,CHADRON,NE
474,24021,35.4,70.4,93.8,-108.733,42.817,LANDER,WY
475,24022,40.0,62.6,190.5,-105.674,41.313,LARAMIE,WY
476,24023,58.7,71.5,318.1,-100.668,41.122,NORTH PLATTE,NE
477,24024,54.7,74.8,229.4,-101.601,44.051,PHILIP,SD
478,24025,56.7,73.8,263.3,-100.286,44.383,PIERRE,SD
479,24027,31.7,67.1,88.2,-109.065,41.594,ROCK SPRINGS,WY
480,24028,55.7,70.9,285.5,-103.595,41.874,SCOTTSBLUFF,NE
481,24029,42.7,69.2,159.7,-106.976,44.774,SHERIDAN,WY
482,24030,54.6,70.0,281.8,-102.985,41.101,SIDNEY,NE
483,24032,56.1,72.9,266.4,-100.551,42.859,VALENTINE,NE
484,24033,41.7,72.6,125.8,-108.543,45.808,BILLINGS,MT
485,24036,40.7,65.1,175.1,-109.467,47.049,LEWISTOWN,MT
486,24037,45.3,74.0,144.9,-105.886,46.428,MILES CITY,MT
487,24044,54.5,70.5,274.4,-102.800,42.057,ALLIANCE,NE
488,24046,40.6,64.9,175.7,-107.521,40.495,CRAIG,CO
489,24048,38.2,72.1,103.0,-108.082,44.517,GREYBULL,WY
490,24057,34.2,66.3,110.4,-107.200,41.806,RAWLINS,WY
491,24061,36.0,70.5,97.5,-108.459,43.064,RIVERTON,WY
492,24062,39.0,70.5,119.0,-107.951,43.966,WORLAND,WY
493,24089,38.9,68.3,133.8,-106.473,42.898,CASPER,WY
494,24090,52.4,70.9,244.2,-103.054,44.046,RAPID CITY,SD
495,24091,58.2,73.7,283.6,-101.620,40.510,IMPERIAL,NE
496,24110,43.8,71.3,152.9,-119.319,47.208,MOSES LAKE,WA
497,24121,31.4,70.3,69.1,-115.792,40.825,ELKO,NV
498,24126,39.8,76.2,90.1,-112.011,41.196,OGDEN,UT
499,24127,39.5,77.8,79.6,-111.968,40.787,SALT LAKE CITY,UT
500,24128,28.4,72.3,43.8,-117.807,40.902,WINNEMUCCA,NV
501,24130,45.2,64.0,234.3,-117.810,44.838,BAKER CITY,OR
502,24131,40.4,75.9,95.6,-116.220,43.565,BOISE,ID
503,24132,41.9,67.9,162.8,-111.152,45.794,BOZEMAN,MT
504,24133,43.4,68.2,174.5,-113.772,42.543,BURLEY,ID
505,24135,35.8,60.7,165.9,-112.513,45.953,BUTTE,MT
506,24137,39.9,63.5,181.3,-112.376,48.608,CUT BANK,MT
507,24138,38.1,64.4,156.6,-112.552,45.255,DILLON,MT
508,24141,42.4,72.8,130.1,-119.514,47.304,EPHRATA,WA
509,24143,38.8,68.1,134.4,-111.382,47.473,GREAT FALLS,MT
510,24144,40.5,69.9,135.1,-111.964,46.606,HELENA,MT
511,24145,40.9,66.8,162.8,-112.067,43.516,IDAHO FALLS,ID
512,24146,43.6,64.7,209.0,-114.264,48.304,KALISPELL,MT
513,24149,44.7,74.1,139.4,-117.014,46.375,LEWISTON,ID
514,24150,38.0,67.4,132.6,-110.448,45.699,LIVINGSTON,MT
515,24152,42.6,58.6,263.9,-118.425,45.511,MEACHAM,OR
516,24153,42.5,66.6,179.4,-114.093,46.921,MISSOULA,MT
517,24154,38.1,57.0,226.3,-115.645,47.457,MULLAN PASS,ID
518,24155,45.2,70.8,169.6,-118.834,45.698,PENDLETON,OR
519,24156,37.1,69.3,112.9,-112.571,42.920,POCATELLO,ID
520,24157,42.0,68.7,157.3,-117.528,47.621,SPOKANE,WA
521,24160,44.5,73.7,140.6,-118.287,46.095,WALLA WALLA,WA
522,24162,44.8,74.2,139.4,-117.013,44.021,ONTARIO,OR
523,24163,49.4,72.2,197.9,-119.118,46.265,PASCO,WA
524,24164,30.7,61.0,119.0,-110.108,42.584,BIG PINEY,WY
525,24172,30.5,77.2,35.2,-118.565,40.066,LOVELOCK,NV
526,24215,44.0,68.5,177.6,-122.333,41.333,MOUNT SHASTA,CA
527,24216,47.6,82.6,105.5,-122.254,40.152,RED BLUFF,CA
528,24217,53.9,61.4,394.6,-122.537,48.794,BELLINGHAM,WA
529,24219,50.7,72.4,209.6,-121.167,45.619,THE DALLES,OR
530,24220,46.6,69.1,197.9,-120.530,47.034,ELLENSBURG,WA
531,24221,53.2,66.3,310.1,-123.214,44.133,EUGENE,OR
532,24222,52.2,63.9,328.6,-122.280,47.908,EVERETT,WA
533,24225,48.2,74.3,168.3,-122.871,42.389,MEDFORD,OR
534,24227,52.6,64.0,332.9,-122.903,46.973,OLYMPIA,WA
535,24229,55.2,69.6,294.7,-122.600,45.591,PORTLAND,OR
536,24230,41.8,64.9,188.1,-121.150,44.254,REDMOND,OR
537,24231,52.3,70.7,245.4,-123.355,43.239,ROSEBURG,OR
538,24232,53.7,67.7,298.4,-122.995,44.908,SALEM,OR
539,24233,53.1,65.9,313.8,-122.314,47.461,SEATTLE,WA
540,24234,53.0,66.3,307.0,-122.301,47.530,SEATTLE,WA
541,24235,47.3,60.5,304.0,-123.381,42.617,SEXTON SUMMIT,OR
542,24237,45.9,57.7,322.4,-121.337,47.293,STAMPEDE PASS,WA
543,24242,54.8,68.5,303.3,-122.400,45.549,PORTLAND,OR
544,24243,46.5,68.7,201.0,-120.534,46.564,YAKIMA,WA
545,24255,51.7,59.0,396.4,-122.650,48.350,WHIDBEY ISLAND,WA
546,24257,44.8,83.2,83.9,-122.313,40.515,REDDING,CA
547,24259,42.7,71.2,143.7,-122.468,41.781,MONTAGUE,CA
548,24283,52.7,57.8,435.9,-124.109,40.978,ARCATA/EUREKA,CA
549,24286,53.1,57.0,458.7,-124.237,41.780,CRESCENT CITY,CA
550,25308,52.2,57.7,428.5,-131.570,55.043,ANNETTE,AK
551,25309,50.3,53.8,465.5,-134.575,58.355,JUNEAU,AK
552,25323,50.7,54.6,457.4,-135.520,59.245,HAINES,AK
553,25333,50.0,55.0,436.5,-135.360,57.048,SITKA,AK
554,25335,48.6,53.8,432.2,-135.313,59.460,SKAGWAY,AK
555,25339,49.4,53.3,457.4,-139.628,59.510,YAKUTAT,AK
556,25367,50.9,58.2,395.8,-133.075,55.580,KLAWOCK,AK
557,25501,47.6,53.3,422.3,-152.492,57.750,KODIAK,AK
558,25503,45.7,53.9,377.9,-156.654,58.684,KING SALMON,AK
559,25506,46.2,54.0,384.7,-154.915,59.753,ILIAMNA,AK
560,25507,47.3,52.6,429.7,-151.477,59.647,HOMER,AK
561,25516,47.8,52.7,437.7,-151.702,59.443,SELDOVIA,AK
562,25624,46.6,50.7,452.5,-162.722,55.207,COLD BAY,AK
563,26409,48.4,57.5,365.0,-149.855,61.217,ANCHORAGE,AK
564,26410,47.0,51.6,442.6,-145.451,60.489,CORDOVA,AK
565,26411,41.6,55.0,296.6,-147.855,64.817,FAIRBANKS,AK
566,26412,42.2,50.5,374.2,-141.946,62.961,NORTHWAY,AK
567,26422,39.3,48.6,355.7,-141.148,64.777,EAGLE,AK
568,26425,42.2,51.4,359.4,-145.458,62.160,GULKANA,AK
569,26435,43.2,52.5,358.2,-149.072,64.550,NENANA,AK
570,26438,47.3,53.8,408.1,-149.417,60.128,SEWARD,AK
571,26451,47.3,55.6,377.3,-149.993,61.175,ANCHORAGE,AK
572,26491,47.8,59.1,331.1,-149.961,61.179,ANCHORAGE,AK
573,26492,44.7,50.9,411.8,-148.839,60.785,PORTAGE GLACIER,AK
574,26510,43.8,54.0,344.6,-155.603,62.953,MC GRATH,AK
575,26523,47.1,54.5,392.1,-151.239,60.580,KENAI,AK
576,26528,47.3,54.9,389.0,-150.092,62.322,TALKEETNA,AK
577,26529,41.6,51.2,352.7,-152.107,65.174,TANANA,AK
578,26533,39.7,50.6,331.1,-151.509,66.916,BETTLES,AK
579,26616,43.5,50.8,392.1,-162.597,66.885,KOTZEBUE,AK
580,26617,40.5,49.7,358.2,-165.443,64.513,NOME,AK
581,27406,37.2,41.2,450.7,-148.477,70.192,DEADHORSE,AK
582,27502,34.2,37.6,462.4,-156.763,71.287,BARROW,AK
583,27503,35.0,38.1,469.1,-159.995,70.639,WAINWRIGHT,AK
586,53119,52.1,81.5,146.8,-119.629,36.319,HANFORD,CA
587,53120,57.3,74.4,263.9,-116.917,33.033,RAMONA,CA
588,53121,62.4,71.8,369.3,-117.349,33.219,OCEANSIDE,CA
589,53123,42.8,91.1,39.5,-115.196,36.212,LAS VEGAS,NV
590,53144,41.8,84.4,61.1,-117.865,34.988,EDWARDS,CA
591,53802,62.7,69.8,405.7,-88.280,39.478,MATTOON/CHARLESTON,IL
592,53819,66.3,77.4,347.1,-84.567,33.355,ATLANTA,GA
593,53820,71.1,80.9,368.7,-87.044,31.416,EVERGREEN,AL
594,53838,62.9,77.1,303.3,-83.830,34.272,GAINESVILLE,GA
595,53841,60.1,74.4,300.3,-84.903,38.185,FRANKFORT,KY
596,53842,59.6,73.4,305.8,-86.296,39.825,INDIANAPOLIS,IN
597,53843,69.1,81.5,331.1,-86.394,31.309,ANDALUSIA (FT RUCKER),AL
598,53844,58.3,70.9,320.6,-82.657,39.756,LANCASTER,OH
599,53847,69.6,82.8,321.2,-87.023,30.704,MILTON,FL
600,53848,64.3,79.9,287.3,-86.960,30.507,MILTON,FL
601,53850,63.7,80.6,271.9,-82.886,34.672,CLEMSON,SC
602,53852,66.2,77.6,342.8,-86.945,34.653,DECATUR,AL
603,53853,71.7,81.3,371.8,-86.472,30.400,DESTIN,FL
604,53854,70.5,80.4,366.8,-80.858,33.462,ORANGEBURG,SC
605,53855,60.3,72.7,324.9,-84.525,39.364,HAMILTON,OH
606,53858,73.8,80.1,424.2,-88.532,30.464,PASCAGOULA,MS
607,53859,58.2,72.4,299.6,-84.226,39.594,DAYTON,OH
608,53860,72.5,81.4,382.9,-81.515,30.336,JACKSONVILLE,FL
609,53862,72.2,82.5,361.9,-83.574,30.072,PERRY-FOLEY,FL
610,53863,65.2,78.5,316.9,-84.302,33.875,ATLANTA,GA
611,53864,68.6,79.1,357.0,-86.782,33.178,ALABASTER,AL
612,53865,72.8,81.2,390.3,-89.821,30.345,SLIDELL,LA
613,53866,61.0,71.4,353.3,-85.803,39.578,SHELBYVILLE,IN
614,53867,69.0,80.5,343.4,-80.996,33.971,COLUMBIA,SC
615,53868,61.2,76.8,284.8,-84.233,36.023,OAK RIDGE,TN
616,53869,68.2,78.4,361.3,-89.831,35.940,BLYTHEVILLE,AR
617,53870,65.1,79.0,308.9,-81.156,35.197,GASTONIA,NC
618,53871,65.9,77.9,334.2,-81.058,34.987,ROCK HILL,SC
619,53872,65.6,77.6,334.2,-80.621,35.017,MONROE,NC
620,53873,65.3,77.2,335.4,-84.849,34.123,CARTERSVILLE,GA
621,53874,65.7,79.3,313.2,-82.159,34.249,GREENWOOD,SC
622,53879,63.8,75.6,335.4,-94.371,38.960,LEE'S SUMMIT,MO
623,53901,64.6,74.7,360.0,-91.903,36.878,WEST PLAINS,MO
624,53902,71.8,82.6,355.1,-95.414,30.352,CONROE,TX
625,53903,71.3,83.4,336.6,-95.587,30.747,HUNTSVILLE,TX
626,53904,64.7,73.8,375.5,-90.428,38.929,ST CHARLES,MO
627,53905,70.3,82.4,336.0,-93.744,32.540,SHREVEPORT,LA
628,53907,68.6,84.2,291.0,-97.094,32.664,ARLINGTON,TX
629,53908,67.8,80.5,326.1,-95.984,36.039,TULSA,OK
630,53909,65.6,85.1,245.4,-97.318,32.973,FORT WORTH,TX
631,53910,71.5,82.8,347.7,-95.553,30.062,HOUSTON,TX
632,53911,68.7,84.5,288.5,-96.267,32.710,TERRELL,TX
633,53912,69.5,83.3,313.8,-96.398,32.027,CORSICANA,TX
634,53913,66.6,81.7,295.3,-97.416,35.850,GUTHRIE,OK
635,53914,68.6,80.4,339.1,-96.590,33.180,MC KINNEY,TX
636,53915,73.8,82.0,393.9,-91.884,30.038,NEW IBERIA,LA
637,53916,64.7,73.3,382.9,-93.579,39.823,CHILLICOTHE,MO
638,53918,67.5,76.2,382.9,-92.470,36.369,MOUNTAIN HOME,AR
639,53919,69.5,79.6,363.1,-91.751,33.638,MONTICELLO,AR
640,53920,68.6,79.4,352.7,-93.095,35.258,RUSSELLVILLE,AR
641,53921,68.0,78.1,362.5,-93.578,34.547,MOUNT IDA,AR
642,53922,66.6,75.1,385.3,-94.307,36.282,FAYETTEVILLE/SPRINGDALE,AR
643,53925,69.5,80.5,350.8,-94.399,34.047,DE QUEEN,AR
644,53959,68.2,78.7,357.0,-90.234,35.135,WEST MEMPHIS,AR
645,54704,58.8,66.9,387.2,-71.174,42.191,NORWOOD,MA
646,54728,55.4,61.8,413.7,-71.545,44.368,WHITEFIELD,NH
647,54733,58.1,66.9,376.1,-70.918,42.584,BEVERLY,MA
648,54734,58.4,67.4,373.0,-73.483,41.371,DANBURY,CT
649,54737,59.1,70.4,339.1,-76.294,40.120,LANCASTER,PA
650,54740,56.7,65.0,382.9,-72.518,43.344,SPRINGFIELD,VT
651,54742,56.5,64.4,389.0,-72.019,44.419,SAINT JOHNSBURY,VT
652,54743,57.2,70.9,305.2,-74.283,40.876,CALDWELL,NJ
653,54756,56.7,66.5,359.4,-72.291,42.570,ORANGE,MA
654,54757,54.2,63.4,367.4,-77.992,42.109,WELLSVILLE,NY
655,54767,57.9,68.3,351.4,-72.184,41.742,WILLIMANTIC,CT
656,54768,58.2,65.5,400.1,-73.171,42.696,NORTH ADAMS,MA
657,54770,56.4,65.2,374.8,-72.004,42.805,JAFFREY,NH
658,54771,55.9,64.7,374.2,-72.614,44.534,MORRISVILLE,VT
659,54772,57.1,64.7,394.6,-70.948,43.991,FRYEBURG,ME
660,54773,58.0,66.1,386.6,-76.385,43.350,FULTON,NY
661,54777,57.8,68.1,352.7,-71.021,41.876,TAUNTON,MA
662,54778,57.0,67.4,350.8,-77.056,42.643,PENN YAN,NY
663,54779,57.8,69.7,329.8,-74.737,41.009,ANDOVER,NJ
664,54780,60.4,70.5,357.6,-71.923,41.073,MONTAUK,NY
665,54781,57.6,64.4,408.1,-73.247,42.891,BENNINGTON,VT
666,54782,58.5,71.2,319.4,-75.557,40.238,POTTSTOWN,PA
667,54785,57.9,69.8,329.8,-74.669,40.624,SOMERVILLE,NJ
668,54787,57.8,71.6,304.6,-73.417,40.734,FARMINGDALE,NY
669,54788,58.9,69.4,350.8,-72.828,41.510,MERIDEN,CT
670,54789,54.7,63.4,375.5,-75.379,41.139,MOUNT POCONO,PA
671,54790,58.4,70.1,332.9,-72.869,40.822,SHIRLEY,NY
672,54791,59.0,66.7,393.9,-70.922,43.278,ROCHESTER,NH
673,54792,54.3,65.6,336.0,-78.412,41.047,CLEARFIELD,PA
674,54793,58.7,67.7,373.0,-74.623,41.200,SUSSEX,NJ
675,54813,55.6,64.7,369.3,-86.651,46.429,MUNISING,MI
676,63870,71.6,81.0,374.8,-86.312,31.043,FLORALA,AL
677,63871,72.0,79.8,399.5,-85.601,30.846,BONIFAY,FL
678,63872,68.9,81.0,335.4,-85.129,31.951,EUFAULA,AL
679,63890,72.6,80.8,393.3,-81.883,30.350,JACKSONVILLE,FL
680,64775,57.1,66.3,369.3,-75.412,43.234,ROME,NY
681,64776,57.5,66.1,378.5,-73.468,44.651,PLATTSBURG,NY
682,92762,56.8,70.8,300.9,-77.430,39.734,SITE R,PA
683,92805,75.0,83.2,394.6,-80.108,26.250,POMPANO BEACH,FL
684,92806,73.7,83.9,364.4,-82.628,27.765,ST PETERSBURG,FL
685,92809,73.7,83.8,366.2,-80.241,25.999,HOLLYWOOD,FL
686,93005,43.5,68.3,174.5,-107.760,37.143,DURANGO,CO
687,93009,36.4,53.8,241.7,-106.316,39.228,LEADVILLE,CO
688,93010,53.2,67.7,291.6,-103.716,39.189,LIMON,CO
689,93013,45.1,72.6,154.2,-107.898,38.505,MONTROSE,CO
690,93026,60.4,77.5,267.0,-109.604,31.469,DOUGLAS BISBEE,AZ
691,93027,49.5,74.2,181.3,-109.379,34.518,ST JOHNS,AZ
692,93033,59.0,79.3,231.2,-104.263,32.338,CARLSBAD,NM
693,93037,49.6,68.5,237.4,-104.711,38.812,COLORADO SPRINGS,CO
694,93042,56.4,74.3,254.0,-102.547,36.023,DALHART,TX
695,93045,54.6,76.1,215.2,-107.268,33.237,TRUTH OR CONSEQUENCES,NM
696,93057,44.8,68.9,181.9,-107.902,35.165,GRANTS,NM
697,93058,52.4,72.8,224.4,-104.498,38.290,PUEBLO,CO
698,93067,45.8,70.3,179.4,-104.849,39.570,DENVER,CO
699,93069,42.5,70.3,149.2,-108.628,37.303,CORTEZ,CO
700,93073,39.7,61.7,196.1,-106.868,39.223,ASPEN,CO
701,93075,37.7,77.8,69.1,-109.754,38.755,MOAB,UT
702,93084,56.3,83.6,166.5,-109.635,32.855,SAFFORD,AZ
703,93102,32.2,76.2,46.9,-118.700,39.417,FALLON,NV
704,93104,37.5,87.6,29.0,-117.683,35.683,CHINA LAKE,CA
705,93107,62.2,71.7,367.4,-117.150,32.867,MIRAMAR,CA
706,93110,60.1,67.2,404.4,-119.206,34.201,OXNARD,CA
707,93111,61.5,66.9,434.0,-119.117,34.117,POINT MUGU,CA
708,93112,62.0,74.8,320.6,-117.200,32.700,SAN DIEGO,CA
709,93115,61.8,78.3,275.0,-117.117,32.567,IMPERIAL BEACH,CA
710,93116,57.3,67.7,350.8,-119.458,33.240,SAN NICOLAS ISLAND,CA
711,93129,38.8,73.3,99.9,-113.097,37.702,CEDAR CITY,UT
712,93134,60.7,75.2,297.8,-118.296,34.028,LOS ANGELES,CA
713,93138,55.1,92.5,99.3,-116.505,33.828,PALM SPRINGS,CA
714,93141,37.0,73.2,88.8,-110.750,39.545,PRICE,UT
715,93167,49.4,83.7,111.6,-113.937,35.259,KINGMAN,AZ
716,93184,62.7,73.7,345.9,-117.866,33.680,SANTA ANA,CA
717,93193,49.3,84.1,108.6,-119.719,36.780,FRESNO,CA
718,93197,61.1,71.7,350.8,-118.451,34.016,SANTA MONICA,CA
719,93205,52.0,78.7,167.1,-121.570,39.098,MARYSVILLE,CA
720,93206,54.2,68.8,291.6,-120.641,35.237,SAN LUIS OBISPO,CA
721,93209,46.5,75.1,146.8,-120.627,35.673,PASO ROBLES,CA
722,93225,52.5,77.0,185.6,-121.590,38.696,SACRAMENTO,CA
723,93227,54.1,66.9,315.0,-122.280,38.213,NAPA,CA
724,93228,56.5,66.9,350.8,-122.121,37.659,HAYWARD,CA
725,93230,35.2,62.5,145.5,-119.995,38.894,SOUTH LAKE TAHOE,CA
726,93241,49.9,78.4,151.1,-121.961,38.377,VACAVILLE,CA
727,93242,53.0,79.3,171.4,-120.111,36.988,MADERA,CA
728,93706,57.7,71.7,302.1,-77.730,39.708,HAGERSTOWN,MD
729,93718,71.8,79.0,408.7,-78.721,33.816,NORTH MYRTLE BEACH,SC
730,93720,61.5,71.2,364.4,-75.510,38.341,SALISBURY,MD
731,93721,59.2,73.6,297.8,-76.684,39.172,BALTIMORE,MD
732,93727,71.0,78.5,403.2,-77.433,34.700,NEW RIVER,NC
733,93729,69.3,79.4,363.1,-75.623,35.232,CAPE HATTERAS,NC
734,93730,60.9,73.3,325.5,-74.457,39.458,ATLANTIC CITY,NJ
735,93736,59.0,72.7,307.0,-78.453,38.139,CHARLOTTESVILLE,VA
736,93738,58.7,73.6,291.6,-77.448,38.935,WASHINGTON,DC
737,93739,63.8,74.8,346.5,-75.496,37.941,WALLOPS ISLAND,VA
738,93740,67.6,79.3,339.7,-78.880,34.991,FAYETTEVILLE,NC
739,93741,64.5,77.0,326.8,-76.493,37.132,NEWPORT NEWS,VA
740,93759,65.8,76.8,348.3,-77.893,35.855,ROCKY MOUNT,NC
741,93765,70.1,78.5,389.0,-76.661,34.734,BEAUFORT,NC
742,93773,63.7,77.0,315.7,-77.007,36.984,WAKEFIELD,VA
743,93775,61.7,76.0,301.5,-77.434,37.708,RICHMOND/ASHLAND,VA
744,93778,58.2,69.0,345.9,-76.874,39.918,YORK,PA
745,93780,59.3,72.3,316.3,-74.841,39.941,MOUNT HOLLY,NJ
746,93781,64.5,77.9,315.0,-77.710,36.439,ROANOKE RAPIDS,NC
747,93782,68.8,77.4,385.3,-79.366,34.792,MAXTON,NC
748,93783,62.6,76.0,313.2,-79.477,36.047,BURLINGTON,NC
749,93784,58.4,78.5,233.1,-76.610,39.281,BALTIMORE,MD
750,93785,64.3,78.7,302.1,-79.064,35.933,CHAPEL HILL,NC
751,93786,62.5,74.9,326.8,-75.124,38.308,OCEAN CITY,MD
752,93801,63.9,78.0,305.2,-85.161,34.348,ROME,GA
753,93805,71.4,81.3,367.4,-84.353,30.393,TALLAHASSEE,FL
754,93806,67.7,79.7,335.4,-87.616,33.212,TUSCALOOSA,AL
755,93807,61.2,75.4,302.1,-80.222,36.134,WINSTON SALEM,NC
756,93808,62.9,77.1,303.3,-86.436,36.981,BOWLING GREEN,KY
757,93810,64.7,74.2,369.3,-89.250,37.780,CARBONDALE/MURPHYBORO,IL
758,93812,60.7,74.6,305.8,-84.419,39.103,CINCINNATI,OH
759,93814,60.0,74.5,297.2,-84.672,39.043,COVINGTON,KY
760,93815,58.1,71.4,311.4,-84.219,39.906,DAYTON,OH
761,93817,62.9,76.0,317.5,-87.537,38.043,EVANSVILLE,IN
762,93819,59.6,73.9,299.6,-86.272,39.710,INDIANAPOLIS,IN
763,93820,59.9,74.6,294.7,-84.606,38.041,LEXINGTON,KY
764,93821,61.9,78.8,270.1,-85.730,38.177,LOUISVILLE,KY
765,93822,63.3,71.6,386.6,-89.684,39.845,SPRINGFIELD,IL
766,93824,58.0,71.2,312.6,-81.892,39.944,ZANESVILLE,OH
767,93837,71.7,82.7,352.0,-81.683,30.233,JACKSONVILLE,FL
768,93842,66.5,80.1,313.8,-84.942,32.516,COLUMBUS,GA
769,93846,64.6,79.3,298.4,-82.709,34.495,ANDERSON,SC
770,93862,69.0,77.9,381.0,-88.771,34.261,TUPELO,MS
771,93874,73.1,81.5,390.3,-89.070,30.407,GULFPORT,MS
772,93909,63.9,75.8,334.2,-94.890,38.831,OLATHE,KS
773,93915,72.1,83.4,348.3,-92.559,31.335,ALEXANDRIA,LA
774,93919,69.6,79.8,361.9,-90.472,31.178,MCCOMB,MS
775,93950,67.5,79.8,331.7,-95.783,34.899,MC ALESTER,OK
776,93953,68.3,79.3,349.6,-95.361,35.657,MUSKOGEE,OK
777,93967,67.2,77.2,363.1,-95.566,37.091,COFFEYVILLE,KS
778,93985,66.5,82.5,284.2,-98.061,32.782,MINERAL WELLS,TX
779,93986,63.6,81.0,266.4,-99.051,35.008,HOBART,OK
780,93987,70.4,83.0,329.8,-94.750,31.234,LUFKIN,TX
781,93988,69.1,79.1,364.4,-91.935,34.175,PINE BLUFF,AR
782,93989,62.6,72.7,358.8,-91.194,39.943,QUINCY,IL
783,93990,60.7,74.7,304.0,-99.830,39.376,HILL CITY,KS
784,93992,68.9,80.5,342.2,-92.813,33.221,EL DORADO,AR
785,93993,66.2,75.6,371.8,-94.170,36.005,FAYETTEVILLE,AR
786,93997,63.2,75.6,326.8,-98.828,38.872,RUSSELL,KS
787,94008,46.7,70.6,185.6,-106.621,48.214,GLASGOW,MT
788,94012,43.2,67.3,180.1,-109.780,48.559,HAVRE,MT
789,94014,50.6,70.0,233.1,-103.642,48.195,WILLISTON,ND
790,94017,47.2,69.6,199.8,-105.574,48.094,WOLF POINT,MT
791,94023,43.5,69.7,162.8,-105.542,44.339,GILLETTE,WY
792,94030,41.2,71.6,128.9,-109.509,40.441,VERNAL,UT
793,94032,46.7,63.8,254.6,-103.628,43.731,CUSTER,SD
794,94037,50.1,69.7,230.6,-103.546,45.604,BUFFALO,SD
795,94038,50.7,69.1,243.5,-102.655,46.014,HETTINGER,ND
796,94039,54.0,71.8,253.4,-102.518,43.021,PINE RIDGE,SD
797,94040,59.2,73.1,304.6,-100.591,40.206,MC COOK,NE
798,94041,54.1,69.1,286.1,-101.439,47.663,GARRISON,ND
799,94050,40.2,65.6,165.9,-107.885,40.049,MEEKER,CO
800,94051,45.1,69.7,177.6,-106.948,47.326,JORDAN,MT
801,94052,56.3,71.8,281.8,-100.408,45.546,MOBRIDGE,SD
802,94053,52.8,69.7,262.7,-104.153,42.065,TORRINGTON,WY
803,94054,38.7,69.9,120.9,-106.721,44.381,BUFFALO,WY
804,94055,46.1,69.7,187.5,-104.250,46.358,BAKER,MT
805,94057,44.0,70.3,162.2,-105.386,42.797,DOUGLAS,WY
806,94119,43.1,64.5,205.3,-117.421,47.969,DEER PARK,WA
807,94128,41.5,69.6,145.5,-111.853,41.787,LOGAN,UT
808,94129,43.5,65.7,197.9,-117.109,46.744,PULLMAN/MOSCOW,WA
809,94173,33.6,54.3,202.9,-110.421,44.544,YELLOWSTONE,WY
810,94176,44.4,68.9,178.2,-117.321,47.683,SPOKANE,WA
811,94178,37.5,72.7,95.0,-114.487,42.482,TWIN FALLS,ID
812,94182,41.4,59.5,238.6,-116.102,44.889,MCCALL,ID
813,94185,37.0,65.3,140.0,-118.954,43.592,BURNS,OR
814,94194,40.4,66.6,159.7,-111.881,43.834,REXBURG,ID
815,94197,43.0,69.4,160.3,-119.517,48.464,OMAK,WA
816,94225,54.8,60.1,432.8,-123.937,46.971,HOQUIAM,WA
817,94227,52.8,63.2,347.7,-123.148,47.238,SHELTON,WA
818,94236,45.0,65.4,217.0,-121.724,42.147,KLAMATH FALLS,OR
819,94239,45.5,72.2,160.9,-120.207,47.399,WENATCHEE,WA
820,94240,53.2,59.1,421.7,-124.561,47.934,QUILLAYUTE,WA
821,94248,53.6,66.7,310.7,-122.214,47.493,RENTON,WA
822,94261,53.6,66.3,315.7,-122.949,45.541,PORTLAND,OR
823,94266,50.7,59.5,371.1,-123.498,48.120,PORT ANGELES,WA
824,94273,53.0,66.6,303.3,-123.134,45.195,MC MINNVILLE,OR
825,94274,52.5,64.6,323.1,-122.576,47.268,TACOMA,WA
826,94276,51.0,60.3,363.7,-123.023,48.522,FRIDAY HARBOR,WA
827,94281,54.4,68.4,299.0,-122.769,45.249,AURORA,OR
828,94298,54.7,69.4,290.4,-122.657,45.621,VANCOUVER,WA
829,94299,35.9,66.6,121.5,-120.567,41.483,ALTURAS,CA
830,94623,57.7,65.0,399.5,-69.712,43.964,WISCASSET,ME
831,94624,60.7,68.5,393.3,-69.993,41.688,CHATHAM,MA
832,94626,55.5,62.9,397.0,-69.595,45.462,GREENVILLE,ME
833,94700,53.8,62.2,379.8,-71.179,44.576,BERLIN,NH
834,94702,60.7,71.8,343.4,-73.146,41.175,BRIDGEPORT,CT
835,94705,54.9,64.1,367.4,-72.579,44.203,BARRE/MONTPELIER,VT
836,94720,59.7,68.9,370.5,-70.280,41.669,HYANNIS,MA
837,94723,59.5,68.4,374.8,-71.124,42.717,LAWRENCE,MA
838,94724,59.3,66.6,400.7,-70.615,41.393,VINEYARD HAVEN,MA
839,94725,57.0,65.3,382.9,-74.846,44.936,MASSENA,NY
840,94726,59.6,67.7,387.8,-70.958,41.676,NEW BEDFORD,MA
841,94728,57.6,73.8,275.0,-73.967,40.783,NEW YORK,NY
842,94732,58.3,75.1,268.2,-75.011,40.082,PHILADELPHIA,PA
843,94740,53.0,60.0,402.6,-74.207,44.385,SARANAC LAKE,NY
844,94741,57.7,73.5,279.9,-74.061,40.850,TETERBORO,NJ
845,94745,58.1,70.1,328.6,-73.708,41.067,WHITE PLAINS,NY
846,94746,56.6,68.1,334.8,-71.876,42.267,WORCESTER,MA
847,94765,57.4,66.4,372.4,-72.305,43.626,LEBANON,NH
848,94789,57.5,73.6,275.6,-73.796,40.655,NEW YORK,NY
849,94790,57.9,65.3,398.3,-76.022,43.992,WATERTOWN,NY
850,94814,54.8,64.7,357.0,-84.691,44.368,HOUGHTON LAKE,MI
851,94815,57.0,69.8,316.9,-85.552,42.235,KALAMAZOO,MI
852,94817,56.3,69.9,305.8,-83.418,42.665,PONTIAC,MI
853,94818,60.2,70.1,360.0,-87.814,42.761,RACINE,WI
854,94822,59.7,71.3,335.4,-89.093,42.196,ROCKFORD,IL
855,94823,56.4,69.7,310.1,-80.231,40.501,PITTSBURGH,PA
856,94830,57.4,71.7,297.8,-83.801,41.589,TOLEDO,OH
857,94846,59.1,72.7,308.3,-87.914,41.986,CHICAGO,IL
858,94847,56.8,72.1,284.8,-83.349,42.215,DETROIT,MI
859,94849,55.4,65.1,360.0,-83.581,45.072,ALPENA,MI
860,94855,57.3,68.3,342.2,-88.557,43.984,OSHKOSH,WI
861,94860,57.2,70.7,308.3,-85.523,42.882,GRAND RAPIDS,MI
862,94870,61.3,70.7,368.7,-88.278,40.040,CHAMPAIGN/URBANA,IL
863,94871,60.5,67.3,409.4,-86.422,42.129,BENTON HARBOR,MI
864,94889,56.3,68.5,324.9,-83.744,42.223,ANN ARBOR,MI
865,94892,59.7,72.0,326.1,-88.246,41.914,CHICAGO/WEST CHICAGO,IL
866,94893,51.6,64.3,314.4,-88.114,45.818,IRON MOUNTAIN/KINGSFORD,MI
867,94895,59.3,70.0,347.7,-85.394,40.234,MUNCIE,IN
868,94898,58.9,68.1,369.9,-82.793,44.022,HARBOR BEACH,MI
869,94899,54.7,66.0,336.0,-87.875,47.467,COPPER HARBOR,MI
870,94908,60.1,68.8,378.5,-90.704,42.398,DUBUQUE,IA
871,94910,60.3,69.9,365.0,-92.401,42.554,WATERLOO,IA
872,94929,54.5,64.4,356.3,-90.919,46.549,ASHLAND,WI
873,94931,52.7,61.6,371.1,-92.839,47.387,HIBBING,MN
874,94938,55.6,68.1,320.0,-94.131,46.405,BRAINERD,MN
875,94943,57.8,73.8,277.4,-99.318,43.767,CHAMBERLAIN,SD
876,94946,59.1,70.0,345.3,-99.639,41.437,BROKEN BOW,NE
877,94949,61.2,70.8,365.6,-98.427,40.604,HASTINGS,NE
878,94950,60.1,72.8,320.6,-98.038,43.777,MITCHELL,SD
879,94957,63.3,75.1,335.4,-95.592,40.079,FALLS CITY,NE
880,94958,59.2,72.5,312.0,-98.952,41.624,ORD,NE
881,94960,55.8,71.1,284.2,-93.351,45.063,MINNEAPOLIS,MN
882,94961,55.2,65.0,358.8,-94.610,48.728,BAUDETTE,MN
883,94963,56.8,71.6,291.0,-93.470,44.832,MINNEAPOLIS,MN
884,94967,54.9,68.7,302.1,-95.068,46.901,PARK RAPIDS,MN
885,94971,59.1,67.6,381.0,-94.746,43.408,ESTHERVILLE,IA
886,94973,54.4,67.5,311.4,-91.444,46.026,HAYWARD,WI
887,94978,61.9,71.9,360.0,-96.178,41.764,TEKAMAH,NE
888,94982,60.6,70.6,359.4,-90.591,41.614,DAVENPORT,IA
889,94985,56.8,66.7,358.2,-90.189,44.637,MARSHFIELD,WI
890,94988,60.6,68.7,388.4,-92.918,42.113,MARSHALLTOWN,IA
891,94989,60.4,69.4,374.2,-93.622,41.992,AMES,IA
892,94990,56.0,74.9,242.9,-99.842,43.390,WINNER,SD
893,94991,61.4,70.8,368.7,-93.902,40.633,LAMONI,IA
894,94992,52.8,63.0,350.8,-90.344,47.747,GRAND MARAIS,MN
895,94993,58.5,69.1,349.0,-96.991,45.669,SISSETON,SD
896,94994,58.7,70.0,339.1,-90.678,43.156,BOSCOBEL,WI
