,wban,dewpt,tavg,wp,long,lat,stname,ststate
0,03013,15.6,30.6,251.6,-102.688,38.070,LAMAR,CO
1,03016,16.8,25.8,344.6,-107.726,39.526,RIFLE,CO
2,03017,14.2,26.7,285.5,-104.658,39.833,DENVER,CO
3,03026,14.7,28.5,267.0,-102.284,39.245,BURLINGTON,CO
4,03027,19.0,32.1,281.1,-105.663,35.003,CLINES CORNERS,NM
5,03028,15.4,34.7,199.2,-102.614,37.283,SPRINGFIELD,CO
6,03029,17.8,29.0,308.9,-109.061,35.658,WINDOW ROCK,AZ
7,03030,17.3,37.2,194.9,-101.505,36.682,GUYMON,OK
8,03031,21.2,46.9,144.3,-102.387,31.921,ODESSA,TX
9,03032,26.8,50.0,172.0,-102.213,30.048,DRYDEN,TX
10,03102,37.9,53.0,271.3,-117.600,34.056,ONTARIO,CA
11,03103,18.1,30.6,289.2,-111.672,35.140,FLAGSTAFF,AZ
12,03104,34.3,53.2,222.6,-116.160,33.628,PALM SPRINGS,CA
13,03131,42.7,55.1,311.4,-117.139,32.816,SAN DIEGO,CA
14,03144,35.6,55.2,216.4,-115.579,32.834,IMPERIAL,CA
15,03145,35.5,57.3,194.2,-114.617,32.650,YUMA,AZ
16,03159,28.6,43.3,268.2,-118.219,34.741,LANCASTER,CA
17,03160,24.1,41.5,230.0,-116.028,36.621,MERCURY,NV
18,03162,22.8,36.5,276.2,-111.448,36.926,PAGE,AZ
19,03164,28.7,46.0,235.5,-116.467,32.617,CAMPO,CA
20,03166,41.2,54.9,292.2,-117.979,33.872,FULLERTON,CA
21,03167,42.0,55.9,290.4,-118.334,33.923,HAWTHORNE,CA
22,03170,10.0,22.5,281.8,-116.006,39.601,EUREKA,NV
23,03171,36.3,53.5,244.2,-117.439,33.952,RIVERSIDE,CA
24,03177,42.1,54.6,309.5,-117.279,33.128,CARLSBAD,CA
25,03178,41.3,54.3,302.1,-116.979,32.572,SAN DIEGO,CA
26,03179,39.7,52.2,307.7,-117.636,33.975,CHINO,CA
27,03184,34.0,53.3,218.3,-112.082,33.688,PHOENIX,AZ
28,03192,36.5,53.4,247.9,-111.911,33.623,SCOTTSDALE,AZ
29,03195,17.0,26.5,336.0,-112.155,35.946,GRAND CANYON,AZ
30,03196,28.9,50.3,191.2,-110.846,31.421,NOGALES,AZ
31,03749,23.4,32.6,345.9,-77.468,39.645,CAMP DAVID,MD
32,03757,30.6,42.7,305.8,-76.429,38.142,ST INIGOES,MD
33,03804,26.5,34.9,361.9,-81.439,39.345,PARKERSBURG,WV
34,03810,32.9,43.6,328.6,-81.390,35.741,HICKORY,NC
35,03811,31.0,41.9,324.3,-88.917,35.593,JACKSON,TN
36,03812,32.8,42.0,352.7,-82.538,35.432,ASHEVILLE,NC
37,03813,42.3,52.9,337.2,-83.654,32.688,MACON,GA
38,03816,26.3,37.3,318.7,-88.774,37.056,PADUCAH,KY
39,03818,47.6,56.5,367.4,-85.184,30.836,MARIANNA,FL
40,03822,47.2,56.8,356.3,-81.202,32.119,SAVANNAH,GA
41,03847,31.9,40.3,365.6,-85.085,35.951,CROSSVILLE,TN
42,03849,30.0,38.9,355.7,-84.077,37.087,LONDON,KY
43,03855,50.1,58.2,382.2,-87.317,30.350,PENSACOLA,FL
44,03856,36.4,45.6,355.1,-86.786,34.644,HUNTSVILLE,AL
45,03859,27.7,39.0,315.7,-81.208,37.296,BLUEFIELD,WV
46,03860,28.4,36.0,377.3,-82.555,38.382,HUNTINGTON,WV
47,03866,40.2,50.5,340.3,-88.567,32.550,MERIDIAN,MS
48,03868,22.2,31.4,345.3,-87.309,39.452,TERRE HAUTE,IN
49,03870,34.6,46.8,307.7,-82.219,34.899,GREER,SC
50,03872,27.8,35.2,380.4,-81.125,37.795,BECKLEY,WV
51,03878,43.3,53.4,345.9,-86.012,31.861,TROY,AL
52,03882,49.7,58.5,370.5,-85.683,30.212,PANAMA CITY,FL
53,03887,21.6,28.1,393.9,-88.866,39.984,DECATUR,IL
54,03888,38.0,47.9,345.3,-84.521,33.779,ATLANTA,GA
55,03889,28.8,38.3,345.3,-83.314,37.591,JACKSON,KY
56,03893,23.2,31.9,354.5,-86.617,39.144,BLOOMINGTON,IN
57,03894,29.4,38.0,360.7,-87.415,36.622,CLARKSVILLE,TN
58,03901,38.0,48.2,340.3,-94.711,32.385,LONGVIEW,TX
59,03902,33.7,50.4,247.2,-97.822,31.070,FORT HOOD/KILLEEN,TX
60,03904,39.4,52.6,297.8,-96.364,30.588,COLLEGE STATION,TX
61,03919,17.5,28.8,307.0,-97.661,38.813,SALINA,KS
62,03927,30.5,49.0,223.8,-97.041,32.896,DALLAS-FORT WORTH,TX
63,03928,20.7,33.1,292.9,-97.429,37.647,WICHITA,KS
64,03931,43.9,52.0,378.5,-93.192,31.045,FORT POLK,LA
65,03932,22.5,39.1,238.0,-99.200,35.340,CLINTON,OK
66,03935,27.2,36.0,355.7,-89.571,37.225,CAPE GIRARDEAU,MO
67,03936,17.5,28.0,320.0,-96.678,39.135,MANHATTAN,KS
68,03937,47.6,55.5,384.1,-93.228,30.125,LAKE CHARLES,LA
69,03940,41.5,50.1,368.7,-90.078,32.320,JACKSON,MS
70,03945,21.8,29.8,365.6,-92.218,38.817,COLUMBIA,MO
71,03947,18.8,28.8,329.2,-94.718,39.299,KANSAS CITY,MO
72,03949,43.0,50.8,382.9,-93.283,31.400,FORT POLK,LA
73,03950,23.9,41.2,230.6,-98.416,34.568,LAWTON,OK
74,03953,30.8,39.3,363.1,-90.646,35.831,JONESBORO,AR
75,03954,23.6,39.6,246.6,-97.647,35.534,OKLAHOMA CITY,OK
76,03957,19.9,34.5,261.4,-98.553,37.284,MEDICINE LODGE,KS
77,03960,23.0,32.6,339.1,-90.157,38.571,CAHOKIA/ST.LOUIS,IL
78,03962,32.4,43.4,323.7,-93.096,34.478,HOT SPRINGS,AR
79,03963,21.4,32.3,316.3,-92.156,38.591,JEFFERSON CITY,MO
80,03965,23.4,38.8,254.0,-97.086,36.160,STILLWATER,OK
81,03966,21.9,32.7,318.7,-90.656,38.657,ST LOUIS,MO
82,03967,19.5,30.0,321.2,-94.739,38.850,OLATHE,KS
83,03971,32.0,48.7,246.0,-96.868,32.681,DALLAS,TX
84,03975,26.6,37.4,322.4,-90.325,36.773,POPLAR BLUFF,MO
85,03981,22.6,42.0,205.9,-98.984,34.352,FREDERICK,OK
86,03991,29.6,44.5,266.4,-97.199,33.206,DENTON,TX
87,03994,22.2,31.5,343.4,-93.183,38.704,SEDALIA,MO
88,03996,40.9,49.9,361.9,-91.030,32.348,TALLULAH/VICKSBURG,MS
89,03997,19.6,29.6,329.8,-95.212,39.008,LAWRENCE,KS
90,03998,23.5,34.9,310.7,-95.504,37.328,PARSONS,KS
91,03999,33.0,50.9,232.5,-98.235,30.741,BURNET,TX
92,04109,25.5,29.4,448.8,-115.596,46.144,ELK CITY,ID
93,04110,20.5,26.4,405.0,-114.456,42.727,JEROME,ID
94,04111,13.4,21.5,358.2,-111.031,41.273,EVANSTON,WY
95,04112,10.0,15.7,403.2,-114.927,44.171,STANLEY,ID
96,04113,22.9,27.4,434.6,-119.261,45.826,HERMISTON,OR
97,04114,12.1,19.4,372.4,-114.215,41.523,CHALLIS,ID
98,04134,18.3,29.5,309.5,-113.351,40.161,DUGWAY PROVING GROUND,UT
99,04201,31.6,34.6,470.4,-122.861,45.773,SCAPPOOSE,OR
100,04724,21.6,29.2,373.0,-78.945,43.107,NIAGARA FALLS,NY
101,04725,19.9,27.2,377.3,-75.981,42.208,BINGHAMTON,NY
102,04726,21.7,29.4,371.1,-78.834,40.301,JOHNSTOWN,PA
103,04751,18.5,24.9,393.9,-78.640,41.803,BRADFORD,PA
104,04780,21.9,30.8,350.2,-71.756,42.552,FITCHBURG,MA
105,04781,26.6,36.8,331.7,-73.102,40.794,ISLIP,NY
106,04787,22.1,28.5,395.8,-78.899,41.178,DU BOIS,PA
107,04789,21.8,30.9,346.5,-74.265,41.509,MONTGOMERY,NY
108,04803,7.3,10.5,457.4,-89.465,45.631,RHINELANDER,WI
109,04804,22.2,31.0,352.0,-83.078,40.078,COLUMBUS,OH
110,04808,16.4,19.8,456.2,-88.481,41.770,CHICAGO/AURORA,IL
111,04826,8.5,12.4,441.4,-89.837,44.359,WISCONSIN RAPIDS,WI
112,04836,8.7,14.3,404.4,-68.307,47.286,FRENCHVILLE,ME
113,04838,16.0,23.1,378.5,-87.905,42.121,CHICAGO/PROSPECT HGTS/WHEELI,IL
114,04839,19.7,28.1,357.0,-86.097,42.746,HOLLAND,MI
115,04840,9.5,15.3,400.7,-88.486,43.770,FOND DU LAC,WI
116,04841,12.6,17.3,425.4,-87.851,43.769,SHEBOYGAN,WI
117,04842,23.9,31.0,383.5,-81.887,40.875,WOOSTER,OH
118,04843,21.4,28.9,374.8,-80.215,41.626,MEADVILLE,PA
119,04845,15.4,21.0,408.1,-87.938,42.595,KENOSHA,WI
120,04846,19.0,25.1,400.1,-87.006,41.453,VALPARAISO,IN
121,04847,19.2,25.9,388.4,-84.079,41.868,ADRIAN,MI
122,04848,22.3,28.0,410.0,-83.476,41.563,TOLEDO,OH
123,04849,22.2,31.2,348.3,-82.179,41.179,LORAIN/ELYRIA,OH
124,04850,22.7,30.0,379.2,-84.027,40.708,LIMA,OH
125,04851,21.2,27.2,403.2,-84.429,41.338,DEFIANCE,OH
126,04852,23.2,32.2,349.0,-81.420,40.470,NEW PHILADELPHIA,OH
127,04853,23.1,33.3,329.2,-81.684,41.518,CLEVELAND,OH
128,04854,15.8,19.0,460.5,-84.701,45.013,GAYLORD,MI
129,04855,22.3,30.1,369.9,-83.064,40.616,MARION,OH
130,04857,22.0,31.3,343.4,-80.696,41.778,ASHTABULA,OH
131,04858,24.3,31.4,384.1,-82.463,40.023,NEWARK,OH
134,12812,56.6,65.4,374.8,-81.991,26.917,PUNTA GORDA,FL
135,12815,54.8,64.5,360.0,-81.325,28.434,ORLANDO,FL
136,12816,49.2,59.4,348.3,-82.272,29.690,GAINESVILLE,FL
137,12818,51.9,61.1,365.6,-82.454,28.474,BROOKSVILLE,FL
138,12819,53.7,63.1,363.7,-81.810,28.821,LEESBURG,FL
139,12832,51.2,58.7,392.7,-85.033,29.733,APALACHICOLA,FL
140,12833,49.5,58.5,367.4,-83.105,29.550,CROSS CITY,FL
141,12834,55.1,64.6,363.1,-81.060,29.177,DAYTONA BEACH,FL
142,12835,57.0,67.5,349.6,-81.864,26.586,FORT MYERS,FL
143,12836,64.3,71.3,408.1,-81.754,24.553,KEY WEST,FL
144,12838,56.8,65.5,376.7,-80.646,28.103,MELBOURNE,FL
145,12839,61.3,71.8,352.0,-80.300,25.824,MIAMI,FL
146,12841,54.6,64.9,350.8,-81.333,28.545,ORLANDO,FL
147,12842,55.1,66.1,340.9,-82.540,27.961,TAMPA,FL
148,12843,57.9,66.0,386.6,-80.418,27.656,VERO BEACH,FL
149,12844,58.1,68.8,347.1,-80.099,26.685,WEST PALM BEACH,FL
150,12849,60.1,72.3,327.4,-80.154,26.072,FORT LAUDERDALE,FL
151,12854,53.1,64.5,333.5,-81.244,28.780,ORLANDO,FL
152,12871,56.1,65.3,368.1,-82.559,27.401,SARASOTA/BRADENTON,FL
153,12873,55.8,66.9,339.7,-82.688,27.911,ST PETERSBURG/CLEARWATER,FL
154,12876,54.9,64.3,364.4,-81.754,28.062,WINTER HAVEN,FL
155,12882,60.7,70.1,368.1,-80.280,25.907,MIAMI,FL
156,12884,52.3,60.5,381.6,-89.408,29.350,BOOTHVILLE,LA
157,12885,59.7,69.8,357.0,-80.171,26.197,FORT LAUDERDALE,FL
158,12888,60.6,68.4,393.3,-80.433,25.648,MIAMI,FL
159,12894,57.5,65.7,384.7,-81.755,26.536,FORT MYERS,FL
160,12895,58.3,66.1,392.1,-80.377,27.498,FORT PIERCE,FL
161,12896,63.3,72.2,377.3,-81.052,24.726,MARATHON,FL
162,12897,59.0,67.6,379.8,-81.775,26.153,NAPLES,FL
163,12904,51.8,62.7,339.7,-97.654,26.228,HARLINGEN,TX
164,12912,45.1,56.0,334.8,-96.930,28.863,VICTORIA,TX
165,12917,47.6,55.7,381.0,-94.021,29.951,BEAUMONT/PORT ARTHUR,TX
166,12918,46.2,57.1,336.0,-95.279,29.645,HOUSTON,TX
167,12919,54.5,63.4,371.8,-97.426,25.906,BROWNSVILLE,TX
168,12921,36.2,55.1,224.4,-98.464,29.533,SAN ANTONIO,TX
169,12924,48.0,59.7,325.5,-97.513,27.773,CORPUS CHRISTI,TX
170,12926,50.1,60.6,344.6,-97.283,27.700,CORPUS CHRISTI,TX
171,12928,46.2,60.4,289.8,-97.817,27.500,KINGSVILLE,TX
172,12932,45.5,60.9,274.4,-98.027,27.741,ALICE,TX
173,12935,47.3,56.6,361.3,-96.251,28.728,PALACIOS,TX
174,12947,39.6,56.5,250.3,-99.220,28.458,COTULLA,TX
175,12957,54.9,63.9,370.5,-97.346,26.166,PORT ISABEL,TX
176,12958,50.1,57.5,393.9,-90.033,29.833,NEW ORLEANS,LA
177,12959,49.2,62.9,299.0,-98.238,26.175,MC ALLEN,TX
178,12960,45.8,55.7,350.8,-95.364,29.993,HOUSTON,TX
179,12962,35.7,52.5,247.9,-99.174,29.359,HONDO,TX
180,12968,50.8,57.5,406.3,-91.526,29.562,SALT POINT,LA
181,12970,38.1,54.8,251.6,-98.471,29.337,SAN ANTONIO,TX
182,12971,37.5,54.2,250.9,-98.045,29.709,NEW BRAUNFELS,TX
183,12972,49.4,59.2,354.5,-97.046,28.084,ROCKPORT,TX
184,12975,47.2,56.5,361.3,-95.240,29.521,HOUSTON,TX
185,12976,48.5,57.0,374.8,-95.462,29.110,ANGLETON/LAKE JACKSON,TX
186,12977,45.0,56.7,323.1,-95.656,29.622,HOUSTON,TX
187,13721,30.7,43.1,301.5,-76.400,38.283,PATUXENT RIVER,MD
188,13722,37.1,47.5,336.6,-78.786,35.871,RALEIGH/DURHAM,NC
189,13723,31.8,44.5,298.4,-79.944,36.098,GREENSBORO,NC
190,13728,32.4,43.0,329.8,-79.336,36.573,DANVILLE,VA
191,13729,27.1,34.8,374.8,-79.853,38.885,ELKINS,WV
192,13733,29.1,39.2,335.4,-79.207,37.338,LYNCHBURG,VA
193,13734,25.5,35.7,331.1,-77.984,39.402,MARTINSBURG,WV
194,13735,29.8,38.8,353.9,-75.078,39.366,MILLVILLE,NJ
195,13736,26.7,36.5,338.5,-79.916,39.643,MORGANTOWN,WV
196,13737,38.1,48.1,343.4,-76.192,36.904,NORFOLK,VA
197,13739,27.5,38.7,316.9,-75.231,39.868,PHILADELPHIA,PA
198,13740,32.6,44.5,310.7,-77.323,37.511,RICHMOND,VA
199,13741,28.1,41.8,281.1,-79.974,37.317,ROANOKE,VA
200,13743,27.7,40.3,295.9,-77.034,38.865,WASHINGTON,DC
201,13744,42.7,51.7,363.1,-79.731,34.188,FLORENCE,SC
202,13748,44.6,52.7,379.2,-77.906,34.268,WILMINGTON,NC
203,13750,37.6,50.0,307.0,-76.283,36.933,NORFOLK,VA
204,13752,29.9,41.5,312.6,-76.483,38.991,ANNAPOLIS,MD
205,13754,42.6,50.8,376.1,-76.883,34.900,CHERRY POINT,NC
206,13762,35.9,47.6,316.3,-76.136,36.695,FENTRESS,VA
207,13764,31.9,42.7,326.8,-75.359,38.689,GEORGETOWN,DE
208,13769,38.3,47.3,360.0,-76.033,36.817,OCEANA,VA
209,13776,43.0,50.8,382.9,-79.059,34.610,LUMBERTON,NC
210,13781,28.4,38.1,341.6,-75.601,39.673,WILMINGTON,DE
211,13786,38.7,48.4,349.0,-76.175,36.261,ELIZABETH CITY,NC
212,13809,24.1,33.1,350.2,-87.606,38.764,LAWRENCEVILLE,IL
213,13810,26.5,37.3,322.4,-85.664,38.228,LOUISVILLE,KY
214,13833,45.0,54.4,358.2,-89.253,31.265,HATTIESBURG,MS
215,13837,41.3,53.6,312.0,-82.039,33.467,AUGUSTA,GA
216,13839,45.8,57.6,322.4,-85.450,31.321,DOTHAN,AL
217,13841,24.1,32.4,361.9,-83.822,39.420,WILMINGTON,OH
218,13865,42.4,51.2,366.2,-88.751,32.333,MERIDIAN,MS
219,13869,45.7,55.6,350.8,-84.194,31.536,ALBANY,GA
220,13870,45.3,56.4,332.3,-82.507,31.536,ALMA,GA
221,13871,38.7,49.1,337.9,-85.858,33.588,ANNISTON,AL
222,13873,37.5,48.5,328.0,-83.327,33.948,ATHENS,GA
223,13874,38.0,48.6,334.2,-84.427,33.640,ATLANTA,GA
224,13876,38.0,49.2,324.9,-86.754,33.564,BIRMINGHAM,AL
225,13877,33.4,40.6,387.8,-82.399,36.480,BRISTOL/JHNSN CTY/KNGSPRT,TN
226,13878,49.9,58.1,380.4,-81.391,31.252,BRUNSWICK,GA
227,13880,46.2,56.0,352.7,-80.041,32.899,CHARLESTON,SC
228,13881,36.0,46.9,328.0,-80.944,35.214,CHARLOTTE,NC
229,13882,35.9,45.1,355.1,-85.200,35.033,CHATTANOOGA,TN
230,13883,39.6,52.0,308.9,-81.118,33.942,COLUMBIA,SC
231,13884,46.7,55.5,368.7,-86.523,30.780,CRESTVIEW,FL
232,13886,34.8,46.8,310.7,-82.346,34.846,GREENVILLE,SC
233,13889,49.3,59.0,356.3,-81.693,30.494,JACKSONVILLE,FL
234,13891,34.0,42.2,370.5,-83.986,35.818,KNOXVILLE,TN
235,13893,32.3,43.6,319.4,-89.985,35.061,MEMPHIS,TN
236,13894,46.3,56.5,346.5,-88.246,30.688,MOBILE,AL
237,13895,42.2,53.3,329.8,-86.394,32.301,MONTGOMERY,AL
238,13896,34.1,44.2,339.1,-87.610,34.745,MUSCLE SHOALS,AL
239,13897,30.2,40.7,329.8,-86.689,36.119,NASHVILLE,TN
240,13899,48.3,56.8,374.8,-87.188,30.473,PENSACOLA,FL
241,13904,35.2,51.3,255.9,-97.681,30.179,AUSTIN/BERGSTROM,TX
242,13911,29.9,48.0,227.5,-97.441,32.769,FORT WORTH,TX
243,13920,19.5,29.3,332.9,-95.664,38.950,TOPEKA,KS
244,13927,40.6,51.1,337.9,-90.223,32.335,JACKSON,MS
245,13932,21.9,34.7,287.9,-97.037,37.168,WINFIELD/ARKANSAS CITY,KS
246,13935,43.8,53.0,360.7,-92.296,31.395,ALEXANDRIA,LA
247,13939,38.5,46.4,378.5,-90.986,33.483,GREENVILLE,MS
248,13942,40.9,49.6,366.8,-92.038,32.511,MONROE,LA
249,13957,38.6,48.3,349.0,-93.824,32.447,SHREVEPORT,LA
250,13958,35.9,53.5,239.2,-97.767,30.317,AUSTIN/CITY,TX
251,13959,31.6,48.6,241.7,-97.229,31.611,WACO,TX
252,13960,32.1,47.6,260.8,-96.851,32.847,DALLAS,TX
253,13961,30.1,46.3,250.3,-97.361,32.819,FORT WORTH,TX
254,13962,24.5,46.5,180.7,-99.682,32.411,ABILENE,TX
255,13963,32.4,42.9,331.7,-92.233,34.747,LITTLE ROCK,AR
256,13964,28.8,40.7,307.0,-94.365,35.334,FORT SMITH,AR
257,13966,23.9,43.6,203.5,-98.493,33.979,WICHITA FALLS,TX
258,13967,23.5,39.5,246.6,-97.600,35.389,OKLAHOMA CITY,OK
259,13968,25.5,39.4,275.6,-95.886,36.198,TULSA,OK
260,13969,23.0,36.5,279.3,-97.100,36.731,PONCA CITY,OK
261,13970,45.3,59.0,295.9,-91.147,30.537,BATON ROUGE,LA
262,13971,26.0,37.0,318.7,-93.155,36.261,HARRISON,AR
263,13972,35.2,48.3,295.3,-95.402,32.354,TYLER,TX
264,13973,29.2,50.7,190.5,-99.766,30.511,JUNCTION,TX
265,13975,19.3,36.8,223.8,-99.775,36.297,GAGE,OK
266,13976,47.2,55.8,372.4,-91.988,30.205,LAFAYETTE,LA
267,13977,34.2,45.8,316.3,-94.008,33.454,TEXARKANA,AR
268,13978,39.0,48.2,357.0,-90.084,33.496,GREENWOOD,MS
269,13981,23.4,34.7,312.0,-95.484,37.670,CHANUTE,KS
270,13984,17.1,26.5,337.9,-97.652,39.549,CONCORDIA,KS
271,13985,16.3,32.7,234.3,-99.970,37.773,DODGE CITY,KS
272,13986,18.6,31.3,286.7,-97.861,38.068,HUTCHINSON,KS
273,13987,26.0,36.1,332.9,-94.498,37.149,JOPLIN,MO
274,13988,20.1,32.4,294.1,-94.593,39.123,KANSAS CITY,MO
275,13989,19.8,30.9,312.0,-96.190,38.331,EMPORIA,KS
276,13993,17.6,25.7,361.3,-94.907,39.774,ST JOSEPH,MO
277,13994,23.1,32.5,342.2,-90.374,38.753,ST LOUIS,MO
278,13995,24.3,33.2,352.0,-93.390,37.240,SPRINGFIELD,MO
279,13996,18.8,30.1,308.3,-95.626,39.073,TOPEKA,KS
280,13997,23.1,32.4,344.0,-91.769,38.128,ROLLA/VICHY,MO
281,14605,16.6,24.8,358.8,-69.797,44.321,AUGUSTA,ME
282,14606,17.5,24.4,383.5,-68.824,44.808,BANGOR,ME
283,14607,11.1,16.1,418.6,-68.033,46.867,CARIBOU,ME
284,14609,13.6,19.4,403.2,-67.792,46.123,HOULTON,ME
285,14610,13.6,20.8,374.8,-68.686,45.648,MILLINOCKET,ME
286,14611,18.9,27.1,360.0,-69.933,43.900,BRUNSWICK,ME
287,14702,23.9,32.1,363.7,-71.289,42.470,BEDFORD,MA
288,14707,28.1,35.9,373.6,-72.049,41.328,GROTON NEW LONDON,CT
289,14711,25.6,34.7,349.6,-76.763,40.194,HARRISBURG,PA
290,14712,25.3,34.7,344.0,-75.959,40.373,READING,PA
291,14719,27.4,35.1,374.8,-72.632,40.844,WESTHAMPTON BEACH,NY
292,14732,26.2,39.1,290.4,-73.881,40.779,NEW YORK,NY
293,14733,21.3,29.4,363.7,-78.736,42.941,BUFFALO,NY
294,14734,25.0,37.4,296.6,-74.169,40.716,NEWARK,NJ
295,14735,20.8,28.5,370.5,-73.803,42.748,ALBANY,NY
296,14736,23.3,31.5,363.1,-78.317,40.300,ALTOONA,PA
297,14737,24.0,32.6,357.0,-75.449,40.651,ALLENTOWN,PA
298,14739,25.1,35.7,324.3,-71.011,42.361,BOSTON,MA
299,14740,24.4,32.2,371.1,-72.683,41.938,WINDSOR LOCKS,CT
300,14742,16.3,25.2,345.9,-73.150,44.468,BURLINGTON,VT
301,14745,19.3,27.0,369.3,-71.501,43.195,CONCORD,NH
302,14747,22.3,31.2,350.2,-79.272,42.493,DUNKIRK,NY
303,14748,19.4,28.1,351.4,-76.892,42.159,ELMIRA/CORNING,NY
304,14750,19.3,24.2,424.8,-73.610,43.341,GLENS FALLS,NY
305,14751,24.4,34.9,325.5,-76.851,40.217,HARRISBURG,PA
306,14752,25.1,33.6,359.4,-72.651,41.736,HARTFORD,CT
307,14753,23.8,32.8,349.6,-71.115,42.212,MILTON,MA
308,14756,32.0,39.5,381.6,-70.061,41.253,NANTUCKET,MA
309,14757,23.6,31.3,372.4,-73.884,41.627,POUGHKEEPSIE,NY
310,14758,26.7,36.1,345.3,-72.887,41.264,NEW HAVEN,CT
311,14762,24.8,33.1,362.5,-79.922,40.355,PITTSBURGH,PA
312,14763,21.5,28.2,389.6,-73.289,42.427,PITTSFIELD,MA
313,14764,19.8,29.1,341.6,-70.304,43.642,PORTLAND,ME
314,14765,25.2,35.3,332.3,-71.433,41.722,PROVIDENCE,RI
315,14768,20.9,30.6,335.4,-77.677,43.117,ROCHESTER,NY
316,14770,23.4,31.7,361.9,-76.864,40.821,SELINSGROVE,PA
317,14771,21.9,28.9,384.1,-76.103,43.109,SYRACUSE,NY
318,14775,22.5,30.4,368.1,-72.716,42.158,WESTFIELD/SPRINGFIELD,MA
319,14777,22.1,31.5,341.6,-75.727,41.339,WILKES-BARRE/SCRANTON,PA
320,14778,21.0,32.1,313.2,-76.922,41.243,WILLIAMSPORT,PA
321,14787,28.6,37.4,356.3,-71.284,41.530,NEWPORT,RI
322,14792,27.1,37.1,335.4,-74.814,40.277,TRENTON,NJ
323,14794,27.7,36.2,361.3,-71.799,41.350,WESTERLY,RI
324,14813,22.6,31.0,359.4,-81.464,41.038,AKRON,OH
325,14815,19.0,25.9,384.7,-85.251,42.308,BATTLE CREEK,MI
326,14819,18.3,24.2,403.8,-87.752,41.786,CHICAGO,IL
327,14820,23.1,31.0,368.7,-81.853,41.405,CLEVELAND,OH
328,14821,23.3,33.2,334.2,-82.881,39.991,COLUMBUS,OH
329,14822,19.7,28.8,344.6,-83.010,42.409,DETROIT,MI
330,14825,21.5,29.4,367.4,-83.669,41.014,FINDLAY,OH
331,14826,18.0,24.7,387.8,-83.749,42.967,FLINT,MI
332,14827,20.6,27.6,383.5,-85.206,41.006,FORT WAYNE,IN
333,14829,19.8,26.1,396.4,-85.792,41.527,GOSHEN,IN
334,14833,18.1,25.0,384.1,-84.459,42.260,JACKSON,MI
335,14835,20.5,29.4,349.0,-86.937,40.412,LAFAYETTE,IN
336,14836,18.5,25.5,382.2,-84.579,42.780,LANSING,MI
337,14837,12.2,17.0,422.9,-89.345,43.141,MADISON,WI
338,14840,20.4,27.2,387.2,-86.237,43.171,MUSKEGON,MI
339,14841,16.1,19.8,449.4,-84.796,45.571,PELLSTON,MI
340,14842,18.0,24.3,395.2,-89.684,40.668,PEORIA,IL
341,14847,11.7,17.1,410.0,-84.367,46.467,SAULT STE MARIE,MI
342,14848,18.7,26.0,376.7,-86.333,41.707,SOUTH BEND,IN
343,14850,18.5,23.5,422.3,-85.583,44.741,TRAVERSE CITY,MI
344,14852,21.4,30.7,342.8,-80.674,41.254,YOUNGSTOWN/WARREN,OH
345,14853,19.1,25.8,388.4,-83.230,42.237,DETROIT,MI
346,14858,9.9,14.5,426.6,-88.506,47.169,HANCOCK,MI
347,14860,23.9,32.5,357.0,-80.183,42.080,ERIE,PA
348,14880,15.5,22.5,380.4,-87.868,42.422,CHICAGO/WAUKEGAN,IL
349,14891,21.6,29.1,374.8,-82.518,40.820,MANSFIELD,OH
350,14894,24.6,32.6,367.4,-80.647,40.176,WHEELING,WV
351,14895,21.9,30.5,355.1,-81.443,40.918,AKRON,OH
352,14897,7.7,11.6,441.4,-89.627,44.929,WAUSAU,WI
353,14898,10.2,15.3,415.5,-88.120,44.513,GREEN BAY,WI
354,14910,3.7,7.3,446.3,-95.393,45.883,ALEXANDRIA,MN
355,14913,1.9,7.4,402.6,-92.194,46.844,DULUTH,MN
356,14914,0.7,5.9,408.1,-96.811,46.925,FARGO,ND
357,14916,-2.4,1.7,431.5,-97.176,47.949,GRAND FORKS,ND
358,14918,-3.0,0.0,458.7,-93.403,48.566,INTERNATIONAL FALLS,MN
359,14919,0.3,5.2,414.9,-98.678,46.930,JAMESTOWN,ND
360,14920,9.5,14.1,426.0,-91.256,43.754,LA CROSSE,WI
361,14921,10.7,14.8,437.7,-90.181,43.212,LONE ROCK,WI
362,14922,6.6,13.5,376.1,-93.229,44.883,MINNEAPOLIS,MN
363,14923,14.4,28.8,258.3,-90.523,41.465,MOLINE,IL
364,14925,7.7,12.5,421.1,-92.492,43.904,ROCHESTER,MN
365,14926,3.6,8.5,416.8,-94.052,45.545,ST CLOUD,MN
366,14929,5.6,10.2,424.2,-98.421,45.450,ABERDEEN,SD
367,14931,16.9,26.2,339.1,-91.125,40.783,BURLINGTON,IA
368,14933,13.1,21.5,352.7,-93.666,41.538,DES MOINES,IA
369,14935,14.4,22.2,364.4,-98.313,40.958,GRAND ISLAND,NE
370,14936,6.9,12.8,397.0,-98.229,44.385,HURON,SD
371,14937,13.6,19.2,406.9,-91.543,41.633,IOWA CITY,IA
372,14938,17.1,24.7,369.9,-92.543,40.097,KIRKSVILLE,MO
373,14939,14.1,23.1,342.2,-96.764,40.831,LINCOLN,NE
374,14940,8.2,12.7,427.9,-93.331,43.158,MASON CITY,IA
375,14941,12.0,18.6,385.9,-97.437,41.981,NORFOLK,NE
376,14942,13.8,22.2,352.7,-95.899,41.310,OMAHA,NE
377,14943,10.9,17.0,395.2,-96.379,42.391,SIOUX CITY,IA
378,14944,8.2,15.3,373.6,-96.754,43.577,SIOUX FALLS,SD
379,14946,5.3,8.9,447.0,-97.154,44.931,WATERTOWN,SD
380,14950,13.6,20.0,390.9,-92.448,41.107,OTTUMWA,IA
381,14972,8.3,13.5,412.4,-95.202,43.164,SPENCER,IA
382,14990,12.8,16.4,450.0,-91.709,41.884,CEDAR RAPIDS,IA
383,14991,6.9,11.6,422.9,-91.485,44.865,EAU CLAIRE,WI
384,14992,6.5,13.0,384.1,-95.082,44.547,REDWOOD FALLS,MN
385,21504,63.3,71.9,382.2,-155.051,19.723,HILO,HI
386,21510,64.5,75.7,344.6,-156.049,19.736,KAILUA/KONA,HI
387,22010,34.5,53.0,227.5,-100.922,29.367,DEL RIO,TX
388,22516,64.0,73.6,367.4,-156.433,20.902,KAHULUI,HI
389,22519,67.5,74.8,405.0,-157.768,21.451,KANEOHE,HI
390,22521,65.7,75.3,368.1,-157.943,21.328,HONOLULU,HI
391,22534,65.2,71.3,423.5,-157.099,21.157,KAUNAKAKAI,HI
392,22536,66.1,72.5,418.6,-159.341,21.979,LIHUE,HI
393,22551,66.5,74.2,397.6,-158.067,21.317,KAPOLEI,HI
394,23009,18.7,41.6,166.5,-104.541,33.308,ROSWELL,NM
395,23023,21.2,45.9,152.9,-102.208,31.932,MIDLAND,TX
396,23034,26.8,48.5,186.2,-100.494,31.351,SAN ANGELO,TX
397,23040,19.5,45.8,137.5,-103.201,31.780,WINK,TX
398,23042,19.0,42.6,160.3,-101.821,33.668,LUBBOCK,TX
399,23044,23.0,47.8,153.6,-106.376,31.811,EL PASO,TX
400,23047,17.1,46.5,111.6,-101.706,35.219,AMARILLO,TX
401,23048,18.8,40.3,180.1,-103.603,35.182,TUCUMCARI,NM
402,23049,19.7,32.2,290.4,-106.089,35.617,SANTA FE,NM
403,23050,21.0,38.8,222.0,-106.616,35.042,ALBUQUERQUE,NM
404,23051,15.9,36.5,186.2,-103.154,36.446,CLAYTON,NM
405,23052,15.6,32.5,227.5,-104.502,36.741,RATON,NM
406,23054,17.7,33.3,246.0,-105.143,35.654,LAS VEGAS,NM
407,23055,17.1,43.5,134.4,-104.809,31.831,GUADALUPE PASS,TX
408,23061,11.3,19.6,352.7,-105.866,37.436,ALAMOSA,CO
409,23064,16.6,32.9,235.5,-100.725,37.927,GARDEN CITY,KS
410,23065,14.8,28.2,273.1,-101.693,39.368,GOODLAND,KS
411,23066,18.0,26.0,363.1,-108.538,39.134,GRAND JUNCTION,CO
412,23067,16.6,32.4,242.3,-103.527,38.051,LA JUNTA,CO
413,23070,16.7,33.8,226.3,-104.341,37.259,TRINIDAD,CO
414,23078,24.9,43.0,222.6,-107.721,32.262,DEMING,NM
415,23081,19.5,29.7,326.1,-108.789,35.511,GALLUP,NM
416,23090,21.8,31.6,334.8,-108.229,36.744,FARMINGTON,NM
417,23091,21.8,52.7,106.1,-102.912,30.915,FORT STOCKTON,TX
418,23129,42.8,54.6,320.0,-118.163,33.828,LONG BEACH,CA
419,23130,35.7,53.1,241.1,-118.489,34.210,VAN NUYS,CA
420,23136,39.2,51.8,305.8,-119.083,34.217,CAMARILLO,CA
421,23152,37.7,53.1,267.0,-118.359,34.201,BURBANK,CA
422,23153,14.5,28.6,262.7,-117.087,38.060,TONOPAH,NV
423,23154,10.5,24.6,259.0,-114.845,39.295,ELY,NV
424,23155,38.0,45.7,381.6,-119.056,35.434,BAKERSFIELD,CA
425,23157,17.2,34.4,225.7,-118.363,37.373,BISHOP,CA
426,23158,31.6,53.4,189.9,-114.717,33.619,BLYTHE,CA
427,23159,11.4,18.7,371.8,-112.146,37.706,BRYCE CANYON,UT
428,23160,32.1,53.8,191.8,-110.955,32.131,TUCSON,AZ
429,23161,27.2,46.6,210.3,-116.787,34.854,DAGGETT,CA
430,23169,26.5,46.1,207.2,-115.155,36.079,LAS VEGAS,NV
431,23174,41.7,54.9,299.6,-118.406,33.938,LOS ANGELES,CA
432,23176,18.3,25.7,374.2,-113.028,38.443,MILFORD,UT
433,23179,31.7,51.8,207.2,-114.623,34.766,NEEDLES,CA
434,23182,28.1,43.2,262.0,-118.084,34.629,PALMDALE,CA
435,23183,36.0,55.9,214.0,-111.990,33.443,PHOENIX,AZ
436,23184,24.3,39.1,262.7,-112.421,34.652,PRESCOTT,AZ
437,23185,19.6,34.3,259.6,-119.771,39.484,RENO,NV
438,23187,22.1,39.7,225.7,-118.724,34.744,SANDBERG,CA
439,23188,44.5,56.6,316.9,-117.169,32.735,SAN DIEGO,CA
440,23190,40.0,51.3,325.5,-119.844,34.426,SANTA BARBARA,CA
441,23191,36.9,52.8,260.2,-118.416,33.405,AVALON,CA
442,23194,21.2,36.9,247.9,-110.722,35.022,WINSLOW,AZ
443,23199,34.8,55.0,209.6,-115.667,32.817,EL CENTRO,CA
444,23213,38.9,43.1,447.6,-122.812,38.509,SANTA ROSA,CA
445,23225,19.6,38.2,211.5,-120.708,39.292,EMIGRANT GAP,CA
446,23230,40.7,47.5,398.9,-122.221,37.755,OAKLAND,CA
447,23232,38.4,44.0,419.8,-121.493,38.513,SACRAMENTO,CA
448,23233,40.0,49.0,361.3,-121.605,36.663,SALINAS,CA
449,23234,42.7,49.0,409.4,-122.398,37.620,SAN FRANCISCO,CA
450,23244,40.6,48.4,381.6,-122.048,37.415,MOUNTAIN VIEW,CA
451,23254,39.4,45.6,409.4,-122.052,37.992,CONCORD,CA
452,23257,38.0,44.3,406.9,-120.513,37.285,MERCED,CA
453,23258,38.7,45.7,394.6,-120.953,37.626,MODESTO,CA
454,23259,40.0,50.3,340.3,-121.845,36.588,MONTEREY,CA
455,23273,39.6,49.6,344.6,-120.465,34.916,SANTA MARIA,CA
456,23275,36.8,43.5,398.9,-123.201,39.126,UKIAH,CA
457,23277,39.7,47.8,376.1,-121.789,36.936,WATSONVILLE,CA
458,23285,36.5,45.4,360.0,-121.817,37.694,LIVERMORE,CA
459,24011,2.6,-0.1,539.4,-100.748,46.774,BISMARCK,ND
460,24012,4.2,9.2,414.9,-102.802,46.797,DICKINSON,ND
461,24013,-0.3,5.1,403.2,-101.281,48.259,MINOT,ND
462,24015,15.3,27.3,294.1,-103.232,40.172,AKRON,CO
463,24017,10.2,20.7,313.8,-103.095,42.838,CHADRON,NE
464,24018,9.6,24.5,247.2,-104.807,41.158,CHEYENNE,WY
465,24021,8.1,21.6,265.1,-108.733,42.817,LANDER,WY
466,24022,10.6,20.1,331.1,-105.674,41.313,LARAMIE,WY
467,24023,12.1,21.8,328.6,-100.668,41.122,NORTH PLATTE,NE
468,24024,9.7,17.2,366.8,-101.601,44.051,PHILIP,SD
469,24025,9.5,12.0,474.7,-100.286,44.383,PIERRE,SD
470,24027,11.4,21.9,314.4,-109.065,41.594,ROCK SPRINGS,WY
471,24028,10.5,23.4,276.2,-103.595,41.874,SCOTTSBLUFF,NE
472,24029,8.8,16.9,354.5,-106.976,44.774,SHERIDAN,WY
473,24030,11.9,22.3,316.9,-102.985,41.101,SIDNEY,NE
474,24032,10.7,18.8,356.3,-100.551,42.859,VALENTINE,NE
475,24033,9.4,19.2,324.9,-108.543,45.808,BILLINGS,MT
476,24036,6.5,15.2,341.6,-109.467,47.049,LEWISTOWN,MT
477,24037,5.8,12.9,371.8,-105.886,46.428,MILES CITY,MT
478,24044,10.8,20.9,320.6,-102.800,42.057,ALLIANCE,NE
479,24046,13.6,20.3,384.7,-107.521,40.495,CRAIG,CO
480,24048,5.4,13.5,352.0,-108.082,44.517,GREYBULL,WY
481,24061,6.9,20.0,270.1,-108.459,43.064,RIVERTON,WY
482,24062,6.0,13.9,356.3,-107.951,43.966,WORLAND,WY
483,24090,9.1,16.8,362.5,-103.054,44.046,RAPID CITY,SD
484,24091,14.1,26.2,291.6,-101.620,40.510,IMPERIAL,NE
485,24110,17.9,22.3,434.6,-119.319,47.208,MOSES LAKE,WA
486,24112,7.8,21.6,260.8,-111.187,47.504,GREAT FALLS,MT
487,24121,15.4,24.3,345.3,-115.792,40.825,ELKO,NV
488,24126,20.5,29.3,350.8,-112.011,41.196,OGDEN,UT
489,24127,20.9,30.0,345.9,-111.968,40.787,SALT LAKE CITY,UT
490,24128,16.5,26.7,323.7,-117.807,40.902,WINNEMUCCA,NV
491,24130,18.8,23.1,437.1,-117.810,44.838,BAKER CITY,OR
492,24131,24.5,31.5,385.9,-116.220,43.565,BOISE,ID
493,24132,9.3,19.1,324.9,-111.152,45.794,BOZEMAN,MT
494,24133,19.8,26.9,381.0,-113.772,42.543,BURLEY,ID
495,24135,7.8,15.6,359.4,-112.513,45.953,BUTTE,MT
496,24137,5.9,13.6,360.0,-112.376,48.608,CUT BANK,MT
497,24138,7.8,16.4,344.6,-112.552,45.255,DILLON,MT
498,24141,16.4,25.8,337.2,-119.514,47.304,EPHRATA,WA
499,24143,8.1,16.5,348.3,-111.382,47.473,GREAT FALLS,MT
500,24144,8.1,20.5,281.8,-111.964,46.606,HELENA,MT
501,24145,15.2,21.3,397.6,-112.067,43.516,IDAHO FALLS,ID
502,24146,13.0,18.8,402.6,-114.264,48.304,KALISPELL,MT
503,24149,23.3,30.4,383.5,-117.014,46.375,LEWISTON,ID
504,24150,8.7,21.2,280.5,-110.448,45.699,LIVINGSTON,MT
505,24152,21.4,25.0,453.7,-118.425,45.511,MEACHAM,OR
506,24153,15.1,21.3,395.8,-114.093,46.921,MISSOULA,MT
507,24154,10.9,15.7,422.3,-115.645,47.457,MULLAN PASS,ID
508,24155,22.7,28.8,402.0,-118.834,45.698,PENDLETON,OR
509,24156,18.0,24.1,399.5,-112.571,42.920,POCATELLO,ID
510,24157,18.4,21.9,454.4,-117.528,47.621,SPOKANE,WA
511,24160,23.9,30.4,395.2,-118.287,46.095,WALLA WALLA,WA
512,24162,22.1,27.8,410.0,-117.013,44.021,ONTARIO,OR
513,24163,22.4,28.1,410.0,-119.118,46.265,PASCO,WA
514,24164,5.8,13.2,365.6,-110.108,42.584,BIG PINEY,WY
515,24172,18.2,30.1,298.4,-118.565,40.066,LOVELOCK,NV
516,24215,24.1,32.1,367.4,-122.333,41.333,MOUNT SHASTA,CA
517,24216,34.2,44.5,336.0,-122.254,40.152,RED BLUFF,CA
518,24217,24.7,33.1,360.7,-122.537,48.794,BELLINGHAM,WA
519,24219,25.7,31.5,409.4,-121.167,45.619,THE DALLES,OR
520,24220,18.0,24.9,383.5,-120.530,47.034,ELLENSBURG,WA
521,24221,35.5,37.6,490.7,-123.214,44.133,EUGENE,OR
522,24225,32.2,36.6,440.8,-122.871,42.389,MEDFORD,OR
523,24227,31.8,35.0,466.1,-122.903,46.973,OLYMPIA,WA
524,24229,32.7,37.5,432.8,-122.600,45.591,PORTLAND,OR
525,24230,19.4,26.8,375.5,-121.150,44.254,REDMOND,OR
526,24231,36.4,40.2,455.0,-123.355,43.239,ROSEBURG,OR
527,24232,34.0,37.1,468.5,-122.995,44.908,SALEM,OR
528,24233,31.4,36.9,418.6,-122.314,47.461,SEATTLE,WA
529,24234,32.8,37.2,440.8,-122.301,47.530,SEATTLE,WA
530,24235,27.7,34.6,389.6,-123.381,42.617,SEXTON SUMMIT,OR
531,24242,31.8,36.6,432.8,-122.400,45.549,PORTLAND,OR
532,24243,18.2,23.8,409.4,-120.534,46.564,YAKIMA,WA
533,24255,30.7,36.2,418.0,-122.650,48.350,WHIDBEY ISLAND,WA
534,24257,33.2,39.8,398.3,-122.313,40.515,REDDING,CA
535,24283,40.1,43.7,459.9,-124.109,40.978,ARCATA/EUREKA,CA
536,24286,39.7,44.3,440.2,-124.237,41.780,CRESCENT CITY,CA
537,25308,22.2,31.0,352.0,-131.570,55.043,ANNETTE,AK
538,25309,17.8,22.3,432.2,-134.575,58.355,JUNEAU,AK
539,25323,11.8,19.2,369.9,-135.520,59.245,HAINES,AK
540,25325,22.5,30.7,362.5,-131.712,55.357,KETCHIKAN,AK
541,25331,5.6,11.2,402.6,-149.092,61.596,PALMER,AK
542,25333,23.1,33.5,326.1,-135.360,57.048,SITKA,AK
543,25335,9.3,21.9,279.3,-135.313,59.460,SKAGWAY,AK
544,25339,19.9,24.5,430.9,-139.628,59.510,YAKUTAT,AK
545,25367,21.6,31.8,328.0,-133.075,55.580,KLAWOCK,AK
546,25501,24.8,30.9,403.2,-152.492,57.750,KODIAK,AK
547,25503,16.8,20.7,445.1,-156.654,58.684,KING SALMON,AK
548,25507,17.8,23.7,403.2,-151.477,59.647,HOMER,AK
549,25516,21.0,25.9,425.4,-151.702,59.443,SELDOVIA,AK
550,25624,28.7,32.2,458.1,-162.722,55.207,COLD BAY,AK
551,25628,26.1,30.7,434.0,-169.565,56.600,ST. GEORGE ISLAND,AK
552,25713,25.7,29.4,453.1,-170.220,57.163,ST PAUL ISLAND,AK
553,26409,9.2,13.4,435.2,-149.855,61.217,ANCHORAGE,AK
554,26410,18.8,21.7,468.5,-145.451,60.489,CORDOVA,AK
555,26438,15.6,23.3,366.8,-149.417,60.128,SEWARD,AK
556,26451,8.7,14.2,406.3,-149.993,61.175,ANCHORAGE,AK
557,26491,9.0,15.5,385.9,-149.961,61.179,ANCHORAGE,AK
558,26492,15.3,18.8,453.1,-148.839,60.785,PORTAGE GLACIER,AK
559,26510,-4.1,-2.1,483.9,-155.603,62.953,MC GRATH,AK
560,26523,8.3,13.6,410.6,-151.239,60.580,KENAI,AK
561,26528,3.5,9.3,397.0,-150.092,62.322,TALKEETNA,AK
562,26617,7.8,12.5,422.9,-165.443,64.513,NOME,AK
563,26643,3.0,6.8,441.4,-162.764,66.069,DEERING,AK
564,27406,-5.0,-2.9,480.9,-148.477,70.192,DEADHORSE,AK
565,27502,-1.7,0.5,479.0,-156.763,71.287,BARROW,AK
566,27503,-1.2,2.3,447.0,-159.995,70.639,WAINWRIGHT,AK
567,27515,-5.5,-3.8,491.3,-151.002,70.212,NUIQSUT,AK
570,53119,38.4,43.2,435.2,-119.629,36.319,HANFORD,CA
571,53121,42.5,52.4,348.3,-117.349,33.219,OCEANSIDE,CA
572,53123,27.1,45.2,224.4,-115.196,36.212,LAS VEGAS,NV
573,53145,13.6,27.6,263.3,-116.264,37.617,NELLIS AIR FORCE BASE,NV
574,53146,25.2,47.7,177.0,-110.428,31.607,FORT HUACHUCA,AZ
575,53147,24.9,38.9,273.8,-115.667,36.583,NELLIS AIR FORCE BASE,NV
576,53802,22.6,29.0,396.4,-88.280,39.478,MATTOON/CHARLESTON,IL
577,53819,38.4,48.0,350.2,-84.567,33.355,ATLANTA,GA
578,53820,45.5,54.1,371.1,-87.044,31.416,EVERGREEN,AL
579,53838,36.3,50.6,279.9,-83.830,34.272,GAINESVILLE,GA
580,53841,26.8,36.0,348.3,-84.903,38.185,FRANKFORT,KY
581,53842,21.4,30.7,342.8,-86.296,39.825,INDIANAPOLIS,IN
582,53843,45.8,56.8,334.2,-86.394,31.309,ANDALUSIA (FT RUCKER),AL
583,53847,45.9,58.9,305.8,-87.023,30.704,MILTON,FL
584,53848,46.7,57.2,342.2,-86.960,30.507,MILTON,FL
585,53850,36.2,48.7,304.6,-82.886,34.672,CLEMSON,SC
586,53852,36.7,44.3,382.9,-86.945,34.653,DECATUR,AL
587,53853,47.9,58.0,349.0,-86.472,30.400,DESTIN,FL
588,53854,44.5,54.2,352.7,-80.858,33.462,ORANGEBURG,SC
589,53855,24.7,33.2,358.8,-84.525,39.364,HAMILTON,OH
590,53858,49.4,56.5,398.9,-88.532,30.464,PASCAGOULA,MS
591,53859,23.3,32.1,352.7,-84.226,39.594,DAYTON,OH
592,53860,50.0,59.8,355.1,-81.515,30.336,JACKSONVILLE,FL
593,53862,49.1,58.6,359.4,-83.574,30.072,PERRY-FOLEY,FL
594,53863,37.8,47.3,351.4,-84.302,33.875,ATLANTA,GA
595,53864,40.7,49.9,358.2,-86.782,33.178,ALABASTER,AL
596,53865,48.3,56.6,377.9,-89.821,30.345,SLIDELL,LA
597,53866,23.2,31.3,365.0,-85.803,39.578,SHELBYVILLE,IN
598,53867,42.1,52.7,337.2,-80.996,33.971,COLUMBIA,SC
599,53868,33.5,41.5,373.6,-84.233,36.023,OAK RIDGE,TN
600,53869,31.7,41.6,340.3,-89.831,35.940,BLYTHEVILLE,AR
601,53870,36.3,47.8,319.4,-81.156,35.197,GASTONIA,NC
602,53871,37.7,47.1,353.3,-81.058,34.987,ROCK HILL,SC
603,53872,38.0,47.9,345.3,-80.621,35.017,MONROE,NC
604,53873,38.2,46.4,373.0,-84.849,34.123,CARTERSVILLE,GA
605,53874,39.1,48.4,355.7,-82.159,34.249,GREENWOOD,SC
606,53879,19.6,30.3,318.1,-94.371,38.960,LEE'S SUMMIT,MO
607,53901,23.7,34.2,324.9,-91.903,36.878,WEST PLAINS,MO
608,53902,43.3,52.8,355.1,-95.414,30.352,CONROE,TX
609,53903,40.4,52.1,319.4,-95.587,30.747,HUNTSVILLE,TX
610,53904,23.2,31.0,370.5,-90.428,38.929,ST CHARLES,MO
611,53905,38.0,47.7,348.3,-93.744,32.540,SHREVEPORT,LA
612,53907,30.2,47.5,236.8,-97.094,32.664,ARLINGTON,TX
613,53908,25.4,39.0,279.9,-95.984,36.039,TULSA,OK
614,53909,28.6,46.6,227.5,-97.318,32.973,FORT WORTH,TX
615,53910,44.5,54.3,351.4,-95.553,30.062,HOUSTON,TX
616,53911,31.8,47.3,260.8,-96.267,32.710,TERRELL,TX
617,53912,34.2,48.5,278.1,-96.398,32.027,CORSICANA,TX
618,53913,23.8,40.8,234.3,-97.416,35.850,GUTHRIE,OK
619,53914,32.0,44.7,298.4,-96.590,33.180,MC KINNEY,TX
620,53915,48.7,56.7,382.9,-91.884,30.038,NEW IBERIA,LA
621,53916,18.6,26.7,361.9,-93.579,39.823,CHILLICOTHE,MO
622,53918,26.6,36.9,330.5,-92.470,36.369,MOUNTAIN HOME,AR
623,53919,35.9,45.7,345.3,-91.751,33.638,MONTICELLO,AR
624,53920,30.2,40.6,331.7,-93.095,35.258,RUSSELLVILLE,AR
625,53921,31.5,41.7,335.4,-93.578,34.547,MOUNT IDA,AR
626,53922,27.1,36.5,345.3,-94.307,36.282,FAYETTEVILLE/SPRINGDALE,AR
627,53925,32.2,44.4,305.8,-94.399,34.047,DE QUEEN,AR
628,53989,17.6,30.7,279.9,-96.926,39.294,FORT RILEY,KS
629,54704,25.7,33.8,366.8,-71.174,42.191,NORWOOD,MA
630,54728,15.4,21.3,402.0,-71.545,44.368,WHITEFIELD,NH
631,54733,24.6,32.5,369.3,-70.918,42.584,BEVERLY,MA
632,54734,24.6,31.5,387.8,-73.483,41.371,DANBURY,CT
633,54737,26.1,34.3,365.0,-76.294,40.120,LANCASTER,PA
634,54740,18.1,25.4,376.1,-72.518,43.344,SPRINGFIELD,VT
635,54742,15.8,22.3,390.3,-72.019,44.419,SAINT JOHNSBURY,VT
636,54743,24.1,34.3,329.8,-74.283,40.876,CALDWELL,NJ
637,54756,20.8,28.4,372.4,-72.291,42.570,ORANGE,MA
638,54757,18.9,25.5,390.3,-77.992,42.109,WELLSVILLE,NY
639,54767,24.9,32.8,369.9,-72.184,41.742,WILLIMANTIC,CT
640,54768,21.5,29.0,374.8,-73.171,42.696,NORTH ADAMS,MA
641,54769,28.4,35.5,386.6,-70.729,41.910,PLYMOUTH,MA
642,54770,20.6,27.5,385.3,-72.004,42.805,JAFFREY,NH
643,54771,15.0,23.3,355.7,-72.614,44.534,MORRISVILLE,VT
644,54772,15.5,23.8,355.7,-70.948,43.991,FRYEBURG,ME
645,54773,20.5,27.9,376.1,-76.385,43.350,FULTON,NY
646,54777,26.2,34.5,363.7,-71.021,41.876,TAUNTON,MA
647,54778,20.4,29.3,349.0,-77.056,42.643,PENN YAN,NY
648,54779,24.1,35.4,312.6,-74.737,41.009,ANDOVER,NJ
649,54780,27.7,39.2,312.6,-71.923,41.073,MONTAUK,NY
650,54781,21.2,27.4,399.5,-73.247,42.891,BENNINGTON,VT
651,54782,26.3,35.8,343.4,-75.557,40.238,POTTSTOWN,PA
652,54785,25.2,34.2,350.8,-74.669,40.624,SOMERVILLE,NJ
653,54786,26.3,34.9,358.2,-75.123,40.330,DOYLESTOWN,PA
654,54787,28.0,36.9,354.5,-73.417,40.734,FARMINGDALE,NY
655,54788,24.6,32.5,369.3,-72.828,41.510,MERIDEN,CT
656,54789,21.5,27.0,413.7,-75.379,41.139,MOUNT POCONO,PA
657,54790,26.3,37.1,321.8,-72.869,40.822,SHIRLEY,NY
658,54791,19.9,28.5,353.9,-70.922,43.278,ROCHESTER,NH
659,54792,21.1,28.7,372.4,-78.412,41.047,CLEARFIELD,PA
660,54793,23.0,31.6,355.7,-74.623,41.200,SUSSEX,NJ
661,63870,46.9,56.6,354.5,-86.312,31.043,FLORALA,AL
662,63872,44.2,54.5,343.4,-85.129,31.951,EUFAULA,AL
663,63874,44.0,53.6,353.9,-86.611,31.846,GREENVILLE,AL
664,63890,49.4,58.3,368.7,-81.883,30.350,JACKSONVILLE,FL
665,64775,20.5,28.1,372.4,-75.412,43.234,ROME,NY
666,64776,15.3,24.0,348.3,-73.468,44.651,PLATTSBURG,NY
667,92762,24.7,34.5,336.6,-77.430,39.734,SITE R,PA
668,92805,61.0,69.7,379.2,-80.108,26.250,POMPANO BEACH,FL
669,92806,57.0,65.9,373.6,-82.628,27.765,ST PETERSBURG,FL
670,92809,60.3,70.4,357.6,-80.241,25.999,HOLLYWOOD,FL
671,93005,17.0,24.1,379.2,-107.760,37.143,DURANGO,CO
672,93009,7.8,16.3,346.5,-106.316,39.228,LEADVILLE,CO
673,93010,14.4,26.4,293.5,-103.716,39.189,LIMON,CO
674,93013,18.9,27.4,355.1,-107.898,38.505,MONTROSE,CO
675,93026,28.2,48.0,207.2,-109.604,31.469,DOUGLAS BISBEE,AZ
676,93027,21.1,35.3,267.6,-109.379,34.518,ST JOHNS,AZ
677,93033,18.5,45.5,130.7,-104.263,32.338,CARLSBAD,NM
678,93037,13.0,30.2,221.4,-104.711,38.812,COLORADO SPRINGS,CO
679,93042,16.9,37.3,189.3,-102.547,36.023,DALHART,TX
680,93045,20.6,43.2,170.8,-107.268,33.237,TRUTH OR CONSEQUENCES,NM
681,93057,18.9,26.9,363.7,-107.902,35.165,GRANTS,NM
682,93058,13.7,30.4,228.1,-104.498,38.290,PUEBLO,CO
683,93067,13.0,28.9,237.4,-104.849,39.570,DENVER,CO
684,93069,18.6,28.1,337.2,-108.628,37.303,CORTEZ,CO
685,93073,13.9,19.5,406.9,-106.868,39.223,ASPEN,CO
686,93075,16.5,25.2,349.6,-109.754,38.755,MOAB,UT
687,93084,29.1,47.0,228.8,-109.635,32.855,SAFFORD,AZ
688,93102,20.3,32.4,297.2,-118.700,39.417,FALLON,NV
689,93104,27.0,43.3,246.0,-117.683,35.683,CHINA LAKE,CA
690,93107,42.3,55.0,307.0,-117.150,32.867,MIRAMAR,CA
691,93110,40.9,52.5,321.2,-119.206,34.201,OXNARD,CA
692,93111,42.4,50.8,372.4,-119.117,34.117,POINT MUGU,CA
693,93112,44.7,60.2,271.9,-117.200,32.700,SAN DIEGO,CA
694,93115,43.9,54.4,340.3,-117.117,32.567,IMPERIAL BEACH,CA
695,93116,44.4,56.4,318.7,-119.458,33.240,SAN NICOLAS ISLAND,CA
696,93129,17.7,27.2,336.6,-113.097,37.702,CEDAR CITY,UT
697,93134,40.2,57.2,249.7,-118.296,34.028,LOS ANGELES,CA
698,93138,31.2,55.0,170.8,-116.505,33.828,PALM SPRINGS,CA
699,93141,12.7,23.4,312.6,-110.750,39.545,PRICE,UT
700,93167,27.5,41.5,276.2,-113.937,35.259,KINGMAN,AZ
701,93184,43.0,55.1,315.7,-117.866,33.680,SANTA ANA,CA
702,93193,37.6,44.9,388.4,-119.719,36.780,FRESNO,CA
703,93197,39.9,55.0,273.1,-118.451,34.016,SANTA MONICA,CA
704,93205,37.4,43.1,417.4,-121.570,39.098,MARYSVILLE,CA
705,93206,40.9,52.3,324.3,-120.641,35.237,SAN LUIS OBISPO,CA
706,93209,35.6,45.5,343.4,-120.627,35.673,PASO ROBLES,CA
707,93210,37.7,43.4,418.0,-121.618,39.490,OROVILLE,CA
708,93225,38.3,43.2,433.4,-121.590,38.696,SACRAMENTO,CA
709,93227,38.9,42.7,455.6,-122.280,38.213,NAPA,CA
710,93228,40.0,48.2,374.2,-122.121,37.659,HAYWARD,CA
711,93230,17.3,29.8,288.5,-119.995,38.894,SOUTH LAKE TAHOE,CA
712,93241,37.9,46.2,371.1,-121.961,38.377,VACAVILLE,CA
713,93242,38.9,43.7,435.9,-120.111,36.988,MADERA,CA
714,93706,24.2,35.6,311.4,-77.730,39.708,HAGERSTOWN,MD
715,93718,45.3,53.5,377.9,-78.721,33.816,NORTH MYRTLE BEACH,SC
716,93719,43.0,50.1,395.2,-77.047,35.068,NEW BERN,NC
717,93720,33.1,42.3,353.3,-75.510,38.341,SALISBURY,MD
718,93721,27.2,38.5,315.0,-76.684,39.172,BALTIMORE,MD
719,93727,43.0,50.3,391.5,-77.433,34.700,NEW RIVER,NC
720,93729,44.9,52.7,384.1,-75.623,35.232,CAPE HATTERAS,NC
721,93730,30.3,40.1,340.9,-74.457,39.458,ATLANTIC CITY,NJ
722,93736,27.4,39.2,307.7,-78.453,38.139,CHARLOTTESVILLE,VA
723,93738,27.1,38.3,316.3,-77.448,38.935,WASHINGTON,DC
724,93739,34.4,43.9,349.0,-75.496,37.941,WALLOPS ISLAND,VA
725,93741,35.4,47.3,312.6,-76.493,37.132,NEWPORT NEWS,VA
726,93743,44.7,50.6,417.4,-77.030,34.691,SWANSBORO,NC
727,93759,37.7,46.5,362.5,-77.893,35.855,ROCKY MOUNT,NC
728,93765,44.4,50.9,406.3,-76.661,34.734,BEAUFORT,NC
729,93773,35.3,46.9,316.9,-77.007,36.984,WAKEFIELD,VA
730,93775,32.1,44.0,310.1,-77.434,37.708,RICHMOND/ASHLAND,VA
731,93778,25.1,34.0,352.7,-76.874,39.918,YORK,PA
732,93780,27.8,37.7,337.9,-74.841,39.941,MOUNT HOLLY,NJ
733,93781,35.5,46.8,321.8,-77.710,36.439,ROANOKE RAPIDS,NC
734,93782,40.6,49.6,361.3,-79.366,34.792,MAXTON,NC
735,93783,33.0,44.5,316.9,-79.477,36.047,BURLINGTON,NC
736,93784,26.2,40.2,275.0,-76.610,39.281,BALTIMORE,MD
737,93785,34.1,47.8,286.1,-79.064,35.933,CHAPEL HILL,NC
738,93786,32.8,46.1,290.4,-75.124,38.308,OCEAN CITY,MD
739,93801,35.6,46.1,334.2,-85.161,34.348,ROME,GA
740,93805,47.5,56.6,364.4,-84.353,30.393,TALLAHASSEE,FL
741,93806,38.8,49.6,331.7,-87.616,33.212,TUSCALOOSA,AL
742,93807,29.6,43.5,279.3,-80.222,36.134,WINSTON SALEM,NC
743,93808,29.0,39.4,330.5,-86.436,36.981,BOWLING GREEN,KY
744,93810,26.4,35.0,358.2,-89.250,37.780,CARBONDALE/MURPHYBORO,IL
745,93812,25.9,35.5,340.9,-84.419,39.103,CINCINNATI,OH
746,93814,25.6,33.9,363.1,-84.672,39.043,COVINGTON,KY
747,93815,22.2,30.6,358.8,-84.219,39.906,DAYTON,OH
748,93819,22.3,30.7,358.8,-86.272,39.710,INDIANAPOLIS,IN
749,93820,27.0,35.8,355.7,-84.606,38.041,LEXINGTON,KY
750,93821,26.7,38.0,314.4,-85.730,38.177,LOUISVILLE,KY
751,93822,21.5,28.5,384.1,-89.684,39.845,SPRINGFIELD,IL
752,93824,24.6,34.1,341.6,-81.892,39.944,ZANESVILLE,OH
753,93831,46.8,56.1,360.7,-80.717,32.483,BEAUFORT,SC
754,93837,51.3,60.9,358.8,-81.683,30.233,JACKSONVILLE,FL
755,93841,46.3,56.9,340.3,-87.022,30.724,MILTON,FL
756,93842,40.3,52.4,313.8,-84.942,32.516,COLUMBUS,GA
757,93845,46.3,56.6,344.6,-83.277,30.783,VALDOSTA,GA
758,93846,37.0,47.1,341.6,-82.709,34.495,ANDERSON,SC
759,93862,36.1,44.8,363.1,-88.771,34.261,TUPELO,MS
760,93909,20.3,29.8,338.5,-94.890,38.831,OLATHE,KS
761,93915,43.5,51.9,373.0,-92.559,31.335,ALEXANDRIA,LA
762,93919,44.0,53.2,360.7,-90.472,31.178,MCCOMB,MS
763,93950,27.9,41.4,283.6,-95.783,34.899,MC ALESTER,OK
764,93953,26.7,38.6,305.8,-95.361,35.657,MUSKOGEE,OK
765,93967,24.0,35.8,304.6,-95.566,37.091,COFFEYVILLE,KS
766,93985,27.0,45.2,223.2,-98.061,32.782,MINERAL WELLS,TX
767,93987,39.8,50.8,329.8,-94.750,31.234,LUFKIN,TX
768,93988,34.4,44.8,334.8,-91.935,34.175,PINE BLUFF,AR
769,93989,19.0,26.3,376.7,-91.194,39.943,QUINCY,IL
770,93990,15.2,29.4,262.0,-99.830,39.376,HILL CITY,KS
771,93992,37.5,46.2,364.4,-92.813,33.221,EL DORADO,AR
772,93993,26.7,37.2,327.4,-94.170,36.005,FAYETTEVILLE,AR
773,93997,16.9,29.0,294.1,-98.828,38.872,RUSSELL,KS
774,94008,4.2,7.2,461.1,-106.621,48.214,GLASGOW,MT
775,94012,5.5,11.2,400.1,-109.780,48.559,HAVRE,MT
776,94014,1.3,5.3,435.9,-103.642,48.195,WILLISTON,ND
777,94017,1.1,5.6,424.2,-105.574,48.094,WOLF POINT,MT
778,94030,11.8,19.9,357.0,-109.509,40.441,VERNAL,UT
779,94032,8.1,18.6,312.0,-103.628,43.731,CUSTER,SD
780,94037,6.5,13.2,380.4,-103.546,45.604,BUFFALO,SD
781,94038,5.4,10.3,417.4,-102.655,46.014,HETTINGER,ND
782,94039,10.2,19.3,337.9,-102.518,43.021,PINE RIDGE,SD
783,94040,13.5,26.7,274.4,-100.591,40.206,MC COOK,NE
784,94041,1.0,5.4,426.6,-101.439,47.663,GARRISON,ND
785,94050,15.4,24.4,343.4,-107.885,40.049,MEEKER,CO
786,94051,4.5,10.5,393.3,-106.948,47.326,JORDAN,MT
787,94052,6.5,11.7,411.8,-100.408,45.546,MOBRIDGE,SD
788,94053,9.8,23.6,262.7,-104.153,42.065,TORRINGTON,WY
789,94055,5.3,10.4,413.1,-104.250,46.358,BAKER,MT
790,94056,7.1,13.8,380.4,-102.019,45.032,FAITH,SD
791,94107,19.3,28.3,346.5,-117.864,42.591,ROME,OR
792,94119,16.5,21.5,421.1,-117.421,47.969,DEER PARK,WA
793,94128,18.5,23.9,413.7,-111.853,41.787,LOGAN,UT
794,94129,21.4,26.9,413.1,-117.109,46.744,PULLMAN/MOSCOW,WA
795,94173,6.6,11.1,427.2,-110.421,44.544,YELLOWSTONE,WY
796,94176,21.3,26.2,425.4,-117.321,47.683,SPOKANE,WA
797,94178,19.5,29.5,329.8,-114.487,42.482,TWIN FALLS,ID
798,94182,16.9,19.6,472.2,-116.102,44.889,MCCALL,ID
799,94185,18.1,22.5,434.6,-118.954,43.592,BURNS,OR
800,94194,14.7,20.1,411.8,-111.881,43.834,REXBURG,ID
801,94197,15.4,21.8,392.1,-119.517,48.464,OMAK,WA
802,94224,35.9,40.1,446.3,-123.878,46.158,ASTORIA,OR
803,94225,35.0,39.0,450.0,-123.937,46.971,HOQUIAM,WA
804,94227,31.3,34.6,463.6,-123.148,47.238,SHELTON,WA
805,94236,21.3,26.6,417.4,-121.724,42.147,KLAMATH FALLS,OR
806,94239,17.5,22.6,419.2,-120.207,47.399,WENATCHEE,WA
807,94240,32.9,37.0,447.0,-124.561,47.934,QUILLAYUTE,WA
808,94248,31.5,37.5,408.7,-122.214,47.493,RENTON,WA
809,94266,30.2,34.9,434.0,-123.498,48.120,PORT ANGELES,WA
810,94273,32.9,35.8,472.8,-123.134,45.195,MC MINNVILLE,OR
811,94274,32.3,37.4,426.6,-122.576,47.268,TACOMA,WA
812,94276,29.8,35.1,421.7,-123.023,48.522,FRIDAY HARBOR,WA
813,94281,33.2,37.0,453.7,-122.769,45.249,AURORA,OR
814,94298,32.4,38.4,409.4,-122.657,45.621,VANCOUVER,WA
815,94299,19.7,26.2,392.7,-120.567,41.483,ALTURAS,CA
816,94623,18.9,26.6,369.3,-69.712,43.964,WISCASSET,ME
817,94624,30.7,37.5,393.3,-69.993,41.688,CHATHAM,MA
818,94626,11.8,18.7,379.8,-69.595,45.462,GREENVILLE,ME
819,94700,13.5,19.7,394.6,-71.179,44.576,BERLIN,NH
820,94702,26.2,35.5,346.5,-73.146,41.175,BRIDGEPORT,CT
821,94704,21.6,30.4,351.4,-77.713,42.571,DANSVILLE,NY
822,94705,15.4,23.7,355.7,-72.579,44.203,BARRE/MONTPELIER,VT
823,94720,29.4,38.1,358.8,-70.280,41.669,HYANNIS,MA
824,94723,21.6,31.6,331.1,-71.124,42.717,LAWRENCE,MA
825,94724,30.5,38.2,376.7,-70.615,41.393,VINEYARD HAVEN,MA
826,94725,15.5,21.1,408.1,-74.846,44.936,MASSENA,NY
827,94726,28.3,35.1,392.1,-70.958,41.676,NEW BEDFORD,MA
828,94728,25.6,38.1,295.9,-73.967,40.783,NEW YORK,NY
829,94732,25.8,39.8,275.0,-75.011,40.082,PHILADELPHIA,PA
830,94740,14.5,18.9,432.8,-74.207,44.385,SARANAC LAKE,NY
831,94741,25.3,36.5,315.0,-74.061,40.850,TETERBORO,NJ
832,94745,24.1,34.3,329.8,-73.708,41.067,WHITE PLAINS,NY
833,94746,22.2,29.7,375.5,-71.876,42.267,WORCESTER,MA
834,94765,19.0,26.7,369.3,-72.305,43.626,LEBANON,NH
835,94789,26.0,38.3,299.0,-73.796,40.655,NEW YORK,NY
836,94790,18.5,24.8,395.8,-76.022,43.992,WATERTOWN,NY
837,94814,16.4,20.2,447.0,-84.691,44.368,HOUGHTON LAKE,MI
838,94815,18.9,25.7,386.6,-85.552,42.235,KALAMAZOO,MI
839,94818,15.7,21.9,395.8,-87.814,42.761,RACINE,WI
840,94822,14.6,19.5,422.3,-89.093,42.196,ROCKFORD,IL
841,94823,23.7,33.0,344.6,-80.231,40.501,PITTSBURGH,PA
842,94830,20.8,27.7,385.3,-83.801,41.589,TOLEDO,OH
843,94846,16.2,22.9,386.6,-87.914,41.986,CHICAGO,IL
844,94847,19.4,27.5,362.5,-83.349,42.215,DETROIT,MI
845,94849,15.5,20.2,427.2,-83.581,45.072,ALPENA,MI
846,94855,10.0,15.8,400.7,-88.557,43.984,OSHKOSH,WI
847,94860,19.9,26.2,396.4,-85.523,42.882,GRAND RAPIDS,MI
848,94870,21.2,26.0,427.9,-88.278,40.040,CHAMPAIGN/URBANA,IL
849,94871,20.9,27.6,389.6,-86.422,42.129,BENTON HARBOR,MI
850,94889,19.0,25.9,384.7,-83.744,42.223,ANN ARBOR,MI
851,94893,7.6,13.1,405.7,-88.114,45.818,IRON MOUNTAIN/KINGSFORD,MI
852,94895,21.7,29.5,369.3,-85.394,40.234,MUNCIE,IN
853,94898,18.1,28.2,326.8,-82.793,44.022,HARBOR BEACH,MI
854,94899,13.0,19.8,382.2,-87.875,47.467,COPPER HARBOR,MI
855,94908,12.2,16.1,443.3,-90.704,42.398,DUBUQUE,IA
856,94910,10.8,14.9,437.7,-92.401,42.554,WATERLOO,IA
857,94929,6.3,10.7,429.1,-90.919,46.549,ASHLAND,WI
858,94938,1.5,7.1,400.1,-94.131,46.405,BRAINERD,MN
859,94943,8.7,16.3,364.4,-99.318,43.767,CHAMBERLAIN,SD
860,94946,12.2,20.7,350.2,-99.639,41.437,BROKEN BOW,NE
861,94949,13.8,23.0,338.5,-98.427,40.604,HASTINGS,NE
862,94950,8.9,15.9,376.1,-98.038,43.777,MITCHELL,SD
863,94957,16.9,25.3,355.1,-95.592,40.079,FALLS CITY,NE
864,94958,11.7,19.0,371.8,-98.952,41.624,ORD,NE
865,94960,7.0,12.9,397.0,-93.351,45.063,MINNEAPOLIS,MN
866,94961,-3.3,0.8,431.5,-94.610,48.728,BAUDETTE,MN
867,94963,6.2,12.6,385.9,-93.470,44.832,MINNEAPOLIS,MN
868,94967,-0.8,2.6,449.4,-95.068,46.901,PARK RAPIDS,MN
869,94971,7.9,13.0,414.3,-94.746,43.408,ESTHERVILLE,IA
870,94973,4.4,8.6,432.8,-91.444,46.026,HAYWARD,WI
871,94978,11.7,18.4,383.5,-96.178,41.764,TEKAMAH,NE
872,94982,14.9,19.8,422.3,-90.591,41.614,DAVENPORT,IA
873,94985,7.6,10.9,455.0,-90.189,44.637,MARSHFIELD,WI
874,94988,10.9,15.7,422.3,-92.918,42.113,MARSHALLTOWN,IA
875,94989,12.2,17.5,412.4,-93.622,41.992,AMES,IA
876,94990,10.8,20.0,336.0,-99.842,43.390,WINNER,SD
877,94991,14.5,21.9,371.8,-93.902,40.633,LAMONI,IA
878,94992,4.7,13.2,344.0,-90.344,47.747,GRAND MARAIS,MN
879,94993,3.7,9.5,397.0,-96.991,45.669,SISSETON,SD
880,94994,10.3,15.9,405.0,-90.678,43.156,BOSCOBEL,WI
