,wban,dewpt,tavg,wp,long,lat,stname,ststate
0,03013,47.9,64.9,257.1,-102.688,38.070,LAMAR,CO
1,03016,36.4,63.3,149.9,-107.726,39.526,RIFLE,CO
2,03017,41.1,63.5,193.6,-104.658,39.833,DENVER,CO
3,03024,51.9,69.3,255.9,-101.394,35.700,BORGER,TX
4,03026,48.4,61.5,306.4,-102.284,39.245,BURLINGTON,CO
5,03027,41.5,60.3,230.6,-105.663,35.003,CLINES CORNERS,NM
6,03028,47.9,64.8,258.3,-102.614,37.283,SPRINGFIELD,CO
7,03029,36.2,59.3,182.5,-109.061,35.658,WINDOW ROCK,AZ
8,03030,49.8,68.3,241.7,-101.505,36.682,GUYMON,OK
9,03031,55.4,72.0,268.2,-102.387,31.921,ODESSA,TX
10,03032,59.1,76.6,261.4,-102.213,30.048,DRYDEN,TX
11,03102,52.4,79.8,162.2,-117.600,34.056,ONTARIO,CA
12,03103,35.9,59.0,181.9,-111.672,35.140,FLAGSTAFF,AZ
13,03104,48.8,85.4,97.5,-116.160,33.628,PALM SPRINGS,CA
14,03124,46.2,74.9,146.2,-110.344,31.588,FORT HUACHUCA/SIERRA VISTA,AZ
15,03131,60.5,75.0,297.8,-117.139,32.816,SAN DIEGO,CA
16,03144,47.4,89.5,68.5,-115.579,32.834,IMPERIAL,CA
17,03145,50.8,90.6,82.7,-114.617,32.650,YUMA,AZ
18,03159,35.3,73.6,75.9,-118.219,34.741,LANCASTER,CA
19,03160,27.4,79.2,15.5,-116.028,36.621,MERCURY,NV
20,03162,35.3,75.2,67.9,-111.448,36.926,PAGE,AZ
21,03166,58.4,77.0,248.5,-117.979,33.872,FULLERTON,CA
22,03167,60.4,73.6,314.4,-118.334,33.923,HAWTHORNE,CA
23,03170,25.9,62.4,76.5,-116.006,39.601,EUREKA,NV
24,03171,52.8,79.5,167.7,-117.439,33.952,RIVERSIDE,CA
25,03177,61.8,69.5,395.2,-117.279,33.128,CARLSBAD,CA
26,03178,60.1,72.5,324.9,-116.979,32.572,SAN DIEGO,CA
27,03179,55.0,77.8,203.5,-117.636,33.975,CHINO,CA
28,03184,42.4,87.2,52.5,-112.082,33.688,PHOENIX,AZ
29,03192,47.5,87.6,78.4,-111.911,33.623,SCOTTSDALE,AZ
30,03195,32.8,59.0,151.7,-112.155,35.946,GRAND CANYON,AZ
31,03749,53.5,62.8,365.0,-77.468,39.645,CAMP DAVID,MD
32,03757,60.0,68.8,376.7,-76.429,38.142,ST INIGOES,MD
33,03802,55.2,65.1,357.0,-80.229,39.296,CLARKSBURG,WV
34,03810,60.8,69.2,383.5,-81.390,35.741,HICKORY,NC
35,03811,65.4,72.8,402.0,-88.917,35.593,JACKSON,TN
36,03812,59.7,66.9,402.6,-82.538,35.432,ASHEVILLE,NC
37,03813,66.7,75.4,382.2,-83.654,32.688,MACON,GA
38,03816,62.5,71.2,379.8,-88.774,37.056,PADUCAH,KY
39,03818,69.9,78.3,389.0,-85.184,30.836,MARIANNA,FL
40,03820,64.5,75.1,352.7,-81.965,33.370,AUGUSTA,GA
41,03822,67.3,77.1,366.2,-81.202,32.119,SAVANNAH,GA
42,03847,61.7,68.8,405.0,-85.085,35.951,CROSSVILLE,TN
43,03849,61.8,68.8,406.9,-84.077,37.087,LONDON,KY
44,03853,69.4,80.3,352.0,-81.417,30.400,MAYPORT,FL
45,03855,72.6,80.3,401.3,-87.317,30.350,PENSACOLA,FL
46,03856,65.2,74.2,376.7,-86.786,34.644,HUNTSVILLE,AL
47,03859,55.2,65.3,353.9,-81.208,37.296,BLUEFIELD,WV
48,03860,59.1,67.8,377.9,-82.555,38.382,HUNTINGTON,WV
49,03866,67.8,76.3,385.9,-88.567,32.550,MERIDIAN,MS
50,03868,55.9,65.9,356.3,-87.309,39.452,TERRE HAUTE,IN
51,03870,61.4,71.9,352.0,-82.219,34.899,GREER,SC
52,03872,55.5,62.8,398.3,-81.125,37.795,BECKLEY,WV
53,03878,69.1,76.6,402.6,-86.012,31.861,TROY,AL
54,03882,72.0,71.0,539.4,-85.683,30.212,PANAMA CITY,FL
55,03887,56.7,65.2,379.8,-88.866,39.984,DECATUR,IL
56,03888,63.7,73.0,371.8,-84.521,33.779,ATLANTA,GA
57,03889,60.0,68.3,384.7,-83.314,37.591,JACKSON,KY
58,03893,55.6,65.8,352.7,-86.617,39.144,BLOOMINGTON,IN
59,03894,63.5,71.1,397.6,-87.415,36.622,CLARKSVILLE,TN
60,03901,66.7,75.3,384.1,-94.711,32.385,LONGVIEW,TX
61,03902,47.9,76.4,149.2,-97.822,31.070,FORT HOOD/KILLEEN,TX
62,03904,65.9,78.7,323.7,-96.364,30.588,COLLEGE STATION,TX
63,03919,56.5,66.7,353.3,-97.661,38.813,SALINA,KS
64,03927,62.6,76.2,310.7,-97.041,32.896,DALLAS-FORT WORTH,TX
65,03928,57.6,68.5,344.0,-97.429,37.647,WICHITA,KS
66,03931,68.0,77.4,372.4,-93.192,31.045,FORT POLK,LA
67,03932,56.7,71.8,287.3,-99.200,35.340,CLINTON,OK
68,03935,60.9,70.3,368.1,-89.571,37.225,CAPE GIRARDEAU,MO
69,03936,56.2,64.8,377.9,-96.678,39.135,MANHATTAN,KS
70,03937,70.2,78.6,389.0,-93.228,30.125,LAKE CHARLES,LA
71,03940,68.6,77.2,385.3,-90.078,32.320,JACKSON,MS
72,03945,56.9,66.5,362.5,-92.218,38.817,COLUMBIA,MO
73,03949,68.0,76.8,381.6,-93.283,31.400,FORT POLK,LA
74,03953,64.4,72.9,384.1,-90.646,35.831,JONESBORO,AR
75,03954,59.8,71.1,339.7,-97.647,35.534,OKLAHOMA CITY,OK
76,03957,56.0,69.1,312.6,-98.553,37.284,MEDICINE LODGE,KS
77,03959,58.8,69.2,352.0,-96.011,36.762,BARTLESVILLE,OK
78,03960,58.3,67.1,376.1,-90.157,38.571,CAHOKIA/ST.LOUIS,IL
79,03962,64.0,73.4,369.9,-93.096,34.478,HOT SPRINGS,AR
80,03963,57.7,67.7,357.0,-92.156,38.591,JEFFERSON CITY,MO
81,03965,60.4,71.3,345.9,-97.086,36.160,STILLWATER,OK
82,03966,59.0,67.8,376.1,-90.656,38.657,ST LOUIS,MO
83,03967,56.6,66.6,356.3,-94.739,38.850,OLATHE,KS
84,03971,63.7,76.4,323.7,-96.868,32.681,DALLAS,TX
85,03974,56.8,67.3,349.0,-97.219,37.750,WICHITA,KS
86,03975,61.4,71.3,361.3,-90.325,36.773,POPLAR BLUFF,MO
87,03981,58.1,74.1,277.4,-98.984,34.352,FREDERICK,OK
88,03991,63.1,74.1,346.5,-97.199,33.206,DENTON,TX
89,03994,57.1,67.6,349.6,-93.183,38.704,SEDALIA,MO
90,03997,56.6,65.7,370.5,-95.212,39.008,LAWRENCE,KS
91,03998,58.6,67.5,374.8,-95.504,37.328,PARSONS,KS
92,03999,63.9,73.2,371.8,-98.235,30.741,BURNET,TX
93,04109,50.5,64.9,291.0,-115.596,46.144,ELK CITY,ID
94,04110,37.9,65.6,145.5,-114.456,42.727,JEROME,ID
95,04111,30.3,59.4,127.0,-111.031,41.273,EVANSTON,WY
96,04112,30.5,52.6,186.2,-114.927,44.171,STANLEY,ID
97,04113,44.0,64.7,213.3,-119.261,45.826,HERMISTON,OR
98,04114,33.4,61.8,135.7,-114.215,41.523,CHALLIS,ID
99,04201,50.5,62.6,321.8,-122.861,45.773,SCAPPOOSE,OR
100,04724,53.4,62.3,371.1,-78.945,43.107,NIAGARA FALLS,NY
101,04725,50.8,58.6,387.8,-75.981,42.208,BINGHAMTON,NY
102,04726,51.5,59.6,382.9,-78.834,40.301,JOHNSTOWN,PA
103,04751,50.3,56.0,423.5,-78.640,41.803,BRADFORD,PA
104,04780,51.1,60.7,358.8,-71.756,42.552,FITCHBURG,MA
105,04781,52.7,64.4,329.2,-73.102,40.794,ISLIP,NY
106,04787,52.1,60.4,380.4,-78.899,41.178,DU BOIS,PA
107,04789,52.6,61.2,375.5,-74.265,41.509,MONTGOMERY,NY
108,04803,50.2,59.5,363.1,-89.465,45.631,RHINELANDER,WI
109,04804,56.2,64.9,376.1,-83.078,40.078,COLUMBUS,OH
110,04808,55.0,62.9,388.4,-88.481,41.770,CHICAGO/AURORA,IL
111,04836,46.5,53.3,402.6,-68.307,47.286,FRENCHVILLE,ME
112,04838,55.0,63.8,374.2,-87.905,42.121,CHICAGO/PROSPECT HGTS/WHEELI,IL
113,04839,54.1,63.5,363.7,-86.097,42.746,HOLLAND,MI
114,04840,52.0,61.9,355.1,-88.486,43.770,FOND DU LAC,WI
115,04841,53.2,60.6,395.8,-87.851,43.769,SHEBOYGAN,WI
116,04842,55.2,62.7,395.2,-81.887,40.875,WOOSTER,OH
117,04843,53.3,61.9,376.1,-80.215,41.626,MEADVILLE,PA
118,04845,54.7,61.7,403.2,-87.938,42.595,KENOSHA,WI
119,04846,55.7,63.9,384.1,-87.006,41.453,VALPARAISO,IN
120,04847,55.3,63.3,387.2,-84.079,41.868,ADRIAN,MI
121,04848,56.0,64.5,379.2,-83.476,41.563,TOLEDO,OH
122,04849,55.3,63.9,377.3,-82.179,41.179,LORAIN/ELYRIA,OH
123,04850,53.6,64.2,345.3,-84.027,40.708,LIMA,OH
124,04851,54.6,64.1,362.5,-84.429,41.338,DEFIANCE,OH
125,04852,54.4,64.5,353.3,-81.420,40.470,NEW PHILADELPHIA,OH
126,04853,56.1,66.2,354.5,-81.684,41.518,CLEVELAND,OH
127,04854,50.0,58.7,372.4,-84.701,45.013,GAYLORD,MI
128,04857,53.8,61.2,395.8,-80.696,41.778,ASHTABULA,OH
129,04858,55.4,63.8,380.4,-82.463,40.023,NEWARK,OH
133,12812,74.0,82.9,383.5,-81.991,26.917,PUNTA GORDA,FL
134,12815,70.7,81.5,353.9,-81.325,28.434,ORLANDO,FL
135,12816,70.6,78.6,395.2,-82.272,29.690,GAINESVILLE,FL
136,12818,72.2,80.6,390.3,-82.454,28.474,BROOKSVILLE,FL
137,12819,71.8,82.2,360.7,-81.810,28.821,LEESBURG,FL
138,12832,73.0,80.0,412.4,-85.033,29.733,APALACHICOLA,FL
139,12833,70.6,79.2,385.9,-83.105,29.550,CROSS CITY,FL
140,12834,72.6,80.5,397.6,-81.060,29.177,DAYTONA BEACH,FL
141,12835,73.1,82.8,371.1,-81.864,26.586,FORT MYERS,FL
142,12836,75.1,84.7,374.2,-81.754,24.553,KEY WEST,FL
143,12838,72.7,81.3,387.2,-80.646,28.103,MELBOURNE,FL
144,12839,74.5,83.9,376.7,-80.300,25.824,MIAMI,FL
145,12841,71.6,82.0,360.7,-81.333,28.545,ORLANDO,FL
146,12842,72.6,82.6,366.8,-82.540,27.961,TAMPA,FL
147,12843,73.4,80.8,406.3,-80.418,27.656,VERO BEACH,FL
148,12844,72.5,82.4,368.1,-80.099,26.685,WEST PALM BEACH,FL
149,12849,74.4,81.2,416.1,-80.154,26.072,FORT LAUDERDALE,FL
150,12850,75.5,84.8,378.5,-81.683,24.583,KEY WEST,FL
151,12854,71.4,81.4,366.2,-81.244,28.780,ORLANDO,FL
152,12871,71.2,82.3,350.2,-82.559,27.401,SARASOTA/BRADENTON,FL
153,12873,73.0,83.1,365.6,-82.688,27.911,ST PETERSBURG/CLEARWATER,FL
154,12876,71.2,82.3,350.2,-81.754,28.062,WINTER HAVEN,FL
155,12882,75.0,82.8,400.7,-80.280,25.907,MIAMI,FL
156,12884,74.0,81.3,408.1,-89.408,29.350,BOOTHVILLE,LA
157,12885,73.1,82.6,374.2,-80.171,26.197,FORT LAUDERDALE,FL
158,12888,74.3,83.5,379.2,-80.433,25.648,MIAMI,FL
159,12894,73.1,82.6,374.2,-81.755,26.536,FORT MYERS,FL
160,12895,73.2,81.1,398.3,-80.377,27.498,FORT PIERCE,FL
161,12896,74.5,84.2,372.4,-81.052,24.726,MARATHON,FL
162,12897,75.5,82.8,408.7,-81.775,26.153,NAPLES,FL
163,12904,72.9,81.2,392.1,-97.654,26.228,HARLINGEN,TX
164,12912,71.1,79.9,383.5,-96.930,28.863,VICTORIA,TX
165,12916,70.2,81.0,353.9,-90.251,29.993,NEW ORLEANS,LA
166,12917,70.2,78.1,396.4,-94.021,29.951,BEAUMONT/PORT ARTHUR,TX
167,12918,68.9,80.0,349.0,-95.279,29.645,HOUSTON,TX
168,12919,72.1,82.1,366.2,-97.426,25.906,BROWNSVILLE,TX
169,12921,65.6,78.5,322.4,-98.464,29.533,SAN ANTONIO,TX
170,12924,72.1,81.3,377.9,-97.513,27.773,CORPUS CHRISTI,TX
171,12928,71.0,80.5,373.0,-97.817,27.500,KINGSVILLE,TX
172,12935,71.7,79.5,398.9,-96.251,28.728,PALACIOS,TX
173,12947,67.6,79.7,334.2,-99.220,28.458,COTULLA,TX
174,12957,72.9,81.8,382.9,-97.346,26.166,PORT ISABEL,TX
175,12958,70.8,79.6,383.5,-90.033,29.833,NEW ORLEANS,LA
176,12959,70.8,85.2,307.0,-98.238,26.175,MC ALLEN,TX
177,12960,70.0,79.0,379.8,-95.364,29.993,HOUSTON,TX
178,12970,66.6,79.5,323.1,-98.471,29.337,SAN ANTONIO,TX
179,12971,66.3,78.7,329.2,-98.045,29.709,NEW BRAUNFELS,TX
180,12972,72.1,81.9,369.3,-97.046,28.084,ROCKPORT,TX
181,12976,70.6,78.1,403.2,-95.462,29.110,ANGLETON/LAKE JACKSON,TX
182,12977,68.9,78.1,376.1,-95.656,29.622,HOUSTON,TX
183,13721,59.8,68.8,373.6,-76.400,38.283,PATUXENT RIVER,MD
184,13722,59.6,70.9,339.7,-78.786,35.871,RALEIGH/DURHAM,NC
185,13723,58.7,70.0,339.1,-79.944,36.098,GREENSBORO,NC
186,13728,59.3,70.0,347.7,-79.336,36.573,DANVILLE,VA
187,13729,54.2,62.1,387.8,-79.853,38.885,ELKINS,WV
188,13733,57.0,66.8,360.0,-79.207,37.338,LYNCHBURG,VA
189,13735,57.2,65.7,379.8,-75.078,39.366,MILLVILLE,NJ
190,13737,62.8,71.1,386.6,-76.192,36.904,NORFOLK,VA
191,13739,56.1,68.0,328.6,-75.231,39.868,PHILADELPHIA,PA
192,13740,58.9,70.0,342.2,-77.323,37.511,RICHMOND,VA
193,13741,57.0,68.8,330.5,-79.974,37.317,ROANOKE,VA
194,13743,57.1,70.2,313.2,-77.034,38.865,WASHINGTON,DC
195,13744,63.0,74.4,340.3,-79.731,34.188,FLORENCE,SC
196,13748,64.3,73.5,373.6,-77.906,34.268,WILMINGTON,NC
197,13750,62.3,74.0,336.0,-76.283,36.933,NORFOLK,VA
198,13752,58.5,68.8,353.3,-76.483,38.991,ANNAPOLIS,MD
199,13754,64.7,72.6,393.9,-76.883,34.900,CHERRY POINT,NC
200,13764,58.4,70.1,332.9,-75.359,38.689,GEORGETOWN,DE
201,13769,63.4,70.7,402.6,-76.033,36.817,OCEANA,VA
202,13773,59.0,68.5,365.6,-77.300,38.500,QUANTICO,VA
203,13776,63.4,73.6,358.2,-79.059,34.610,LUMBERTON,NC
204,13781,56.6,66.6,356.3,-75.601,39.673,WILMINGTON,DE
205,13786,62.6,73.1,353.3,-76.175,36.261,ELIZABETH CITY,NC
206,13809,57.9,69.7,331.7,-87.606,38.764,LAWRENCEVILLE,IL
207,13810,59.5,70.5,344.0,-85.664,38.228,LOUISVILLE,KY
208,13833,68.9,78.3,373.0,-89.253,31.265,HATTIESBURG,MS
209,13837,62.5,75.9,313.2,-82.039,33.467,AUGUSTA,GA
210,13838,70.7,79.6,381.6,-88.068,30.626,MOBILE,AL
211,13839,70.2,77.7,403.2,-85.450,31.321,DOTHAN,AL
212,13841,56.2,65.1,373.0,-83.822,39.420,WILMINGTON,OH
213,13865,68.8,75.9,408.7,-88.751,32.333,MERIDIAN,MS
214,13866,59.6,68.1,381.6,-81.591,38.379,CHARLESTON,WV
215,13869,67.8,79.0,346.5,-84.194,31.536,ALBANY,GA
216,13870,67.5,77.5,363.7,-82.507,31.536,ALMA,GA
217,13871,66.3,74.2,394.6,-85.858,33.588,ANNISTON,AL
218,13873,63.8,73.1,371.8,-83.327,33.948,ATHENS,GA
219,13874,64.6,73.5,377.9,-84.427,33.640,ATLANTA,GA
220,13876,66.8,74.7,395.2,-86.754,33.564,BIRMINGHAM,AL
221,13877,59.6,68.5,375.5,-82.399,36.480,BRISTOL/JHNSN CTY/KNGSPRT,TN
222,13878,71.1,78.4,406.9,-81.391,31.252,BRUNSWICK,GA
223,13880,66.2,76.6,357.0,-80.041,32.899,CHARLESTON,SC
224,13881,60.5,71.7,341.6,-80.944,35.214,CHARLOTTE,NC
225,13882,64.7,73.3,382.9,-85.200,35.033,CHATTANOOGA,TN
226,13883,63.3,75.4,331.1,-81.118,33.942,COLUMBIA,SC
227,13884,70.4,77.6,408.1,-86.523,30.780,CRESTVIEW,FL
228,13886,60.8,72.7,332.3,-82.346,34.846,GREENVILLE,SC
229,13889,70.5,78.2,400.1,-81.693,30.494,JACKSONVILLE,FL
230,13891,63.6,71.9,386.6,-83.986,35.818,KNOXVILLE,TN
231,13893,65.7,75.8,360.7,-89.985,35.061,MEMPHIS,TN
232,13894,70.0,79.0,379.8,-88.246,30.688,MOBILE,AL
233,13895,68.8,77.0,391.5,-86.394,32.301,MONTGOMERY,AL
234,13896,64.2,73.7,368.7,-87.610,34.745,MUSCLE SHOALS,AL
235,13897,63.7,72.3,382.2,-86.689,36.119,NASHVILLE,TN
236,13899,71.3,79.2,397.0,-87.188,30.473,PENSACOLA,FL
237,13904,67.0,77.3,358.8,-97.681,30.179,AUSTIN/BERGSTROM,TX
238,13911,62.0,76.8,295.3,-97.441,32.769,FORT WORTH,TX
239,13920,56.0,65.5,363.7,-95.664,38.950,TOPEKA,KS
240,13927,68.0,78.2,360.7,-90.223,32.335,JACKSON,MS
241,13932,58.5,69.0,350.2,-97.037,37.168,WINFIELD/ARKANSAS CITY,KS
242,13935,68.8,79.7,351.4,-92.296,31.395,ALEXANDRIA,LA
243,13939,66.8,75.4,384.1,-90.986,33.483,GREENVILLE,MS
244,13942,67.7,77.6,365.0,-92.038,32.511,MONROE,LA
245,13957,66.7,76.0,373.6,-93.824,32.447,SHREVEPORT,LA
246,13958,65.8,78.2,329.2,-97.767,30.317,AUSTIN/CITY,TX
247,13959,64.5,77.3,322.4,-97.229,31.611,WACO,TX
248,13960,63.6,76.7,318.1,-96.851,32.847,DALLAS,TX
249,13961,62.5,74.8,328.0,-97.361,32.819,FORT WORTH,TX
250,13962,58.7,72.7,302.7,-99.682,32.411,ABILENE,TX
251,13963,65.0,73.8,379.8,-92.233,34.747,LITTLE ROCK,AR
252,13964,61.8,72.6,348.3,-94.365,35.334,FORT SMITH,AR
253,13967,58.6,70.8,326.1,-97.600,35.389,OKLAHOMA CITY,OK
254,13968,60.0,70.7,348.3,-95.886,36.198,TULSA,OK
255,13969,58.5,69.9,337.2,-97.100,36.731,PONCA CITY,OK
256,13970,69.5,79.2,369.3,-91.147,30.537,BATON ROUGE,LA
257,13971,58.9,67.9,373.0,-93.155,36.261,HARRISON,AR
258,13972,65.7,75.7,362.5,-95.402,32.354,TYLER,TX
259,13973,62.4,74.3,333.5,-99.766,30.511,JUNCTION,TX
260,13975,53.9,68.9,286.1,-99.775,36.297,GAGE,OK
261,13976,69.8,79.6,368.1,-91.988,30.205,LAFAYETTE,LA
262,13977,66.3,72.8,417.4,-94.008,33.454,TEXARKANA,AR
263,13978,67.7,76.7,378.5,-90.084,33.496,GREENWOOD,MS
264,13981,57.5,67.5,357.0,-95.484,37.670,CHANUTE,KS
265,13984,55.7,65.8,354.5,-97.652,39.549,CONCORDIA,KS
266,13985,52.6,65.9,307.0,-99.970,37.773,DODGE CITY,KS
267,13986,56.5,66.6,355.1,-97.861,38.068,HUTCHINSON,KS
268,13987,58.4,67.7,368.1,-94.498,37.149,JOPLIN,MO
269,13988,56.6,67.5,343.4,-94.593,39.123,KANSAS CITY,MO
270,13989,55.3,65.9,346.5,-96.190,38.331,EMPORIA,KS
271,13993,54.3,65.0,344.6,-94.907,39.774,ST JOSEPH,MO
272,13994,57.9,69.8,329.8,-90.374,38.753,ST LOUIS,MO
273,13995,57.7,67.1,366.2,-93.390,37.240,SPRINGFIELD,MO
274,13996,56.4,65.8,365.6,-95.626,39.073,TOPEKA,KS
275,13997,57.0,67.7,346.5,-91.769,38.128,ROLLA/VICHY,MO
276,14605,49.1,58.8,356.3,-69.797,44.321,AUGUSTA,ME
277,14606,48.8,57.2,376.7,-68.824,44.808,BANGOR,ME
278,14607,45.6,54.9,360.0,-68.033,46.867,CARIBOU,ME
279,14609,46.5,53.6,397.0,-67.792,46.123,HOULTON,ME
280,14610,46.2,56.8,340.3,-68.686,45.648,MILLINOCKET,ME
281,14611,50.0,58.6,374.2,-69.933,43.900,BRUNSWICK,ME
282,14702,51.7,59.6,386.6,-71.289,42.470,BEDFORD,MA
283,14707,55.6,62.5,405.0,-72.049,41.328,GROTON NEW LONDON,CT
284,14710,49.4,61.1,326.8,-71.438,42.933,MANCHESTER,NH
285,14711,55.7,65.7,355.7,-76.763,40.194,HARRISBURG,PA
286,14712,55.5,64.9,365.0,-75.959,40.373,READING,PA
287,14719,52.8,61.8,369.3,-72.632,40.844,WESTHAMPTON BEACH,NY
288,14732,54.1,68.0,300.3,-73.881,40.779,NEW YORK,NY
289,14733,53.0,62.4,363.1,-78.736,42.941,BUFFALO,NY
290,14734,52.9,66.9,297.8,-74.169,40.716,NEWARK,NJ
291,14735,51.7,60.4,373.6,-73.803,42.748,ALBANY,NY
292,14736,53.0,61.7,374.2,-78.317,40.300,ALTOONA,PA
293,14737,54.9,62.7,390.3,-75.449,40.651,ALLENTOWN,PA
294,14739,52.3,63.2,340.3,-71.011,42.361,BOSTON,MA
295,14740,52.4,62.1,358.2,-72.683,41.938,WINDSOR LOCKS,CT
296,14742,49.6,59.3,356.3,-73.150,44.468,BURLINGTON,VT
297,14745,49.0,57.7,371.8,-71.501,43.195,CONCORD,NH
298,14747,55.1,62.4,398.3,-79.272,42.493,DUNKIRK,NY
299,14750,51.2,57.4,415.5,-73.610,43.341,GLENS FALLS,NY
300,14751,56.1,65.1,371.8,-76.851,40.217,HARRISBURG,PA
301,14752,53.7,63.8,353.3,-72.651,41.736,HARTFORD,CT
302,14756,56.8,61.8,439.6,-70.061,41.253,NANTUCKET,MA
303,14757,53.6,61.0,395.8,-73.884,41.627,POUGHKEEPSIE,NY
304,14758,54.9,64.4,363.1,-72.887,41.264,NEW HAVEN,CT
305,14762,54.5,64.7,352.0,-79.922,40.355,PITTSBURGH,PA
306,14763,50.1,57.5,393.9,-73.289,42.427,PITTSFIELD,MA
307,14764,50.6,59.1,376.1,-70.304,43.642,PORTLAND,ME
308,14765,53.5,63.1,360.7,-71.433,41.722,PROVIDENCE,RI
309,14768,53.0,60.7,390.3,-77.677,43.117,ROCHESTER,NY
310,14770,54.7,63.9,367.4,-76.864,40.821,SELINSGROVE,PA
311,14771,51.6,61.8,350.2,-76.103,43.109,SYRACUSE,NY
312,14775,52.0,60.6,375.5,-72.716,42.158,WESTFIELD/SPRINGFIELD,MA
313,14777,52.0,60.9,370.5,-75.727,41.339,WILKES-BARRE/SCRANTON,PA
314,14778,54.0,63.9,356.3,-76.922,41.243,WILLIAMSPORT,PA
315,14787,55.0,62.9,388.4,-71.284,41.530,NEWPORT,RI
316,14792,56.2,65.4,368.7,-74.814,40.277,TRENTON,NJ
317,14793,53.1,64.5,333.5,-75.150,40.200,WILLOW GROVE,PA
318,14794,55.0,62.2,400.1,-71.799,41.350,WESTERLY,RI
319,14813,54.6,63.8,367.4,-81.464,41.038,AKRON,OH
320,14815,54.8,63.8,370.5,-85.251,42.308,BATTLE CREEK,MI
321,14819,55.8,66.1,351.4,-87.752,41.786,CHICAGO,IL
322,14820,56.3,65.4,369.9,-81.853,41.405,CLEVELAND,OH
323,14821,55.2,66.8,332.3,-82.881,39.991,COLUMBUS,OH
324,14822,55.0,65.7,345.3,-83.010,42.409,DETROIT,MI
325,14825,54.3,66.3,326.1,-83.669,41.014,FINDLAY,OH
326,14826,53.6,62.0,379.2,-83.749,42.967,FLINT,MI
327,14827,56.1,64.8,376.1,-85.206,41.006,FORT WAYNE,IN
328,14829,54.9,62.7,390.3,-85.792,41.527,GOSHEN,IN
329,14833,55.0,62.5,395.2,-84.459,42.260,JACKSON,MI
330,14835,54.3,67.6,308.3,-86.937,40.412,LAFAYETTE,IN
331,14836,53.1,62.2,368.1,-84.579,42.780,LANSING,MI
332,14837,53.2,62.4,366.8,-89.345,43.141,MADISON,WI
333,14839,54.6,63.9,365.6,-87.897,42.947,MILWAUKEE,WI
334,14840,54.0,63.4,363.7,-86.237,43.171,MUSKEGON,MI
335,14842,56.4,66.3,357.6,-89.684,40.668,PEORIA,IL
336,14845,53.4,62.9,361.9,-84.080,43.533,SAGINAW,MI
337,14847,52.8,60.3,393.9,-84.367,46.467,SAULT STE MARIE,MI
338,14848,54.8,64.0,367.4,-86.333,41.707,SOUTH BEND,IN
339,14850,52.3,61.5,366.2,-85.583,44.741,TRAVERSE CITY,MI
340,14852,53.1,63.5,348.3,-80.674,41.254,YOUNGSTOWN/WARREN,OH
341,14853,54.9,63.8,372.4,-83.230,42.237,DETROIT,MI
342,14858,53.1,60.0,403.8,-88.506,47.169,HANCOCK,MI
343,14860,55.4,63.8,380.4,-80.183,42.080,ERIE,PA
344,14880,55.8,61.6,424.8,-87.868,42.422,CHICAGO/WAUKEGAN,IL
345,14891,53.8,63.0,366.8,-82.518,40.820,MANSFIELD,OH
346,14894,54.9,64.6,360.0,-80.647,40.176,WHEELING,WV
347,14895,54.9,63.7,373.6,-81.443,40.918,AKRON,OH
348,14897,52.2,61.6,362.5,-89.627,44.929,WAUSAU,WI
349,14910,54.0,63.8,357.6,-95.393,45.883,ALEXANDRIA,MN
350,14913,52.8,62.1,365.0,-92.194,46.844,DULUTH,MN
351,14914,53.1,65.1,324.9,-96.811,46.925,FARGO,ND
352,14916,53.7,64.2,347.1,-97.176,47.949,GRAND FORKS,ND
353,14918,52.2,59.7,393.3,-93.403,48.566,INTERNATIONAL FALLS,MN
354,14919,53.4,62.9,361.9,-98.678,46.930,JAMESTOWN,ND
355,14920,55.6,64.6,371.1,-91.256,43.754,LA CROSSE,WI
356,14921,54.1,63.2,368.7,-90.181,43.212,LONE ROCK,WI
357,14922,53.5,66.5,312.0,-93.229,44.883,MINNEAPOLIS,MN
358,14923,56.1,64.3,384.1,-90.523,41.465,MOLINE,IL
359,14925,53.8,62.6,373.0,-92.492,43.904,ROCHESTER,MN
360,14926,52.5,63.3,341.6,-94.052,45.545,ST CLOUD,MN
361,14927,54.5,66.1,331.7,-93.048,44.930,ST PAUL,MN
362,14929,53.7,62.7,369.9,-98.421,45.450,ABERDEEN,SD
363,14931,57.2,67.6,350.8,-91.125,40.783,BURLINGTON,IA
364,14933,54.1,67.2,310.7,-93.666,41.538,DES MOINES,IA
365,14935,52.4,63.0,344.6,-98.313,40.958,GRAND ISLAND,NE
366,14936,53.7,64.0,350.2,-98.229,44.385,HURON,SD
367,14937,55.4,64.9,363.1,-91.543,41.633,IOWA CITY,IA
368,14938,56.1,63.3,400.7,-92.543,40.097,KIRKSVILLE,MO
369,14939,52.7,64.4,329.2,-96.764,40.831,LINCOLN,NE
370,14940,53.1,61.7,376.1,-93.331,43.158,MASON CITY,IA
371,14941,53.4,63.1,358.8,-97.437,41.981,NORFOLK,NE
372,14942,54.9,65.5,346.5,-95.899,41.310,OMAHA,NE
373,14943,54.6,64.3,359.4,-96.379,42.391,SIOUX CITY,IA
374,14944,54.0,63.5,362.5,-96.754,43.577,SIOUX FALLS,SD
375,14946,53.6,62.3,374.8,-97.154,44.931,WATERTOWN,SD
376,14950,55.4,63.8,380.4,-92.448,41.107,OTTUMWA,IA
377,14972,52.6,63.5,340.3,-95.202,43.164,SPENCER,IA
378,14990,54.5,63.1,376.7,-91.709,41.884,CEDAR RAPIDS,IA
379,14991,53.4,62.7,365.0,-91.485,44.865,EAU CLAIRE,WI
380,14992,55.3,64.4,369.3,-95.082,44.547,REDWOOD FALLS,MN
381,21504,66.7,75.0,388.4,-155.051,19.723,HILO,HI
382,21510,66.1,81.3,293.5,-156.049,19.736,KAILUA/KONA,HI
383,22010,64.2,79.3,293.5,-100.922,29.367,DEL RIO,TX
384,22501,64.3,80.4,281.8,-159.789,22.025,"KEKAHA, KAUAI",HI
385,22516,66.1,78.6,328.0,-156.433,20.902,KAHULUI,HI
386,22519,69.5,80.2,354.5,-157.768,21.451,KANEOHE,HI
387,22521,65.9,82.5,276.8,-157.943,21.328,HONOLULU,HI
388,22534,66.8,79.7,323.1,-157.099,21.157,KAUNAKAKAI,HI
389,22536,68.9,79.0,363.1,-159.341,21.979,LIHUE,HI
390,22551,65.8,80.5,299.6,-158.067,21.317,KAPOLEI,HI
391,23007,56.2,72.4,273.8,-100.288,34.434,CHILDRESS,TX
392,23009,49.4,71.1,208.4,-104.541,33.308,ROSWELL,NM
393,23023,55.0,72.6,256.5,-102.208,31.932,MIDLAND,TX
394,23034,60.7,74.6,305.8,-100.494,31.351,SAN ANGELO,TX
395,23040,54.1,74.7,223.8,-103.201,31.780,WINK,TX
396,23042,52.8,70.4,254.6,-101.821,33.668,LUBBOCK,TX
397,23044,49.8,75.6,172.0,-106.376,31.811,EL PASO,TX
398,23047,51.4,67.1,275.6,-101.706,35.219,AMARILLO,TX
399,23048,47.4,68.6,211.5,-103.603,35.182,TUCUMCARI,NM
400,23049,41.3,63.7,194.2,-106.089,35.617,SANTA FE,NM
401,23050,42.8,68.4,167.1,-106.616,35.042,ALBUQUERQUE,NM
402,23051,45.2,66.1,212.1,-103.154,36.446,CLAYTON,NM
403,23052,42.1,61.7,222.6,-104.502,36.741,RATON,NM
404,23054,41.4,58.8,246.6,-105.143,35.654,LAS VEGAS,NM
405,23055,47.1,68.6,208.4,-104.809,31.831,GUADALUPE PASS,TX
406,23061,37.4,54.6,244.8,-105.866,37.436,ALAMOSA,CO
407,23064,52.2,65.6,305.2,-100.725,37.927,GARDEN CITY,KS
408,23065,48.9,62.3,302.7,-101.693,39.368,GOODLAND,KS
409,23066,37.8,67.7,128.9,-108.538,39.134,GRAND JUNCTION,CO
410,23067,46.8,65.5,236.8,-103.527,38.051,LA JUNTA,CO
411,23070,41.6,62.8,205.9,-104.341,37.259,TRINIDAD,CO
412,23078,47.1,71.7,179.4,-107.721,32.262,DEMING,NM
413,23081,38.1,61.4,182.5,-108.789,35.511,GALLUP,NM
414,23090,38.4,66.7,141.2,-108.229,36.744,FARMINGTON,NM
415,23091,55.6,74.4,243.5,-102.912,30.915,FORT STOCKTON,TX
416,23110,45.2,77.9,117.2,-119.950,36.333,LEMOORE,CA
417,23129,60.8,75.1,300.3,-118.163,33.828,LONG BEACH,CA
418,23130,52.2,69.8,254.0,-118.489,34.210,VAN NUYS,CA
419,23136,58.8,69.2,352.0,-119.083,34.217,CAMARILLO,CA
420,23152,54.8,77.6,203.5,-118.359,34.201,BURBANK,CA
421,23153,23.8,68.7,35.8,-117.087,38.060,TONOPAH,NV
422,23154,27.6,57.4,119.7,-114.845,39.295,ELY,NV
423,23155,47.1,80.9,112.3,-119.056,35.434,BAKERSFIELD,CA
424,23157,28.8,70.1,55.5,-118.363,37.373,BISHOP,CA
425,23158,43.9,90.0,48.8,-114.717,33.619,BLYTHE,CA
426,23159,30.8,54.6,170.8,-112.146,37.706,BRYCE CANYON,UT
427,23160,47.5,83.9,97.5,-110.955,32.131,TUCSON,AZ
428,23161,32.9,83.3,24.1,-116.787,34.854,DAGGETT,CA
429,23169,34.2,86.2,19.8,-115.155,36.079,LAS VEGAS,NV
430,23174,60.8,69.9,373.0,-118.406,33.938,LOS ANGELES,CA
431,23176,32.0,66.8,91.9,-113.028,38.443,MILFORD,UT
432,23179,37.2,90.5,18.6,-114.623,34.766,NEEDLES,CA
433,23182,35.2,78.2,53.7,-118.084,34.629,PALMDALE,CA
434,23183,45.4,90.0,56.2,-111.990,33.443,PHOENIX,AZ
435,23184,38.2,69.9,117.2,-112.421,34.652,PRESCOTT,AZ
436,23185,29.7,69.6,62.9,-119.771,39.484,RENO,NV
437,23187,33.9,72.8,71.6,-118.724,34.744,SANDBERG,CA
438,23188,62.3,72.1,363.1,-117.169,32.735,SAN DIEGO,CA
439,23190,58.9,67.2,384.1,-119.844,34.426,SANTA BARBARA,CA
440,23191,45.7,73.5,152.3,-118.416,33.405,AVALON,CA
441,23194,37.9,69.1,120.3,-110.722,35.022,WINSLOW,AZ
442,23199,48.9,88.9,79.6,-115.667,32.817,EL CENTRO,CA
443,23213,50.3,67.5,257.1,-122.812,38.509,SANTA ROSA,CA
444,23225,31.7,68.6,79.6,-120.708,39.292,EMIGRANT GAP,CA
445,23230,54.3,63.5,367.4,-122.221,37.755,OAKLAND,CA
446,23232,50.8,74.9,187.5,-121.493,38.513,SACRAMENTO,CA
447,23233,53.7,64.5,342.8,-121.605,36.663,SALINAS,CA
448,23234,54.3,66.2,327.4,-122.398,37.620,SAN FRANCISCO,CA
449,23237,50.2,75.0,181.3,-121.237,37.894,STOCKTON,CA
450,23244,54.8,69.8,286.7,-122.048,37.415,MOUNTAIN VIEW,CA
451,23254,51.1,73.5,203.5,-122.052,37.992,CONCORD,CA
452,23257,47.7,75.2,156.6,-120.513,37.285,MERCED,CA
453,23258,49.9,76.3,167.1,-120.953,37.626,MODESTO,CA
454,23259,52.4,60.6,382.2,-121.845,36.588,MONTEREY,CA
455,23273,52.6,63.9,334.8,-120.465,34.916,SANTA MARIA,CA
456,23275,45.5,71.7,164.6,-123.201,39.126,UKIAH,CA
457,23277,53.3,65.1,328.0,-121.789,36.936,WATSONVILLE,CA
458,23285,49.8,73.1,193.6,-121.817,37.694,LIVERMORE,CA
459,23293,52.5,70.6,248.5,-121.928,37.362,SAN JOSE,CA
460,24011,50.7,65.0,292.2,-100.748,46.774,BISMARCK,ND
461,24012,47.6,63.1,274.4,-102.802,46.797,DICKINSON,ND
462,24013,50.8,64.8,296.6,-101.281,48.259,MINOT,ND
463,24015,45.5,62.0,260.8,-103.232,40.172,AKRON,CO
464,24017,44.6,64.5,222.0,-103.095,42.838,CHADRON,NE
465,24018,37.1,58.7,197.3,-104.807,41.158,CHEYENNE,WY
466,24021,32.7,62.6,124.0,-108.733,42.817,LANDER,WY
467,24022,34.3,54.1,213.3,-105.674,41.313,LARAMIE,WY
468,24023,49.4,60.7,332.3,-100.668,41.122,NORTH PLATTE,NE
469,24024,47.9,65.5,250.3,-101.601,44.051,PHILIP,SD
470,24025,51.2,64.9,300.9,-100.286,44.383,PIERRE,SD
471,24027,29.6,60.1,116.6,-109.065,41.594,ROCK SPRINGS,WY
472,24028,45.5,63.4,244.8,-103.595,41.874,SCOTTSBLUFF,NE
473,24029,39.2,62.3,185.6,-106.976,44.774,SHERIDAN,WY
474,24030,46.3,62.7,262.7,-102.985,41.101,SIDNEY,NE
475,24032,49.2,63.0,297.8,-100.551,42.859,VALENTINE,NE
476,24033,36.8,66.8,127.0,-108.543,45.808,BILLINGS,MT
477,24036,36.0,61.4,162.2,-109.467,47.049,LEWISTOWN,MT
478,24037,40.5,67.6,152.3,-105.886,46.428,MILES CITY,MT
479,24044,45.5,60.6,278.1,-102.800,42.057,ALLIANCE,NE
480,24046,34.3,57.4,180.7,-107.521,40.495,CRAIG,CO
481,24048,35.1,64.2,132.0,-108.082,44.517,GREYBULL,WY
482,24057,30.6,57.6,143.1,-107.200,41.806,RAWLINS,WY
483,24061,32.8,60.3,141.8,-108.459,43.064,RIVERTON,WY
484,24062,33.1,63.5,120.9,-107.951,43.966,WORLAND,WY
485,24089,34.9,59.3,169.6,-106.473,42.898,CASPER,WY
486,24090,44.3,62.6,239.2,-103.054,44.046,RAPID CITY,SD
487,24091,48.8,63.6,284.2,-101.620,40.510,IMPERIAL,NE
488,24110,40.1,64.8,172.0,-119.319,47.208,MOSES LAKE,WA
489,24112,35.6,68.1,109.2,-111.187,47.504,GREAT FALLS,MT
490,24121,28.6,63.7,87.0,-115.792,40.825,ELKO,NV
491,24126,39.1,69.0,130.1,-112.011,41.196,OGDEN,UT
492,24127,40.2,70.6,127.7,-111.968,40.787,SALT LAKE CITY,UT
493,24128,25.8,64.3,66.0,-117.807,40.902,WINNEMUCCA,NV
494,24130,38.3,59.1,206.6,-117.810,44.838,BAKER CITY,OR
495,24131,35.3,70.6,91.9,-116.220,43.565,BOISE,ID
496,24132,36.9,63.0,157.3,-111.152,45.794,BOZEMAN,MT
497,24133,39.8,62.0,194.2,-113.772,42.543,BURLEY,ID
498,24135,32.7,57.2,166.5,-112.513,45.953,BUTTE,MT
499,24137,34.6,60.0,160.3,-112.376,48.608,CUT BANK,MT
500,24138,32.2,60.7,133.2,-112.552,45.255,DILLON,MT
501,24141,39.2,66.7,148.0,-119.514,47.304,EPHRATA,WA
502,24143,34.1,63.6,128.3,-111.382,47.473,GREAT FALLS,MT
503,24144,36.2,64.1,141.8,-111.964,46.606,HELENA,MT
504,24145,38.7,61.7,185.6,-112.067,43.516,IDAHO FALLS,ID
505,24146,37.2,57.7,208.4,-114.264,48.304,KALISPELL,MT
506,24149,40.3,68.2,146.2,-117.014,46.375,LEWISTON,ID
507,24150,34.8,61.3,151.7,-110.448,45.699,LIVINGSTON,MT
508,24152,35.7,54.2,228.8,-118.425,45.511,MEACHAM,OR
509,24153,38.6,62.1,181.3,-114.093,46.921,MISSOULA,MT
510,24154,33.6,54.6,199.8,-115.645,47.457,MULLAN PASS,ID
511,24155,40.4,64.9,173.9,-118.834,45.698,PENDLETON,OR
512,24156,37.1,62.2,165.3,-112.571,42.920,POCATELLO,ID
513,24157,38.9,63.9,168.3,-117.528,47.621,SPOKANE,WA
514,24160,41.2,68.8,149.2,-118.287,46.095,WALLA WALLA,WA
515,24162,39.5,67.4,145.5,-117.013,44.021,ONTARIO,OR
516,24163,45.5,65.4,222.6,-119.118,46.265,PASCO,WA
517,24164,27.0,54.5,135.7,-110.108,42.584,BIG PINEY,WY
518,24172,26.9,69.3,48.8,-118.565,40.066,LOVELOCK,NV
519,24215,38.1,64.0,159.7,-122.333,41.333,MOUNT SHASTA,CA
520,24216,44.2,77.4,113.5,-122.254,40.152,RED BLUFF,CA
521,24217,51.8,59.3,393.3,-122.537,48.794,BELLINGHAM,WA
522,24219,44.9,66.4,205.9,-121.167,45.619,THE DALLES,OR
523,24220,42.5,63.6,207.8,-120.530,47.034,ELLENSBURG,WA
524,24221,49.8,62.9,307.7,-123.214,44.133,EUGENE,OR
525,24222,50.2,61.1,338.5,-122.280,47.908,EVERETT,WA
526,24225,43.0,69.4,160.3,-122.871,42.389,MEDFORD,OR
527,24227,50.8,59.6,371.1,-122.903,46.973,OLYMPIA,WA
528,24229,51.3,66.2,285.5,-122.600,45.591,PORTLAND,OR
529,24230,34.3,59.4,162.8,-121.150,44.254,REDMOND,OR
530,24231,49.4,66.4,258.3,-123.355,43.239,ROSEBURG,OR
531,24232,49.5,64.4,283.6,-122.995,44.908,SALEM,OR
532,24233,50.9,62.4,330.5,-122.314,47.461,SEATTLE,WA
533,24234,51.5,63.4,325.5,-122.301,47.530,SEATTLE,WA
534,24235,40.0,62.3,193.6,-123.381,42.617,SEXTON SUMMIT,OR
535,24237,41.3,54.1,304.6,-121.337,47.293,STAMPEDE PASS,WA
536,24242,50.9,64.5,301.5,-122.400,45.549,PORTLAND,OR
537,24243,43.0,62.3,226.9,-120.534,46.564,YAKIMA,WA
538,24255,49.7,56.8,398.9,-122.650,48.350,WHIDBEY ISLAND,WA
539,24257,40.8,76.6,94.4,-122.313,40.515,REDDING,CA
540,24259,33.5,67.0,101.2,-122.468,41.781,MONTAGUE,CA
541,24283,52.7,57.8,435.9,-124.109,40.978,ARCATA/EUREKA,CA
542,24286,53.0,59.0,419.8,-124.237,41.780,CRESCENT CITY,CA
543,25308,48.8,54.1,430.3,-131.570,55.043,ANNETTE,AK
544,25309,45.8,49.8,454.4,-134.575,58.355,JUNEAU,AK
545,25323,45.9,50.6,440.8,-135.520,59.245,HAINES,AK
546,25325,49.2,52.1,477.2,-131.712,55.357,KETCHIKAN,AK
547,25331,39.3,48.6,355.7,-149.092,61.596,PALMER,AK
548,25333,47.2,53.3,414.9,-135.360,57.048,SITKA,AK
549,25335,44.6,50.6,415.5,-135.313,59.460,SKAGWAY,AK
550,25339,45.3,48.3,474.1,-139.628,59.510,YAKUTAT,AK
551,25367,47.4,53.8,410.0,-133.075,55.580,KLAWOCK,AK
552,25501,44.6,48.7,451.9,-152.492,57.750,KODIAK,AK
553,25503,40.8,47.1,408.1,-156.654,58.684,KING SALMON,AK
554,25506,40.4,47.4,395.2,-154.915,59.753,ILIAMNA,AK
555,25507,42.2,47.6,425.4,-151.477,59.647,HOMER,AK
556,25516,42.8,47.7,435.2,-151.702,59.443,SELDOVIA,AK
557,25624,44.3,47.5,469.8,-162.722,55.207,COLD BAY,AK
558,26409,41.4,49.8,371.8,-149.855,61.217,ANCHORAGE,AK
559,26410,43.7,48.3,441.4,-145.451,60.489,CORDOVA,AK
560,26411,37.3,48.5,324.9,-147.855,64.817,FAIRBANKS,AK
561,26412,35.5,43.5,374.8,-141.946,62.961,NORTHWAY,AK
562,26415,34.4,45.3,326.8,-145.718,63.995,DELTA JUNCTION/FT GREELY,AK
563,26422,36.9,43.8,395.2,-141.148,64.777,EAGLE,AK
564,26425,35.4,43.6,371.1,-145.458,62.160,GULKANA,AK
565,26435,35.8,45.9,340.3,-149.072,64.550,NENANA,AK
566,26438,41.8,48.6,399.5,-149.417,60.128,SEWARD,AK
567,26451,40.9,48.5,385.3,-149.993,61.175,ANCHORAGE,AK
568,26491,41.6,51.8,343.4,-149.961,61.179,ANCHORAGE,AK
569,26492,42.2,46.0,456.8,-148.839,60.785,PORTAGE GLACIER,AK
570,26502,37.7,44.1,404.4,-158.742,64.327,KALTAG,AK
571,26510,38.3,46.9,366.8,-155.603,62.953,MC GRATH,AK
572,26523,43.2,49.6,407.5,-151.239,60.580,KENAI,AK
573,26528,41.3,47.9,403.2,-150.092,62.322,TALKEETNA,AK
574,26529,37.8,45.2,386.6,-152.107,65.174,TANANA,AK
575,26533,32.9,43.0,338.5,-151.509,66.916,BETTLES,AK
576,26615,41.1,46.7,421.1,-161.826,60.786,BETHEL,AK
577,26616,34.8,41.5,397.6,-162.597,66.885,KOTZEBUE,AK
578,26617,34.8,42.2,384.7,-165.443,64.513,NOME,AK
579,27406,32.0,35.1,467.9,-148.477,70.192,DEADHORSE,AK
580,27502,30.9,34.9,448.8,-156.763,71.287,BARROW,AK
581,27503,30.8,35.4,435.9,-159.995,70.639,WAINWRIGHT,AK
582,27515,31.8,35.5,455.0,-151.002,70.212,NUIQSUT,AK
585,53119,51.6,75.4,191.2,-119.629,36.319,HANFORD,CA
586,53120,51.0,74.0,197.9,-116.917,33.033,RAMONA,CA
587,53121,61.5,69.0,398.3,-117.349,33.219,OCEANSIDE,CA
588,53123,34.5,84.7,26.0,-115.196,36.212,LAS VEGAS,NV
589,53144,32.3,76.5,46.3,-117.865,34.988,EDWARDS,CA
590,53145,25.1,66.5,51.8,-116.264,37.617,NELLIS AIR FORCE BASE,NV
591,53146,46.3,72.7,164.0,-110.428,31.607,FORT HUACHUCA,AZ
592,53802,57.2,65.7,379.8,-88.280,39.478,MATTOON/CHARLESTON,IL
593,53819,64.7,73.0,387.2,-84.567,33.355,ATLANTA,GA
594,53838,62.9,71.0,389.6,-83.830,34.272,GAINESVILLE,GA
595,53841,58.8,68.7,359.4,-84.903,38.185,FRANKFORT,KY
596,53842,54.6,67.6,312.6,-86.296,39.825,INDIANAPOLIS,IN
597,53843,68.7,79.1,358.8,-86.394,31.309,ANDALUSIA (FT RUCKER),AL
598,53844,55.5,64.5,371.1,-82.657,39.756,LANCASTER,OH
599,53847,69.2,81.3,335.4,-87.023,30.704,MILTON,FL
600,53848,68.8,78.5,368.7,-86.960,30.507,MILTON,FL
601,53850,62.3,74.2,332.9,-82.886,34.672,CLEMSON,SC
602,53852,65.4,72.6,405.7,-86.945,34.653,DECATUR,AL
603,53853,71.2,79.8,386.6,-86.472,30.400,DESTIN,FL
604,53854,63.9,75.9,332.9,-80.858,33.462,ORANGEBURG,SC
605,53858,70.9,79.0,393.9,-88.532,30.464,PASCAGOULA,MS
606,53860,71.3,79.6,390.9,-81.515,30.336,JACKSONVILLE,FL
607,53862,70.8,78.6,398.3,-83.574,30.072,PERRY-FOLEY,FL
608,53863,63.9,72.3,385.3,-84.302,33.875,ATLANTA,GA
609,53864,67.1,74.6,401.3,-86.782,33.178,ALABASTER,AL
610,53865,71.3,79.8,387.8,-89.821,30.345,SLIDELL,LA
611,53866,56.4,66.1,360.7,-85.803,39.578,SHELBYVILLE,IN
612,53867,62.7,76.2,312.0,-80.996,33.971,COLUMBIA,SC
613,53868,64.3,71.8,400.1,-84.233,36.023,OAK RIDGE,TN
614,53869,65.1,72.6,400.1,-89.831,35.940,BLYTHEVILLE,AR
615,53870,61.0,71.3,355.1,-81.156,35.197,GASTONIA,NC
616,53871,61.1,72.1,344.6,-81.058,34.987,ROCK HILL,SC
617,53872,60.4,72.3,331.7,-80.621,35.017,MONROE,NC
618,53873,64.9,71.9,408.1,-84.849,34.123,CARTERSVILLE,GA
619,53874,63.5,73.3,363.7,-82.159,34.249,GREENWOOD,SC
620,53879,56.1,66.3,353.3,-94.371,38.960,LEE'S SUMMIT,MO
621,53901,58.2,68.7,350.2,-91.903,36.878,WEST PLAINS,MO
622,53902,69.0,77.0,394.6,-95.414,30.352,CONROE,TX
623,53903,67.2,77.4,360.7,-95.587,30.747,HUNTSVILLE,TX
624,53904,58.3,67.3,373.0,-90.428,38.929,ST CHARLES,MO
625,53905,68.9,75.3,420.5,-93.744,32.540,SHREVEPORT,LA
626,53907,62.3,76.3,305.8,-97.094,32.664,ARLINGTON,TX
627,53908,61.0,71.1,358.2,-95.984,36.039,TULSA,OK
628,53909,62.4,75.8,313.2,-97.318,32.973,FORT WORTH,TX
629,53910,68.8,77.7,380.4,-95.553,30.062,HOUSTON,TX
630,53911,64.4,75.5,345.9,-96.267,32.710,TERRELL,TX
631,53912,65.4,76.3,349.6,-96.398,32.027,CORSICANA,TX
632,53913,59.8,71.8,329.8,-97.416,35.850,GUTHRIE,OK
633,53914,64.4,73.5,374.8,-96.590,33.180,MC KINNEY,TX
634,53915,70.8,79.8,380.4,-91.884,30.038,NEW IBERIA,LA
635,53916,56.9,66.0,370.5,-93.579,39.823,CHILLICOTHE,MO
636,53917,72.7,82.9,363.7,-90.028,30.043,NEW ORLEANS,LA
637,53918,61.4,68.9,398.3,-92.470,36.369,MOUNTAIN HOME,AR
638,53919,65.8,74.3,384.7,-91.751,33.638,MONTICELLO,AR
639,53920,63.5,72.6,374.2,-93.095,35.258,RUSSELLVILLE,AR
640,53921,63.3,70.5,404.4,-93.578,34.547,MOUNT IDA,AR
641,53922,59.9,67.6,394.6,-94.307,36.282,FAYETTEVILLE/SPRINGDALE,AR
642,53925,65.4,73.1,397.0,-94.399,34.047,DE QUEEN,AR
643,53959,66.6,74.2,399.5,-90.234,35.135,WEST MEMPHIS,AR
644,53988,68.0,77.1,377.3,-92.967,31.150,FORT POLK,LA
645,53989,56.4,70.2,303.3,-96.926,39.294,FORT RILEY,KS
646,54704,50.3,58.5,381.0,-71.174,42.191,NORWOOD,MA
647,54728,46.7,53.9,395.2,-71.545,44.368,WHITEFIELD,NH
648,54733,52.4,60.3,387.2,-70.918,42.584,BEVERLY,MA
649,54734,53.2,60.4,398.9,-73.483,41.371,DANBURY,CT
650,54737,55.5,64.3,374.2,-76.294,40.120,LANCASTER,PA
651,54740,49.0,57.5,374.8,-72.518,43.344,SPRINGFIELD,VT
652,54742,48.1,56.5,376.1,-72.019,44.419,SAINT JOHNSBURY,VT
653,54743,53.5,64.0,347.1,-74.283,40.876,CALDWELL,NJ
654,54756,49.5,58.2,372.4,-72.291,42.570,ORANGE,MA
655,54757,49.9,57.5,390.3,-77.992,42.109,WELLSVILLE,NY
656,54767,52.6,61.8,366.2,-72.184,41.742,WILLIMANTIC,CT
657,54768,50.9,58.5,390.9,-73.171,42.696,NORTH ADAMS,MA
658,54769,53.2,60.6,395.8,-70.729,41.910,PLYMOUTH,MA
659,54770,49.0,56.5,391.5,-72.004,42.805,JAFFREY,NH
660,54772,46.9,56.7,353.3,-70.948,43.991,FRYEBURG,ME
661,54773,52.1,60.0,386.6,-76.385,43.350,FULTON,NY
662,54777,52.0,59.5,393.3,-71.021,41.876,TAUNTON,MA
663,54778,52.0,60.2,381.6,-77.056,42.643,PENN YAN,NY
664,54779,54.3,61.5,399.5,-74.737,41.009,ANDOVER,NJ
665,54780,54.3,64.9,345.9,-71.923,41.073,MONTAUK,NY
666,54781,49.7,57.4,388.4,-73.247,42.891,BENNINGTON,VT
667,54782,55.8,65.3,363.7,-75.557,40.238,POTTSTOWN,PA
668,54785,55.0,63.9,372.4,-74.669,40.624,SOMERVILLE,NJ
669,54786,55.6,63.7,385.3,-75.123,40.330,DOYLESTOWN,PA
670,54787,53.7,64.9,336.6,-73.417,40.734,FARMINGDALE,NY
671,54788,53.0,61.8,373.0,-72.828,41.510,MERIDEN,CT
672,54789,51.0,58.4,394.6,-75.379,41.139,MOUNT POCONO,PA
673,54790,52.3,63.2,340.3,-72.869,40.822,SHIRLEY,NY
674,54791,50.1,58.7,374.2,-70.922,43.278,ROCHESTER,NH
675,54792,53.5,60.3,405.7,-78.412,41.047,CLEARFIELD,PA
676,54793,54.2,60.7,411.2,-74.623,41.200,SUSSEX,NJ
677,54813,53.4,60.8,395.8,-86.651,46.429,MUNISING,MI
678,63871,70.6,77.8,408.1,-85.601,30.846,BONIFAY,FL
679,63872,68.4,78.0,369.9,-85.129,31.951,EUFAULA,AL
680,63890,69.5,78.2,384.1,-81.883,30.350,JACKSONVILLE,FL
681,64775,51.1,59.5,377.9,-75.412,43.234,ROME,NY
682,64776,50.0,57.4,393.9,-73.468,44.651,PLATTSBURG,NY
683,92762,55.1,65.0,357.0,-77.430,39.734,SITE R,PA
684,92805,72.5,82.7,363.7,-80.108,26.250,POMPANO BEACH,FL
685,92806,74.2,82.9,386.6,-82.628,27.765,ST PETERSBURG,FL
686,93005,37.9,60.0,193.6,-107.760,37.143,DURANGO,CO
687,93009,29.8,45.8,252.2,-106.316,39.228,LEADVILLE,CO
688,93010,44.5,57.6,303.3,-103.716,39.189,LIMON,CO
689,93013,38.6,63.8,165.9,-107.898,38.505,MONTROSE,CO
690,93026,48.7,75.1,166.5,-109.604,31.469,DOUGLAS BISBEE,AZ
691,93027,38.6,65.5,152.3,-109.379,34.518,ST JOHNS,AZ
692,93037,41.4,59.7,236.2,-104.711,38.812,COLORADO SPRINGS,CO
693,93042,48.2,66.2,246.0,-102.547,36.023,DALHART,TX
694,93045,44.8,70.0,172.0,-107.268,33.237,TRUTH OR CONSEQUENCES,NM
695,93057,39.2,60.1,206.6,-107.902,35.165,GRANTS,NM
696,93058,43.3,64.8,204.7,-104.498,38.290,PUEBLO,CO
697,93067,39.3,61.2,196.7,-104.849,39.570,DENVER,CO
698,93069,38.9,62.3,182.5,-108.628,37.303,CORTEZ,CO
699,93073,33.4,53.4,210.3,-106.868,39.223,ASPEN,CO
700,93075,34.6,69.5,93.8,-109.754,38.755,MOAB,UT
701,93084,43.7,79.4,98.1,-109.635,32.855,SAFFORD,AZ
702,93104,30.2,80.0,24.1,-117.683,35.683,CHINA LAKE,CA
703,93107,58.9,73.6,294.1,-117.150,32.867,MIRAMAR,CA
704,93110,60.3,65.5,437.1,-119.206,34.201,OXNARD,CA
705,93111,60.6,65.5,442.6,-119.117,34.117,POINT MUGU,CA
706,93112,61.6,74.0,326.1,-117.200,32.700,SAN DIEGO,CA
707,93115,61.2,67.7,414.9,-117.117,32.567,IMPERIAL BEACH,CA
708,93129,33.1,64.7,112.9,-113.097,37.702,CEDAR CITY,UT
709,93134,60.1,76.2,278.1,-118.296,34.028,LOS ANGELES,CA
710,93138,44.3,89.3,53.1,-116.505,33.828,PALM SPRINGS,CA
711,93141,32.9,65.5,106.1,-110.750,39.545,PRICE,UT
712,93167,36.8,77.5,65.4,-113.937,35.259,KINGMAN,AZ
713,93184,60.7,73.9,314.4,-117.866,33.680,SANTA ANA,CA
714,93193,49.6,79.7,139.4,-119.719,36.780,FRESNO,CA
715,93197,60.3,71.4,342.8,-118.451,34.016,SANTA MONICA,CA
716,93205,49.5,75.4,170.8,-121.570,39.098,MARYSVILLE,CA
717,93206,52.0,70.3,246.0,-120.641,35.237,SAN LUIS OBISPO,CA
718,93209,46.9,73.1,165.9,-120.627,35.673,PASO ROBLES,CA
719,93210,49.6,75.8,169.0,-121.618,39.490,OROVILLE,CA
720,93225,50.7,73.9,195.5,-121.590,38.696,SACRAMENTO,CA
721,93227,52.9,67.1,295.3,-122.280,38.213,NAPA,CA
722,93228,54.2,68.4,296.6,-122.121,37.659,HAYWARD,CA
723,93230,31.9,58.4,148.6,-119.995,38.894,SOUTH LAKE TAHOE,CA
724,93241,46.7,77.5,131.4,-121.961,38.377,VACAVILLE,CA
725,93242,51.1,76.3,178.2,-120.111,36.988,MADERA,CA
726,93706,54.0,68.8,288.5,-77.730,39.708,HAGERSTOWN,MD
727,93718,64.5,76.2,337.2,-78.721,33.816,NORTH MYRTLE BEACH,SC
728,93719,65.2,72.2,408.7,-77.047,35.068,NEW BERN,NC
729,93720,59.6,67.1,397.6,-75.510,38.341,SALISBURY,MD
730,93721,57.7,66.7,372.4,-76.684,39.172,BALTIMORE,MD
731,93727,65.9,72.9,408.7,-77.433,34.700,NEW RIVER,NC
732,93729,66.1,74.4,388.4,-75.623,35.232,CAPE HATTERAS,NC
733,93730,57.9,66.4,380.4,-74.457,39.458,ATLANTIC CITY,NJ
734,93736,58.2,66.8,379.2,-78.453,38.139,CHARLOTTESVILLE,VA
735,93738,56.3,68.4,326.1,-77.448,38.935,WASHINGTON,DC
736,93739,60.7,68.7,390.3,-75.496,37.941,WALLOPS ISLAND,VA
737,93740,62.0,73.5,338.5,-78.880,34.991,FAYETTEVILLE,NC
738,93741,60.9,72.0,343.4,-76.493,37.132,NEWPORT NEWS,VA
739,93759,61.0,70.2,371.1,-77.893,35.855,ROCKY MOUNT,NC
740,93765,64.8,73.2,385.9,-76.661,34.734,BEAUFORT,NC
741,93773,60.3,70.1,361.9,-77.007,36.984,WAKEFIELD,VA
742,93775,58.7,68.9,355.1,-77.434,37.708,RICHMOND/ASHLAND,VA
743,93778,55.8,63.9,385.3,-76.874,39.918,YORK,PA
744,93780,56.4,64.9,379.8,-74.841,39.941,MOUNT HOLLY,NJ
745,93782,61.8,72.5,349.6,-79.366,34.792,MAXTON,NC
746,93783,59.6,69.6,358.2,-79.477,36.047,BURLINGTON,NC
747,93784,55.7,70.2,294.1,-76.610,39.281,BALTIMORE,MD
748,93785,60.4,72.4,330.5,-79.064,35.933,CHAPEL HILL,NC
749,93786,59.8,72.4,321.8,-75.124,38.308,OCEAN CITY,MD
750,93801,65.5,72.9,402.0,-85.161,34.348,ROME,GA
751,93805,69.4,79.4,365.0,-84.353,30.393,TALLAHASSEE,FL
752,93806,67.5,76.0,385.9,-87.616,33.212,TUSCALOOSA,AL
753,93807,58.5,69.1,349.0,-80.222,36.134,WINSTON SALEM,NC
754,93808,62.2,71.6,369.3,-86.436,36.981,BOWLING GREEN,KY
755,93810,60.6,69.3,379.2,-89.250,37.780,CARBONDALE/MURPHYBORO,IL
756,93812,57.8,67.1,368.1,-84.419,39.103,CINCINNATI,OH
757,93814,57.0,67.9,343.4,-84.672,39.043,COVINGTON,KY
758,93815,54.5,65.1,346.5,-84.219,39.906,DAYTON,OH
759,93817,60.1,70.1,358.8,-87.537,38.043,EVANSVILLE,IN
760,93819,55.0,68.6,305.2,-86.272,39.710,INDIANAPOLIS,IN
761,93820,58.4,68.5,356.3,-84.606,38.041,LEXINGTON,KY
762,93821,59.6,71.0,338.5,-85.730,38.177,LOUISVILLE,KY
763,93822,56.4,66.5,355.1,-89.684,39.845,SPRINGFIELD,IL
764,93824,55.2,65.0,358.8,-81.892,39.944,ZANESVILLE,OH
765,93837,70.3,82.4,336.0,-81.683,30.233,JACKSONVILLE,FL
766,93841,70.6,78.9,390.9,-87.022,30.724,MILTON,FL
767,93842,65.6,76.1,355.1,-84.942,32.516,COLUMBUS,GA
768,93845,67.1,77.9,352.0,-83.277,30.783,VALDOSTA,GA
769,93846,61.3,72.5,342.2,-82.709,34.495,ANDERSON,SC
770,93862,66.8,74.5,398.3,-88.771,34.261,TUPELO,MS
771,93874,72.0,81.2,377.9,-89.070,30.407,GULFPORT,MS
772,93909,55.4,66.5,339.7,-94.890,38.831,OLATHE,KS
773,93915,68.7,78.0,374.8,-92.559,31.335,ALEXANDRIA,LA
774,93919,68.1,77.3,375.5,-90.472,31.178,MCCOMB,MS
775,93950,61.6,71.0,368.7,-95.783,34.899,MC ALESTER,OK
776,93953,62.6,70.5,392.7,-95.361,35.657,MUSKOGEE,OK
777,93967,59.8,62.0,493.8,-95.566,37.091,COFFEYVILLE,KS
778,93985,62.1,74.0,332.9,-98.061,32.782,MINERAL WELLS,TX
779,93986,58.4,72.2,305.2,-99.051,35.008,HOBART,OK
780,93987,67.7,76.8,376.7,-94.750,31.234,LUFKIN,TX
781,93988,65.8,73.0,405.7,-91.935,34.175,PINE BLUFF,AR
782,93989,57.2,65.4,384.7,-91.194,39.943,QUINCY,IL
783,93990,53.0,64.9,326.1,-99.830,39.376,HILL CITY,KS
784,93992,66.3,74.5,389.6,-92.813,33.221,EL DORADO,AR
785,93993,60.2,67.3,404.4,-94.170,36.005,FAYETTEVILLE,AR
786,93997,54.7,65.6,342.2,-98.828,38.872,RUSSELL,KS
787,94008,41.4,64.5,187.5,-106.621,48.214,GLASGOW,MT
788,94012,36.7,62.9,156.0,-109.780,48.559,HAVRE,MT
789,94014,47.6,64.3,260.2,-103.642,48.195,WILLISTON,ND
790,94017,43.5,63.6,218.9,-105.574,48.094,WOLF POINT,MT
791,94023,38.5,62.7,174.5,-105.542,44.339,GILLETTE,WY
792,94030,36.7,63.4,151.7,-109.509,40.441,VERNAL,UT
793,94032,38.2,57.3,224.4,-103.628,43.731,CUSTER,SD
794,94037,43.9,64.1,218.3,-103.546,45.604,BUFFALO,SD
795,94038,46.7,62.1,275.0,-102.655,46.014,HETTINGER,ND
796,94039,45.1,63.7,236.2,-102.518,43.021,PINE RIDGE,SD
797,94040,51.0,63.2,320.6,-100.591,40.206,MC COOK,NE
798,94041,50.3,63.4,307.7,-101.439,47.663,GARRISON,ND
799,94050,36.0,58.2,190.5,-107.885,40.049,MEEKER,CO
800,94051,39.7,62.9,185.0,-106.948,47.326,JORDAN,MT
801,94052,51.7,64.5,313.2,-100.408,45.546,MOBRIDGE,SD
802,94053,43.6,62.7,229.4,-104.153,42.065,TORRINGTON,WY
803,94054,36.0,63.7,143.1,-106.721,44.381,BUFFALO,WY
804,94055,44.3,63.2,232.5,-104.250,46.358,BAKER,MT
805,94056,47.7,64.2,262.7,-102.019,45.032,FAITH,SD
806,94057,38.3,61.4,184.4,-105.386,42.797,DOUGLAS,WY
807,94107,26.6,65.1,66.6,-117.864,42.591,ROME,OR
808,94119,38.3,59.4,203.5,-117.421,47.969,DEER PARK,WA
809,94128,40.2,63.3,186.2,-111.853,41.787,LOGAN,UT
810,94129,37.8,61.4,179.4,-117.109,46.744,PULLMAN/MOSCOW,WA
811,94173,31.2,49.4,227.5,-110.421,44.544,YELLOWSTONE,WY
812,94176,40.4,63.6,185.6,-117.321,47.683,SPOKANE,WA
813,94178,34.9,67.3,109.2,-114.487,42.482,TWIN FALLS,ID
814,94182,34.7,57.5,183.8,-116.102,44.889,MCCALL,ID
815,94185,29.6,59.8,118.4,-118.954,43.592,BURNS,OR
816,94194,36.5,60.9,170.8,-111.881,43.834,REXBURG,ID
817,94197,38.3,64.2,159.7,-119.517,48.464,OMAK,WA
818,94224,52.5,60.5,385.3,-123.878,46.158,ASTORIA,OR
819,94225,52.7,59.7,402.0,-123.937,46.971,HOQUIAM,WA
820,94227,50.5,59.6,366.2,-123.148,47.238,SHELTON,WA
821,94236,36.9,60.3,180.1,-121.724,42.147,KLAMATH FALLS,OR
822,94239,41.0,67.1,160.9,-120.207,47.399,WENATCHEE,WA
823,94240,51.1,58.1,401.3,-124.561,47.934,QUILLAYUTE,WA
824,94248,52.2,63.1,340.3,-122.214,47.493,RENTON,WA
825,94261,49.3,62.0,312.6,-122.949,45.541,PORTLAND,OR
826,94266,49.3,56.3,400.1,-123.498,48.120,PORT ANGELES,WA
827,94273,49.8,62.4,314.4,-123.134,45.195,MC MINNVILLE,OR
828,94274,51.1,61.3,349.6,-122.576,47.268,TACOMA,WA
829,94276,50.0,58.3,379.2,-123.023,48.522,FRIDAY HARBOR,WA
830,94281,50.7,64.8,294.7,-122.769,45.249,AURORA,OR
831,94298,50.4,65.8,278.1,-122.657,45.621,VANCOUVER,WA
832,94299,28.3,60.6,103.6,-120.567,41.483,ALTURAS,CA
833,94623,49.6,57.3,388.4,-69.712,43.964,WISCASSET,ME
834,94624,55.0,62.2,400.1,-69.993,41.688,CHATHAM,MA
835,94626,45.0,55.0,348.3,-69.595,45.462,GREENVILLE,ME
836,94700,45.4,54.1,369.3,-71.179,44.576,BERLIN,NH
837,94702,54.2,64.9,344.6,-73.146,41.175,BRIDGEPORT,CT
838,94720,54.5,61.0,411.8,-70.280,41.669,HYANNIS,MA
839,94723,51.2,60.7,360.7,-71.124,42.717,LAWRENCE,MA
840,94724,54.5,60.0,429.1,-70.615,41.393,VINEYARD HAVEN,MA
841,94726,54.0,60.6,409.4,-70.958,41.676,NEW BEDFORD,MA
842,94728,55.0,66.3,336.6,-73.967,40.783,NEW YORK,NY
843,94732,54.5,65.9,334.8,-75.011,40.082,PHILADELPHIA,PA
844,94741,53.7,66.3,317.5,-74.061,40.850,TETERBORO,NJ
845,94745,53.2,63.0,357.6,-73.708,41.067,WHITE PLAINS,NY
846,94746,49.4,60.0,342.8,-71.876,42.267,WORCESTER,MA
847,94765,50.0,58.6,374.2,-72.305,43.626,LEBANON,NH
848,94789,54.7,66.9,323.7,-73.796,40.655,NEW YORK,NY
849,94790,50.0,57.8,387.2,-76.022,43.992,WATERTOWN,NY
850,94814,50.5,57.5,400.7,-84.691,44.368,HOUGHTON LAKE,MI
851,94815,53.6,63.0,363.7,-85.552,42.235,KALAMAZOO,MI
852,94817,54.4,63.4,370.5,-83.418,42.665,PONTIAC,MI
853,94818,56.0,64.1,385.9,-87.814,42.761,RACINE,WI
854,94822,54.4,63.9,362.5,-89.093,42.196,ROCKFORD,IL
855,94823,53.9,64.9,339.7,-80.231,40.501,PITTSBURGH,PA
856,94830,55.5,65.0,363.1,-83.801,41.589,TOLEDO,OH
857,94846,55.4,65.4,355.7,-87.914,41.986,CHICAGO,IL
858,94847,55.2,66.1,342.2,-83.349,42.215,DETROIT,MI
859,94849,52.1,59.0,403.8,-83.581,45.072,ALPENA,MI
860,94855,52.7,62.0,364.4,-88.557,43.984,OSHKOSH,WI
861,94860,53.5,63.6,352.7,-85.523,42.882,GRAND RAPIDS,MI
862,94870,55.7,66.1,350.2,-88.278,40.040,CHAMPAIGN/URBANA,IL
863,94871,55.4,61.2,424.2,-86.422,42.129,BENTON HARBOR,MI
864,94889,53.0,62.4,363.1,-83.744,42.223,ANN ARBOR,MI
865,94893,49.6,59.6,352.0,-88.114,45.818,IRON MOUNTAIN/KINGSFORD,MI
866,94895,53.8,65.1,335.4,-85.394,40.234,MUNCIE,IN
867,94898,55.8,62.3,412.4,-82.793,44.022,HARBOR BEACH,MI
868,94899,54.3,61.5,399.5,-87.875,47.467,COPPER HARBOR,MI
869,94908,54.5,62.4,387.8,-90.704,42.398,DUBUQUE,IA
870,94910,54.7,63.0,381.6,-92.401,42.554,WATERLOO,IA
871,94929,53.2,60.8,392.1,-90.919,46.549,ASHLAND,WI
872,94931,50.8,59.0,381.0,-92.839,47.387,HIBBING,MN
873,94938,53.5,63.6,352.7,-94.131,46.405,BRAINERD,MN
874,94943,53.0,64.2,336.6,-99.318,43.767,CHAMBERLAIN,SD
875,94946,51.2,59.7,376.1,-99.639,41.437,BROKEN BOW,NE
876,94949,53.6,63.0,363.7,-98.427,40.604,HASTINGS,NE
877,94950,54.8,64.4,361.3,-98.038,43.777,MITCHELL,SD
878,94957,55.0,65.0,355.7,-95.592,40.079,FALLS CITY,NE
879,94958,51.5,60.8,363.7,-98.952,41.624,ORD,NE
880,94960,55.0,65.1,353.9,-93.351,45.063,MINNEAPOLIS,MN
881,94961,53.3,62.1,373.0,-94.610,48.728,BAUDETTE,MN
882,94963,54.1,65.8,329.8,-93.470,44.832,MINNEAPOLIS,MN
883,94967,52.8,62.4,360.0,-95.068,46.901,PARK RAPIDS,MN
884,94971,52.5,62.5,353.9,-94.746,43.408,ESTHERVILLE,IA
885,94973,51.9,59.8,386.6,-91.444,46.026,HAYWARD,WI
886,94978,53.8,64.4,345.9,-96.178,41.764,TEKAMAH,NE
887,94982,54.5,63.9,364.4,-90.591,41.614,DAVENPORT,IA
888,94985,53.8,61.4,392.7,-90.189,44.637,MARSHFIELD,WI
889,94988,54.0,62.7,374.8,-92.918,42.113,MARSHALLTOWN,IA
890,94989,54.3,63.4,368.7,-93.622,41.992,AMES,IA
891,94990,50.9,64.5,301.5,-99.842,43.390,WINNER,SD
892,94991,54.7,64.3,361.3,-93.902,40.633,LAMONI,IA
893,94992,52.8,58.6,422.9,-90.344,47.747,GRAND MARAIS,MN
894,94993,53.5,62.7,366.8,-96.991,45.669,SISSETON,SD
895,94994,54.9,64.3,364.4,-90.678,43.156,BOSCOBEL,WI
