,wban,dewpt,tavg,wp,long,lat,stname,ststate
0,03013,55.0,77.5,205.9,-102.688,38.070,LAMAR,CO
1,03016,43.6,69.7,163.4,-107.726,39.526,RIFLE,CO
2,03017,46.4,73.8,156.0,-104.658,39.833,DENVER,CO
3,03024,58.0,82.2,193.6,-101.394,35.700,BORGER,TX
4,03026,54.8,73.9,239.8,-102.284,39.245,BURLINGTON,CO
5,03027,48.8,68.9,223.8,-105.663,35.003,CLINES CORNERS,NM
6,03028,55.5,76.7,218.9,-102.614,37.283,SPRINGFIELD,CO
7,03029,49.3,67.1,249.1,-109.061,35.658,WINDOW ROCK,AZ
8,03030,58.1,80.3,212.1,-101.505,36.682,GUYMON,OK
9,03031,58.5,84.5,178.8,-102.387,31.921,ODESSA,TX
10,03032,63.1,83.8,231.2,-102.213,30.048,DRYDEN,TX
11,03068,47.9,68.9,214.0,-104.300,38.767,BULLSEYE,CO
12,03102,51.0,77.4,168.3,-117.600,34.056,ONTARIO,CA
13,03103,50.2,64.4,293.5,-111.672,35.140,FLAGSTAFF,AZ
14,03104,51.3,89.8,89.4,-116.160,33.628,PALM SPRINGS,CA
15,03124,62.3,77.3,292.9,-110.344,31.588,FORT HUACHUCA/SIERRA VISTA,AZ
16,03131,57.5,70.2,318.7,-117.139,32.816,SAN DIEGO,CA
17,03144,51.1,92.6,74.7,-115.579,32.834,IMPERIAL,CA
18,03145,53.3,94.8,76.5,-114.617,32.650,YUMA,AZ
19,03159,36.4,79.4,54.9,-118.219,34.741,LANCASTER,CA
20,03160,30.7,83.0,16.7,-116.028,36.621,MERCURY,NV
21,03162,47.2,79.2,124.0,-111.448,36.926,PAGE,AZ
22,03164,46.1,71.1,175.1,-116.467,32.617,CAMPO,CA
23,03166,54.4,72.4,251.6,-117.979,33.872,FULLERTON,CA
24,03167,56.4,68.6,324.9,-118.334,33.923,HAWTHORNE,CA
25,03170,22.2,66.3,37.7,-116.006,39.601,EUREKA,NV
26,03171,52.0,78.2,170.8,-117.439,33.952,RIVERSIDE,CA
27,03177,57.8,68.7,344.0,-117.279,33.128,CARLSBAD,CA
28,03178,57.1,67.9,345.3,-116.979,32.572,SAN DIEGO,CA
29,03179,52.9,75.9,199.8,-117.636,33.975,CHINO,CA
30,03184,56.0,90.5,116.6,-112.082,33.688,PHOENIX,AZ
31,03192,58.6,92.0,125.8,-111.911,33.623,SCOTTSDALE,AZ
32,03195,46.6,64.5,245.4,-112.155,35.946,GRAND CANYON,AZ
33,03196,61.5,79.5,257.7,-110.846,31.421,NOGALES,AZ
34,03749,60.0,73.6,308.9,-77.468,39.645,CAMP DAVID,MD
35,03757,68.4,76.4,393.9,-76.429,38.142,ST INIGOES,MD
36,03810,69.9,78.6,384.1,-81.390,35.741,HICKORY,NC
37,03811,71.4,82.8,346.5,-88.917,35.593,JACKSON,TN
38,03812,67.3,75.7,387.2,-82.538,35.432,ASHEVILLE,NC
39,03813,73.6,83.8,364.4,-83.654,32.688,MACON,GA
40,03816,67.3,81.8,303.3,-88.774,37.056,PADUCAH,KY
41,03818,74.6,85.8,351.4,-85.184,30.836,MARIANNA,FL
42,03820,73.8,82.3,389.6,-81.965,33.370,AUGUSTA,GA
43,03822,74.0,84.2,365.0,-81.202,32.119,SAVANNAH,GA
44,03847,67.8,77.8,363.7,-85.085,35.951,CROSSVILLE,TN
45,03849,68.0,77.4,372.4,-84.077,37.087,LONDON,KY
46,03853,73.2,84.0,355.7,-81.417,30.400,MAYPORT,FL
47,03855,76.1,84.0,399.5,-87.317,30.350,PENSACOLA,FL
48,03856,70.6,84.7,310.7,-86.786,34.644,HUNTSVILLE,AL
49,03859,63.8,74.8,346.5,-81.208,37.296,BLUEFIELD,WV
50,03860,66.8,76.8,363.1,-82.555,38.382,HUNTINGTON,WV
51,03866,71.9,83.8,339.7,-88.567,32.550,MERIDIAN,MS
52,03868,66.3,76.6,358.2,-87.309,39.452,TERRE HAUTE,IN
53,03870,71.3,80.2,382.2,-82.219,34.899,GREER,SC
54,03872,64.3,72.9,382.9,-81.125,37.795,BECKLEY,WV
55,03878,73.2,83.3,365.6,-86.012,31.861,TROY,AL
56,03887,66.1,76.8,352.7,-88.866,39.984,DECATUR,IL
57,03888,71.4,82.7,347.7,-84.521,33.779,ATLANTA,GA
58,03889,66.7,77.4,352.7,-83.314,37.591,JACKSON,KY
59,03893,65.4,76.1,352.0,-86.617,39.144,BLOOMINGTON,IN
60,03894,67.9,80.9,322.4,-87.415,36.622,CLARKSVILLE,TN
61,03901,71.1,87.4,284.8,-94.711,32.385,LONGVIEW,TX
62,03902,64.0,91.5,172.0,-97.822,31.070,FORT HOOD/KILLEEN,TX
63,03904,68.8,89.1,239.8,-96.364,30.588,COLLEGE STATION,TX
64,03919,64.5,81.7,268.8,-97.661,38.813,SALINA,KS
65,03927,67.0,89.8,214.6,-97.041,32.896,DALLAS-FORT WORTH,TX
66,03928,65.6,83.5,262.0,-97.429,37.647,WICHITA,KS
67,03931,73.1,85.8,330.5,-93.192,31.045,FORT POLK,LA
68,03932,61.2,85.6,194.9,-99.200,35.340,CLINTON,OK
69,03935,69.3,80.3,350.2,-89.571,37.225,CAPE GIRARDEAU,MO
70,03936,65.4,80.8,291.0,-96.678,39.135,MANHATTAN,KS
71,03937,75.5,85.7,365.6,-93.228,30.125,LAKE CHARLES,LA
72,03940,73.3,84.6,349.0,-90.078,32.320,JACKSON,MS
73,03945,68.6,78.1,371.8,-92.218,38.817,COLUMBIA,MO
74,03947,68.4,81.2,325.5,-94.718,39.299,KANSAS CITY,MO
75,03949,73.1,86.4,322.4,-93.283,31.400,FORT POLK,LA
76,03950,65.6,86.4,232.5,-98.416,34.568,LAWTON,OK
77,03953,69.7,84.9,296.6,-90.646,35.831,JONESBORO,AR
78,03954,64.0,86.1,218.3,-97.647,35.534,OKLAHOMA CITY,OK
79,03957,63.9,83.0,247.9,-98.553,37.284,MEDICINE LODGE,KS
80,03959,69.4,82.0,328.6,-96.011,36.762,BARTLESVILLE,OK
81,03960,68.3,78.4,362.5,-90.157,38.571,CAHOKIA/ST.LOUIS,IL
82,03962,70.0,86.2,284.8,-93.096,34.478,HOT SPRINGS,AR
83,03963,68.9,80.1,347.1,-92.156,38.591,JEFFERSON CITY,MO
84,03965,66.9,84.7,264.5,-97.086,36.160,STILLWATER,OK
85,03966,68.6,79.8,347.1,-90.656,38.657,ST LOUIS,MO
86,03967,67.1,80.3,319.4,-94.739,38.850,OLATHE,KS
87,03971,67.6,89.3,225.7,-96.868,32.681,DALLAS,TX
88,03974,64.7,82.6,261.4,-97.219,37.750,WICHITA,KS
89,03975,70.8,81.8,351.4,-90.325,36.773,POPLAR BLUFF,MO
90,03981,64.6,88.5,202.2,-98.984,34.352,FREDERICK,OK
91,03991,68.3,87.5,250.9,-97.199,33.206,DENTON,TX
92,03994,68.6,80.3,340.3,-93.183,38.704,SEDALIA,MO
93,03996,73.3,85.1,342.2,-91.030,32.348,TALLULAH/VICKSBURG,MS
94,03997,67.5,79.7,332.9,-95.212,39.008,LAWRENCE,KS
95,03998,67.6,82.9,293.5,-95.504,37.328,PARSONS,KS
96,03999,65.3,85.7,236.2,-98.235,30.741,BURNET,TX
97,04109,53.1,71.3,247.9,-115.596,46.144,ELK CITY,ID
98,04110,40.6,68.6,145.5,-114.456,42.727,JEROME,ID
99,04111,34.7,63.9,130.7,-111.031,41.273,EVANSTON,WY
100,04112,33.3,54.4,198.6,-114.927,44.171,STANLEY,ID
101,04113,44.5,71.8,154.8,-119.261,45.826,HERMISTON,OR
102,04114,37.9,63.8,159.7,-114.215,41.523,CHALLIS,ID
103,04134,35.3,76.7,61.1,-113.351,40.161,DUGWAY PROVING GROUND,UT
104,04201,52.3,65.4,309.5,-122.861,45.773,SCAPPOOSE,OR
105,04724,62.6,72.4,363.1,-78.945,43.107,NIAGARA FALLS,NY
106,04725,58.3,69.3,342.8,-75.981,42.208,BINGHAMTON,NY
107,04726,59.1,68.6,365.6,-78.834,40.301,JOHNSTOWN,PA
108,04751,57.6,65.5,389.6,-78.640,41.803,BRADFORD,PA
109,04780,59.1,72.4,312.0,-71.756,42.552,FITCHBURG,MA
110,04781,60.9,74.3,312.0,-73.102,40.794,ISLIP,NY
111,04787,59.9,69.5,364.4,-78.899,41.178,DU BOIS,PA
112,04789,60.4,71.5,342.8,-74.265,41.509,MONTGOMERY,NY
113,04803,60.3,69.1,377.3,-89.465,45.631,RHINELANDER,WI
114,04804,64.3,75.1,350.2,-83.078,40.078,COLUMBUS,OH
115,04808,65.5,73.8,387.8,-88.481,41.770,CHICAGO/AURORA,IL
116,04826,63.5,72.7,373.0,-89.837,44.359,WISCONSIN RAPIDS,WI
117,04836,53.6,65.0,334.2,-68.307,47.286,FRENCHVILLE,ME
118,04838,64.5,76.6,332.3,-87.905,42.121,CHICAGO/PROSPECT HGTS/WHEELI,IL
119,04839,64.1,75.3,344.0,-86.097,42.746,HOLLAND,MI
120,04840,63.2,72.7,368.1,-88.486,43.770,FOND DU LAC,WI
121,04841,64.3,71.9,398.3,-87.851,43.769,SHEBOYGAN,WI
122,04842,63.6,72.0,385.3,-81.887,40.875,WOOSTER,OH
123,04843,60.6,71.3,349.0,-80.215,41.626,MEADVILLE,PA
124,04845,64.6,73.6,376.7,-87.938,42.595,KENOSHA,WI
125,04846,65.1,74.2,375.5,-87.006,41.453,VALPARAISO,IN
126,04847,62.8,73.7,347.7,-84.079,41.868,ADRIAN,MI
127,04848,64.1,75.3,344.0,-83.476,41.563,TOLEDO,OH
128,04849,63.8,75.5,337.2,-82.179,41.179,LORAIN/ELYRIA,OH
129,04850,64.5,74.0,369.3,-84.027,40.708,LIMA,OH
130,04851,63.3,74.9,337.9,-84.429,41.338,DEFIANCE,OH
131,04852,62.8,73.8,345.9,-81.420,40.470,NEW PHILADELPHIA,OH
132,04853,64.8,76.1,343.4,-81.684,41.518,CLEVELAND,OH
133,04854,60.0,69.5,366.2,-84.701,45.013,GAYLORD,MI
134,04855,63.3,71.7,385.3,-83.064,40.616,MARION,OH
135,04857,63.8,71.2,401.3,-80.696,41.778,ASHTABULA,OH
136,04858,63.7,73.1,369.9,-82.463,40.023,NEWARK,OH
140,12812,74.9,83.7,385.3,-81.991,26.917,PUNTA GORDA,FL
141,12815,74.2,83.9,371.8,-81.325,28.434,ORLANDO,FL
142,12816,74.6,83.6,382.2,-82.272,29.690,GAINESVILLE,FL
143,12818,74.3,82.7,391.5,-82.454,28.474,BROOKSVILLE,FL
144,12819,75.2,84.0,385.9,-81.810,28.821,LEESBURG,FL
145,12832,77.0,84.0,414.3,-85.033,29.733,APALACHICOLA,FL
146,12833,76.0,83.1,412.4,-83.105,29.550,CROSS CITY,FL
147,12834,74.9,83.4,390.3,-81.060,29.177,DAYTONA BEACH,FL
148,12835,74.7,84.2,374.8,-81.864,26.586,FORT MYERS,FL
149,12836,76.0,85.1,381.6,-81.754,24.553,KEY WEST,FL
150,12838,75.0,83.9,384.1,-80.646,28.103,MELBOURNE,FL
151,12839,75.6,85.1,375.5,-80.300,25.824,MIAMI,FL
152,12841,74.5,83.8,377.9,-81.333,28.545,ORLANDO,FL
153,12842,74.6,84.4,370.5,-82.540,27.961,TAMPA,FL
154,12843,75.0,83.7,387.2,-80.418,27.656,VERO BEACH,FL
155,12844,75.0,84.4,376.7,-80.099,26.685,WEST PALM BEACH,FL
156,12849,76.2,84.5,393.9,-80.154,26.072,FORT LAUDERDALE,FL
157,12850,75.8,86.4,360.0,-81.683,24.583,KEY WEST,FL
158,12854,74.3,84.4,366.2,-81.244,28.780,ORLANDO,FL
159,12871,75.4,83.4,397.6,-82.559,27.401,SARASOTA/BRADENTON,FL
160,12873,74.5,83.6,381.0,-82.688,27.911,ST PETERSBURG/CLEARWATER,FL
161,12876,73.7,84.4,357.6,-81.754,28.062,WINTER HAVEN,FL
162,12882,75.8,84.1,393.3,-80.280,25.907,MIAMI,FL
163,12884,77.3,84.5,411.2,-89.408,29.350,BOOTHVILLE,LA
164,12885,74.2,85.6,348.3,-80.171,26.197,FORT LAUDERDALE,FL
165,12888,75.6,85.4,371.1,-80.433,25.648,MIAMI,FL
166,12894,74.7,83.8,381.0,-81.755,26.536,FORT MYERS,FL
167,12895,75.1,83.1,397.6,-80.377,27.498,FORT PIERCE,FL
168,12896,75.4,86.1,358.8,-81.052,24.726,MARATHON,FL
169,12897,75.8,84.1,393.3,-81.775,26.153,NAPLES,FL
170,12904,74.8,86.3,347.1,-97.654,26.228,HARLINGEN,TX
171,12912,74.4,86.7,336.0,-96.930,28.863,VICTORIA,TX
172,12916,75.9,85.0,381.6,-90.251,29.993,NEW ORLEANS,LA
173,12917,75.4,85.8,362.5,-94.021,29.951,BEAUMONT/PORT ARTHUR,TX
174,12918,73.3,85.3,339.7,-95.279,29.645,HOUSTON,TX
175,12919,75.2,87.1,342.2,-97.426,25.906,BROWNSVILLE,TX
176,12921,69.5,88.0,259.0,-98.464,29.533,SAN ANTONIO,TX
177,12924,74.6,85.3,358.2,-97.513,27.773,CORPUS CHRISTI,TX
178,12926,76.8,86.4,374.8,-97.283,27.700,CORPUS CHRISTI,TX
179,12928,74.3,88.0,318.1,-97.817,27.500,KINGSVILLE,TX
180,12932,74.2,86.0,342.8,-98.027,27.741,ALICE,TX
181,12935,76.3,87.5,352.0,-96.251,28.728,PALACIOS,TX
182,12947,68.7,87.7,253.4,-99.220,28.458,COTULLA,TX
183,12957,76.6,89.1,335.4,-97.346,26.166,PORT ISABEL,TX
184,12958,74.5,84.2,372.4,-90.033,29.833,NEW ORLEANS,LA
185,12959,73.4,88.0,306.4,-98.238,26.175,MC ALLEN,TX
186,12960,73.5,85.7,337.2,-95.364,29.993,HOUSTON,TX
187,12962,69.0,86.6,268.2,-99.174,29.359,HONDO,TX
188,12970,69.3,88.6,250.3,-98.471,29.337,SAN ANTONIO,TX
189,12971,70.2,85.7,293.5,-98.045,29.709,NEW BRAUNFELS,TX
190,12972,76.3,85.7,377.3,-97.046,28.084,ROCKPORT,TX
191,12975,73.4,86.6,323.7,-95.240,29.521,HOUSTON,TX
192,12976,76.0,84.8,385.9,-95.462,29.110,ANGLETON/LAKE JACKSON,TX
193,12977,73.5,84.2,357.6,-95.656,29.622,HOUSTON,TX
194,13721,67.8,77.2,372.4,-76.400,38.283,PATUXENT RIVER,MD
195,13722,68.8,81.2,331.1,-78.786,35.871,RALEIGH/DURHAM,NC
196,13723,68.0,79.7,339.7,-79.944,36.098,GREENSBORO,NC
197,13728,68.9,80.1,347.1,-79.336,36.573,DANVILLE,VA
198,13729,63.3,71.7,385.3,-79.853,38.885,ELKINS,WV
199,13733,68.0,76.6,384.7,-79.207,37.338,LYNCHBURG,VA
200,13734,62.9,75.6,323.1,-77.984,39.402,MARTINSBURG,WV
201,13735,64.9,75.7,350.2,-75.078,39.366,MILLVILLE,NJ
202,13736,63.5,74.8,342.2,-79.916,39.643,MORGANTOWN,WV
203,13737,70.4,80.2,368.1,-76.192,36.904,NORFOLK,VA
204,13739,63.0,79.0,281.8,-75.231,39.868,PHILADELPHIA,PA
205,13740,68.2,79.9,340.3,-77.323,37.511,RICHMOND,VA
206,13741,66.9,77.2,358.8,-79.974,37.317,ROANOKE,VA
207,13743,65.0,80.2,292.9,-77.034,38.865,WASHINGTON,DC
208,13744,72.9,81.9,381.6,-79.731,34.188,FLORENCE,SC
209,13748,71.1,81.4,361.3,-77.906,34.268,WILMINGTON,NC
210,13750,69.9,81.6,340.9,-76.283,36.933,NORFOLK,VA
211,13752,66.8,78.3,341.6,-76.483,38.991,ANNAPOLIS,MD
212,13754,71.0,80.3,376.1,-76.883,34.900,CHERRY POINT,NC
213,13762,67.7,79.0,345.3,-76.136,36.695,FENTRESS,VA
214,13764,66.6,77.9,344.6,-75.359,38.689,GEORGETOWN,DE
215,13769,70.6,77.8,408.1,-76.033,36.817,OCEANA,VA
216,13776,71.5,82.4,353.3,-79.059,34.610,LUMBERTON,NC
217,13781,64.1,77.0,321.2,-75.601,39.673,WILMINGTON,DE
218,13786,71.7,79.6,397.6,-76.175,36.261,ELIZABETH CITY,NC
219,13809,66.8,80.5,312.6,-87.606,38.764,LAWRENCEVILLE,IL
220,13810,67.3,80.9,314.4,-85.664,38.228,LOUISVILLE,KY
221,13833,74.5,84.2,372.4,-89.253,31.265,HATTIESBURG,MS
222,13837,71.0,83.0,337.9,-82.039,33.467,AUGUSTA,GA
223,13838,74.4,84.1,372.4,-88.068,30.626,MOBILE,AL
224,13839,74.2,83.2,382.2,-85.450,31.321,DOTHAN,AL
225,13841,64.1,73.9,364.4,-83.822,39.420,WILMINGTON,OH
226,13865,72.8,83.0,363.7,-88.751,32.333,MERIDIAN,MS
227,13869,74.5,84.9,361.9,-84.194,31.536,ALBANY,GA
228,13870,73.8,85.2,347.7,-82.507,31.536,ALMA,GA
229,13871,71.2,83.2,337.9,-85.858,33.588,ANNISTON,AL
230,13873,71.4,82.2,354.5,-83.327,33.948,ATHENS,GA
231,13874,70.9,82.8,339.1,-84.427,33.640,ATLANTA,GA
232,13876,70.8,84.7,313.2,-86.754,33.564,BIRMINGHAM,AL
233,13877,65.8,78.1,330.5,-82.399,36.480,BRISTOL/JHNSN CTY/KNGSPRT,TN
234,13878,75.1,84.1,382.9,-81.391,31.252,BRUNSWICK,GA
235,13880,75.4,83.3,399.5,-80.041,32.899,CHARLESTON,SC
236,13881,69.4,80.9,343.4,-80.944,35.214,CHARLOTTE,NC
237,13882,69.9,80.4,357.6,-85.200,35.033,CHATTANOOGA,TN
238,13883,72.7,83.5,355.7,-81.118,33.942,COLUMBIA,SC
239,13884,75.2,82.6,406.9,-86.523,30.780,CRESTVIEW,FL
240,13889,74.4,84.1,372.4,-81.693,30.494,JACKSONVILLE,FL
241,13891,69.8,81.4,342.8,-83.986,35.818,KNOXVILLE,TN
242,13893,71.2,86.6,295.3,-89.985,35.061,MEMPHIS,TN
243,13894,73.9,84.0,366.2,-88.246,30.688,MOBILE,AL
244,13895,72.5,85.1,331.1,-86.394,32.301,MONTGOMERY,AL
245,13896,71.1,83.7,329.8,-87.610,34.745,MUSCLE SHOALS,AL
246,13897,68.6,81.9,319.4,-86.689,36.119,NASHVILLE,TN
247,13899,75.3,83.2,399.5,-87.188,30.473,PENSACOLA,FL
248,13904,70.3,86.8,281.8,-97.681,30.179,AUSTIN/BERGSTROM,TX
249,13920,65.6,80.8,293.5,-95.664,38.950,TOPEKA,KS
250,13927,73.4,85.0,344.6,-90.223,32.335,JACKSON,MS
251,13932,67.2,78.0,352.0,-97.037,37.168,WINFIELD/ARKANSAS CITY,KS
252,13935,73.5,85.3,342.2,-92.296,31.395,ALEXANDRIA,LA
253,13939,72.5,86.0,319.4,-90.986,33.483,GREENVILLE,MS
254,13942,73.5,88.0,307.7,-92.038,32.511,MONROE,LA
255,13957,71.2,85.8,305.2,-93.824,32.447,SHREVEPORT,LA
256,13958,68.9,88.7,245.4,-97.767,30.317,AUSTIN/CITY,TX
257,13959,68.9,89.2,239.8,-97.229,31.611,WACO,TX
258,13960,67.7,86.7,252.2,-96.851,32.847,DALLAS,TX
259,13961,67.1,88.6,226.9,-97.361,32.819,FORT WORTH,TX
260,13962,63.6,86.5,210.3,-99.682,32.411,ABILENE,TX
261,13963,71.3,86.5,297.8,-92.233,34.747,LITTLE ROCK,AR
262,13964,69.6,87.4,267.0,-94.365,35.334,FORT SMITH,AR
263,13966,64.3,87.2,211.5,-98.493,33.979,WICHITA FALLS,TX
264,13968,67.2,85.4,260.2,-95.886,36.198,TULSA,OK
265,13969,66.6,83.3,276.2,-97.100,36.731,PONCA CITY,OK
266,13970,76.1,82.1,429.7,-91.147,30.537,BATON ROUGE,LA
267,13971,66.6,82.0,291.6,-93.155,36.261,HARRISON,AR
268,13972,70.0,88.1,263.9,-95.402,32.354,TYLER,TX
269,13973,64.5,85.8,226.3,-99.766,30.511,JUNCTION,TX
270,13975,60.5,81.7,223.8,-99.775,36.297,GAGE,OK
271,13976,74.7,85.2,360.7,-91.988,30.205,LAFAYETTE,LA
272,13977,70.2,86.3,286.1,-94.008,33.454,TEXARKANA,AR
273,13978,73.4,85.0,344.6,-90.084,33.496,GREENWOOD,MS
274,13981,66.9,82.3,291.6,-95.484,37.670,CHANUTE,KS
275,13984,64.7,80.5,285.5,-97.652,39.549,CONCORDIA,KS
276,13985,59.4,80.0,228.8,-99.970,37.773,DODGE CITY,KS
277,13986,65.3,81.8,277.4,-97.861,38.068,HUTCHINSON,KS
278,13987,66.5,82.8,281.1,-94.498,37.149,JOPLIN,MO
279,13988,66.8,82.4,289.2,-94.593,39.123,KANSAS CITY,MO
280,13989,64.6,79.9,291.0,-96.190,38.331,EMPORIA,KS
281,13993,67.2,73.5,421.1,-94.907,39.774,ST JOSEPH,MO
282,13994,67.8,82.2,304.6,-90.374,38.753,ST LOUIS,MO
283,13995,66.6,81.3,300.3,-93.390,37.240,SPRINGFIELD,MO
284,13996,66.7,81.9,294.1,-95.626,39.073,TOPEKA,KS
285,13997,68.3,78.8,357.0,-91.769,38.128,ROLLA/VICHY,MO
286,14605,57.3,69.4,326.8,-69.797,44.321,AUGUSTA,ME
287,14606,57.4,69.2,331.1,-68.824,44.808,BANGOR,ME
288,14607,54.9,66.1,337.9,-68.033,46.867,CARIBOU,ME
289,14609,55.3,64.7,365.0,-67.792,46.123,HOULTON,ME
290,14610,55.5,67.8,322.4,-68.686,45.648,MILLINOCKET,ME
291,14702,59.2,71.7,323.1,-71.289,42.470,BEDFORD,MA
292,14707,62.8,72.8,360.7,-72.049,41.328,GROTON NEW LONDON,CT
293,14710,58.2,72.4,299.6,-71.438,42.933,MANCHESTER,NH
294,14711,64.5,76.3,336.0,-76.763,40.194,HARRISBURG,PA
295,14712,62.3,75.8,312.0,-75.959,40.373,READING,PA
296,14719,61.1,72.2,343.4,-72.632,40.844,WESTHAMPTON BEACH,NY
297,14732,61.8,78.7,270.1,-73.881,40.779,NEW YORK,NY
298,14733,61.4,71.7,355.1,-78.736,42.941,BUFFALO,NY
299,14734,62.1,77.7,285.5,-74.169,40.716,NEWARK,NJ
300,14735,60.0,72.1,328.6,-73.803,42.748,ALBANY,NY
301,14736,61.4,71.0,365.6,-78.317,40.300,ALTOONA,PA
302,14737,62.2,73.3,344.0,-75.449,40.651,ALLENTOWN,PA
303,14739,59.6,73.5,304.6,-71.011,42.361,BOSTON,MA
304,14740,59.5,73.4,304.6,-72.683,41.938,WINDSOR LOCKS,CT
305,14742,59.1,70.1,343.4,-73.150,44.468,BURLINGTON,VT
306,14745,57.2,69.6,322.4,-71.501,43.195,CONCORD,NH
307,14747,61.8,72.3,352.7,-79.272,42.493,DUNKIRK,NY
308,14750,60.2,68.7,381.6,-73.610,43.341,GLENS FALLS,NY
309,14751,63.0,75.4,326.8,-76.851,40.217,HARRISBURG,PA
310,14752,61.4,74.9,311.4,-72.651,41.736,HARTFORD,CT
311,14756,62.6,69.1,415.5,-70.061,41.253,NANTUCKET,MA
312,14757,61.9,71.6,364.4,-73.884,41.627,POUGHKEEPSIE,NY
313,14758,63.1,74.7,337.9,-72.887,41.264,NEW HAVEN,CT
314,14762,62.0,74.7,322.4,-79.922,40.355,PITTSBURGH,PA
315,14763,58.7,68.4,362.5,-73.289,42.427,PITTSFIELD,MA
316,14764,59.0,68.9,359.4,-70.304,43.642,PORTLAND,ME
317,14765,61.0,73.4,325.5,-71.433,41.722,PROVIDENCE,RI
318,14768,61.5,71.0,367.4,-77.677,43.117,ROCHESTER,NY
319,14770,63.5,71.9,385.3,-76.864,40.821,SELINSGROVE,PA
320,14771,61.4,71.4,359.4,-76.103,43.109,SYRACUSE,NY
321,14775,59.4,72.4,316.3,-72.716,42.158,WESTFIELD/SPRINGFIELD,MA
322,14777,59.5,71.8,325.5,-75.727,41.339,WILKES-BARRE/SCRANTON,PA
323,14778,60.9,72.5,336.6,-76.922,41.243,WILLIAMSPORT,PA
324,14787,62.9,71.4,383.5,-71.284,41.530,NEWPORT,RI
325,14792,62.0,77.1,291.6,-74.814,40.277,TRENTON,NJ
326,14793,59.7,75.3,283.6,-75.150,40.200,WILLOW GROVE,PA
327,14794,62.6,71.9,371.1,-71.799,41.350,WESTERLY,RI
328,14813,62.5,74.0,339.1,-81.464,41.038,AKRON,OH
329,14815,63.7,73.8,359.4,-85.251,42.308,BATTLE CREEK,MI
330,14819,63.0,77.1,304.6,-87.752,41.786,CHICAGO,IL
331,14820,63.8,74.9,345.3,-81.853,41.405,CLEVELAND,OH
332,14821,63.4,76.4,319.4,-82.881,39.991,COLUMBUS,OH
333,14822,62.5,76.1,310.7,-83.010,42.409,DETROIT,MI
334,14825,63.5,74.6,345.3,-83.669,41.014,FINDLAY,OH
335,14826,61.7,73.7,331.7,-83.749,42.967,FLINT,MI
336,14827,64.6,74.6,361.9,-85.206,41.006,FORT WAYNE,IN
337,14829,63.4,74.0,352.0,-85.792,41.527,GOSHEN,IN
338,14833,63.3,72.1,379.2,-84.459,42.260,JACKSON,MI
339,14835,66.5,76.9,357.0,-86.937,40.412,LAFAYETTE,IN
340,14836,62.4,74.0,337.2,-84.579,42.780,LANSING,MI
341,14837,64.6,73.7,374.8,-89.345,43.141,MADISON,WI
342,14839,63.9,75.4,339.7,-87.897,42.947,MILWAUKEE,WI
343,14840,64.5,75.0,354.5,-86.237,43.171,MUSKEGON,MI
344,14841,61.1,67.9,410.0,-84.796,45.571,PELLSTON,MI
345,14842,66.6,76.9,358.8,-89.684,40.668,PEORIA,IL
346,14845,63.1,73.3,357.6,-84.080,43.533,SAGINAW,MI
347,14847,60.1,68.0,391.5,-84.367,46.467,SAULT STE MARIE,MI
348,14848,64.0,74.6,352.7,-86.333,41.707,SOUTH BEND,IN
349,14850,62.0,72.5,352.7,-85.583,44.741,TRAVERSE CITY,MI
350,14852,61.7,71.9,357.0,-80.674,41.254,YOUNGSTOWN/WARREN,OH
351,14853,62.9,74.1,343.4,-83.230,42.237,DETROIT,MI
352,14858,58.7,68.2,365.6,-88.506,47.169,HANCOCK,MI
353,14860,62.0,73.5,338.5,-80.183,42.080,ERIE,PA
354,14880,63.8,74.5,350.8,-87.868,42.422,CHICAGO/WAUKEGAN,IL
355,14891,62.0,73.4,339.7,-82.518,40.820,MANSFIELD,OH
356,14895,62.4,74.2,334.8,-81.443,40.918,AKRON,OH
357,14897,61.6,71.3,364.4,-89.627,44.929,WAUSAU,WI
358,14910,62.3,71.2,376.7,-95.393,45.883,ALEXANDRIA,MN
359,14913,57.8,68.2,351.4,-92.194,46.844,DULUTH,MN
360,14914,60.3,71.3,344.6,-96.811,46.925,FARGO,ND
361,14916,59.5,70.7,340.9,-97.176,47.949,GRAND FORKS,ND
362,14918,58.2,65.8,395.2,-93.403,48.566,INTERNATIONAL FALLS,MN
363,14919,59.6,69.8,355.7,-98.678,46.930,JAMESTOWN,ND
364,14920,65.4,75.9,355.1,-91.256,43.754,LA CROSSE,WI
365,14921,64.6,74.1,369.3,-90.181,43.212,LONE ROCK,WI
366,14922,63.2,77.0,308.9,-93.229,44.883,MINNEAPOLIS,MN
367,14923,67.1,75.8,382.9,-90.523,41.465,MOLINE,IL
368,14925,65.2,72.8,398.9,-92.492,43.904,ROCHESTER,MN
369,14926,63.1,72.7,366.8,-94.052,45.545,ST CLOUD,MN
370,14927,64.2,76.1,334.8,-93.048,44.930,ST PAUL,MN
371,14929,61.1,73.4,326.8,-98.421,45.450,ABERDEEN,SD
372,14931,68.4,77.8,373.0,-91.125,40.783,BURLINGTON,IA
373,14933,67.6,78.0,357.6,-93.666,41.538,DES MOINES,IA
374,14935,63.6,76.8,316.9,-98.313,40.958,GRAND ISLAND,NE
375,14936,63.2,75.4,329.8,-98.229,44.385,HURON,SD
376,14937,67.8,75.7,395.2,-91.543,41.633,IOWA CITY,IA
377,14938,67.5,76.2,382.9,-92.543,40.097,KIRKSVILLE,MO
378,14939,66.7,78.1,343.4,-96.764,40.831,LINCOLN,NE
379,14940,65.6,73.5,393.9,-93.331,43.158,MASON CITY,IA
380,14941,64.7,75.4,351.4,-97.437,41.981,NORFOLK,NE
381,14942,68.1,79.0,350.8,-95.899,41.310,OMAHA,NE
382,14943,66.8,75.9,376.7,-96.379,42.391,SIOUX CITY,IA
383,14944,65.2,74.3,375.5,-96.754,43.577,SIOUX FALLS,SD
384,14946,61.5,72.9,339.7,-97.154,44.931,WATERTOWN,SD
385,14972,66.3,72.9,415.5,-95.202,43.164,SPENCER,IA
386,14990,66.4,73.6,405.7,-91.709,41.884,CEDAR RAPIDS,IA
387,14991,63.3,71.5,388.4,-91.485,44.865,EAU CLAIRE,WI
388,14992,64.9,74.4,369.3,-95.082,44.547,REDWOOD FALLS,MN
389,21504,65.9,75.4,369.9,-155.051,19.723,HILO,HI
390,22010,66.5,88.0,226.3,-100.922,29.367,DEL RIO,TX
391,22501,62.9,79.3,276.8,-159.789,22.025,"KEKAHA, KAUAI",HI
392,22516,64.1,80.3,279.9,-156.433,20.902,KAHULUI,HI
393,22519,68.4,78.9,357.0,-157.768,21.451,KANEOHE,HI
394,22521,64.4,80.7,279.3,-157.943,21.328,HONOLULU,HI
395,22534,65.5,77.9,328.6,-157.099,21.157,KAUNAKAKAI,HI
396,22536,67.3,78.8,342.2,-159.341,21.979,LIHUE,HI
397,22551,63.8,80.4,275.6,-158.067,21.317,KAPOLEI,HI
398,23007,63.8,83.6,240.5,-100.288,34.434,CHILDRESS,TX
399,23009,59.3,80.1,226.3,-104.541,33.308,ROSWELL,NM
400,23023,59.4,83.7,194.2,-102.208,31.932,MIDLAND,TX
401,23034,63.0,88.0,191.8,-100.494,31.351,SAN ANGELO,TX
402,23040,59.1,84.5,184.4,-103.201,31.780,WINK,TX
403,23042,60.3,80.3,235.5,-101.821,33.668,LUBBOCK,TX
404,23047,58.9,78.4,239.2,-101.706,35.219,AMARILLO,TX
405,23048,57.5,78.8,220.1,-103.603,35.182,TUCUMCARI,NM
406,23049,48.2,72.8,180.7,-106.089,35.617,SANTA FE,NM
407,23050,50.2,77.0,164.6,-106.616,35.042,ALBUQUERQUE,NM
408,23051,54.3,78.0,194.9,-103.154,36.446,CLAYTON,NM
409,23052,49.7,71.9,204.1,-104.502,36.741,RATON,NM
410,23054,46.4,68.9,197.9,-105.143,35.654,LAS VEGAS,NM
411,23055,55.3,77.9,205.3,-104.809,31.831,GUADALUPE PASS,TX
412,23061,44.6,64.1,226.3,-105.866,37.436,ALAMOSA,CO
413,23064,58.3,79.3,223.8,-100.725,37.927,GARDEN CITY,KS
414,23065,56.8,75.7,243.5,-101.693,39.368,GOODLAND,KS
415,23066,46.5,74.6,150.5,-108.538,39.134,GRAND JUNCTION,CO
416,23067,53.5,78.0,186.8,-103.527,38.051,LA JUNTA,CO
417,23070,50.0,73.4,193.0,-104.341,37.259,TRINIDAD,CO
418,23078,56.2,78.9,205.3,-107.721,32.262,DEMING,NM
419,23081,49.8,69.0,234.3,-108.789,35.511,GALLUP,NM
420,23090,48.5,73.4,178.2,-108.229,36.744,FARMINGTON,NM
421,23091,60.2,83.2,206.6,-102.912,30.915,FORT STOCKTON,TX
422,23110,50.3,77.0,165.3,-119.950,36.333,LEMOORE,CA
423,23129,55.3,71.6,271.9,-118.163,33.828,LONG BEACH,CA
424,23130,50.3,76.0,173.3,-118.489,34.210,VAN NUYS,CA
425,23136,54.3,65.5,337.2,-119.083,34.217,CAMARILLO,CA
426,23152,51.9,74.8,199.8,-118.359,34.201,BURBANK,CA
427,23153,23.2,71.4,23.5,-117.087,38.060,TONOPAH,NV
428,23154,28.8,65.0,80.8,-114.845,39.295,ELY,NV
429,23155,48.0,81.3,116.6,-119.056,35.434,BAKERSFIELD,CA
430,23157,29.0,74.0,40.1,-118.363,37.373,BISHOP,CA
431,23158,48.2,93.8,54.3,-114.717,33.619,BLYTHE,CA
432,23159,39.7,59.3,220.7,-112.146,37.706,BRYCE CANYON,UT
433,23160,60.5,86.9,177.6,-110.955,32.131,TUCSON,AZ
434,23161,34.4,86.6,19.8,-116.787,34.854,DAGGETT,CA
435,23169,36.9,91.4,14.9,-115.155,36.079,LAS VEGAS,NV
436,23174,55.5,65.9,349.6,-118.406,33.938,LOS ANGELES,CA
437,23176,38.5,72.4,103.6,-113.028,38.443,MILFORD,UT
438,23179,42.6,95.3,24.7,-114.623,34.766,NEEDLES,CA
439,23182,38.1,80.0,61.1,-118.084,34.629,PALMDALE,CA
440,23183,57.6,94.0,106.7,-111.990,33.443,PHOENIX,AZ
441,23184,50.6,74.3,191.2,-112.421,34.652,PRESCOTT,AZ
442,23185,31.4,72.8,57.4,-119.771,39.484,RENO,NV
443,23187,36.1,72.3,87.6,-118.724,34.744,SANDBERG,CA
444,23188,58.4,68.0,363.7,-117.169,32.735,SAN DIEGO,CA
445,23190,54.8,62.0,400.1,-119.844,34.426,SANTA BARBARA,CA
446,23191,44.7,69.4,176.4,-118.416,33.405,AVALON,CA
447,23194,51.9,77.0,180.1,-110.722,35.022,WINSLOW,AZ
448,23199,52.9,91.9,88.8,-115.667,32.817,EL CENTRO,CA
449,23213,51.2,65.9,287.9,-122.812,38.509,SANTA ROSA,CA
450,23225,36.1,66.8,121.5,-120.708,39.292,EMIGRANT GAP,CA
451,23230,53.0,64.3,334.8,-122.221,37.755,OAKLAND,CA
452,23232,51.6,72.0,223.2,-121.493,38.513,SACRAMENTO,CA
453,23233,52.4,62.2,357.0,-121.605,36.663,SALINAS,CA
454,23234,51.9,63.6,328.6,-122.398,37.620,SAN FRANCISCO,CA
455,23237,51.7,72.6,218.3,-121.237,37.894,STOCKTON,CA
456,23244,53.5,64.0,347.1,-122.048,37.415,MOUNTAIN VIEW,CA
457,23254,50.0,69.7,229.4,-122.052,37.992,CONCORD,CA
458,23257,52.3,74.3,208.4,-120.513,37.285,MERCED,CA
459,23258,50.9,74.8,189.3,-120.953,37.626,MODESTO,CA
460,23259,50.7,59.4,373.0,-121.845,36.588,MONTEREY,CA
461,23273,51.3,61.1,355.7,-120.465,34.916,SANTA MARIA,CA
462,23275,50.1,71.5,212.1,-123.201,39.126,UKIAH,CA
463,23277,52.9,61.7,372.4,-121.789,36.936,WATSONVILLE,CA
464,23285,51.1,69.0,249.7,-121.817,37.694,LIVERMORE,CA
465,23293,52.0,67.7,276.2,-121.928,37.362,SAN JOSE,CA
466,24011,57.0,71.1,300.3,-100.748,46.774,BISMARCK,ND
467,24012,52.6,68.7,271.9,-102.802,46.797,DICKINSON,ND
468,24013,56.1,70.3,297.8,-101.281,48.259,MINOT,ND
469,24015,50.2,74.7,183.8,-103.232,40.172,AKRON,CO
470,24017,50.6,75.1,183.8,-103.095,42.838,CHADRON,NE
471,24018,41.2,69.0,148.0,-104.807,41.158,CHEYENNE,WY
472,24021,37.5,69.8,112.3,-108.733,42.817,LANDER,WY
473,24022,39.6,62.9,183.8,-105.674,41.313,LARAMIE,WY
474,24023,60.4,74.2,306.4,-100.668,41.122,NORTH PLATTE,NE
475,24024,54.9,76.1,218.3,-101.601,44.051,PHILIP,SD
476,24025,58.3,76.5,252.8,-100.286,44.383,PIERRE,SD
477,24027,35.6,65.9,124.0,-109.065,41.594,ROCK SPRINGS,WY
478,24028,52.9,74.4,214.0,-103.595,41.874,SCOTTSBLUFF,NE
479,24029,47.0,69.1,202.2,-106.976,44.774,SHERIDAN,WY
480,24030,50.8,75.6,181.9,-102.985,41.101,SIDNEY,NE
481,24032,56.8,75.9,241.7,-100.551,42.859,VALENTINE,NE
482,24033,45.6,70.5,175.7,-108.543,45.808,BILLINGS,MT
483,24036,45.2,62.8,247.9,-109.467,47.049,LEWISTOWN,MT
484,24037,49.7,72.0,202.9,-105.886,46.428,MILES CITY,MT
485,24044,52.5,64.5,324.9,-102.800,42.057,ALLIANCE,NE
486,24046,42.9,64.4,204.1,-107.521,40.495,CRAIG,CO
487,24048,42.3,71.3,140.0,-108.082,44.517,GREYBULL,WY
488,24057,38.5,64.9,156.0,-107.200,41.806,RAWLINS,WY
489,24061,37.5,69.1,117.2,-108.459,43.064,RIVERTON,WY
490,24062,41.6,70.4,140.6,-107.951,43.966,WORLAND,WY
491,24089,38.9,70.3,119.7,-106.473,42.898,CASPER,WY
492,24090,52.5,72.5,228.1,-103.054,44.046,RAPID CITY,SD
493,24091,57.1,77.0,233.7,-101.620,40.510,IMPERIAL,NE
494,24110,44.5,71.0,161.6,-119.319,47.208,MOSES LAKE,WA
495,24112,43.2,65.5,196.7,-111.187,47.504,GREAT FALLS,MT
496,24121,25.9,67.8,50.0,-115.792,40.825,ELKO,NV
497,24126,41.2,74.6,109.2,-112.011,41.196,OGDEN,UT
498,24127,43.3,76.1,114.7,-111.968,40.787,SALT LAKE CITY,UT
499,24128,26.2,67.4,53.7,-117.807,40.902,WINNEMUCCA,NV
500,24130,43.8,61.9,240.5,-117.810,44.838,BAKER CITY,OR
501,24131,40.6,73.9,109.2,-116.220,43.565,BOISE,ID
502,24132,45.2,66.0,213.3,-111.152,45.794,BOZEMAN,MT
503,24133,43.4,67.3,182.5,-113.772,42.543,BURLEY,ID
504,24135,39.4,59.2,218.3,-112.513,45.953,BUTTE,MT
505,24137,42.6,61.5,230.6,-112.376,48.608,CUT BANK,MT
506,24138,42.7,62.5,221.4,-112.552,45.255,DILLON,MT
507,24141,43.6,72.5,141.8,-119.514,47.304,EPHRATA,WA
508,24143,43.2,65.0,201.6,-111.382,47.473,GREAT FALLS,MT
509,24144,43.4,65.1,202.9,-111.964,46.606,HELENA,MT
510,24145,42.5,66.2,183.1,-112.067,43.516,IDAHO FALLS,ID
511,24146,44.3,62.1,244.8,-114.264,48.304,KALISPELL,MT
512,24149,41.7,73.1,122.7,-117.014,46.375,LEWISTON,ID
513,24150,42.5,65.1,193.0,-110.448,45.699,LIVINGSTON,MT
514,24152,40.2,57.2,249.7,-118.425,45.511,MEACHAM,OR
515,24153,43.9,66.5,194.9,-114.093,46.921,MISSOULA,MT
516,24154,38.5,56.3,239.2,-115.645,47.457,MULLAN PASS,ID
517,24155,41.0,70.2,136.9,-118.834,45.698,PENDLETON,OR
518,24156,39.6,67.6,144.9,-112.571,42.920,POCATELLO,ID
519,24157,41.9,68.5,157.9,-117.528,47.621,SPOKANE,WA
520,24160,43.3,73.8,130.1,-118.287,46.095,WALLA WALLA,WA
521,24162,44.4,72.0,152.3,-117.013,44.021,ONTARIO,OR
522,24163,47.7,72.4,179.4,-119.118,46.265,PASCO,WA
523,24164,35.0,58.7,175.7,-110.108,42.584,BIG PINEY,WY
524,24172,28.4,72.3,43.8,-118.565,40.066,LOVELOCK,NV
525,24215,43.1,66.4,187.5,-122.333,41.333,MOUNT SHASTA,CA
526,24216,49.2,78.3,146.2,-122.254,40.152,RED BLUFF,CA
527,24217,53.2,62.9,358.8,-122.537,48.794,BELLINGHAM,WA
528,24219,47.2,72.4,174.5,-121.167,45.619,THE DALLES,OR
529,24220,46.0,69.8,185.6,-120.530,47.034,ELLENSBURG,WA
530,24221,50.7,66.4,275.0,-123.214,44.133,EUGENE,OR
531,24222,51.9,63.3,332.9,-122.280,47.908,EVERETT,WA
532,24225,47.5,73.1,171.4,-122.871,42.389,MEDFORD,OR
533,24227,51.5,63.2,328.0,-122.903,46.973,OLYMPIA,WA
534,24229,52.3,68.2,273.8,-122.600,45.591,PORTLAND,OR
535,24230,38.9,63.1,175.1,-121.150,44.254,REDMOND,OR
536,24231,51.6,70.1,243.5,-123.355,43.239,ROSEBURG,OR
537,24232,50.1,67.4,255.3,-122.995,44.908,SALEM,OR
538,24233,51.6,65.4,299.6,-122.314,47.461,SEATTLE,WA
539,24234,51.6,66.6,284.2,-122.301,47.530,SEATTLE,WA
540,24235,47.1,64.3,254.0,-123.381,42.617,SEXTON SUMMIT,OR
541,24237,45.4,56.4,333.5,-121.337,47.293,STAMPEDE PASS,WA
542,24242,53.0,67.4,292.9,-122.400,45.549,PORTLAND,OR
543,24243,45.4,69.0,186.8,-120.534,46.564,YAKIMA,WA
544,24255,51.1,57.8,406.3,-122.650,48.350,WHIDBEY ISLAND,WA
545,24257,45.9,78.9,116.0,-122.313,40.515,REDDING,CA
546,24259,42.2,69.7,151.1,-122.468,41.781,MONTAGUE,CA
547,24283,51.2,55.6,448.2,-124.109,40.978,ARCATA/EUREKA,CA
548,24286,51.7,56.3,444.5,-124.237,41.780,CRESCENT CITY,CA
549,25308,52.9,60.6,390.3,-131.570,55.043,ANNETTE,AK
550,25309,51.5,56.9,429.7,-134.575,58.355,JUNEAU,AK
551,25323,51.5,58.0,410.0,-135.520,59.245,HAINES,AK
552,25325,52.5,59.8,397.0,-131.712,55.357,KETCHIKAN,AK
553,25331,48.9,56.6,388.4,-149.092,61.596,PALMER,AK
554,25333,52.4,57.4,437.7,-135.360,57.048,SITKA,AK
555,25335,50.3,56.6,413.1,-135.313,59.460,SKAGWAY,AK
556,25339,51.5,56.5,437.1,-139.628,59.510,YAKUTAT,AK
557,25501,48.4,55.3,401.3,-152.492,57.750,KODIAK,AK
558,25503,49.0,53.1,453.1,-156.654,58.684,KING SALMON,AK
559,25506,48.0,53.4,428.5,-154.915,59.753,ILIAMNA,AK
560,25507,49.1,52.4,469.1,-151.477,59.647,HOMER,AK
561,25516,48.6,53.9,430.3,-151.702,59.443,SELDOVIA,AK
562,25624,48.0,50.9,477.2,-162.722,55.207,COLD BAY,AK
563,25713,46.4,47.7,510.4,-170.220,57.163,ST PAUL ISLAND,AK
564,26409,49.9,55.9,418.0,-149.855,61.217,ANCHORAGE,AK
565,26410,49.9,53.5,463.6,-145.451,60.489,CORDOVA,AK
566,26411,48.5,59.9,330.5,-147.855,64.817,FAIRBANKS,AK
567,26412,47.0,56.7,354.5,-141.946,62.961,NORTHWAY,AK
568,26415,45.6,58.2,310.7,-145.718,63.995,DELTA JUNCTION/FT GREELY,AK
569,26422,46.3,54.8,373.6,-141.148,64.777,EAGLE,AK
570,26425,44.8,55.5,337.9,-145.458,62.160,GULKANA,AK
571,26451,50.9,56.7,422.3,-149.993,61.175,ANCHORAGE,AK
572,26491,50.3,59.3,368.1,-149.961,61.179,ANCHORAGE,AK
573,26492,48.0,52.0,455.0,-148.839,60.785,PORTAGE GLACIER,AK
574,26502,49.5,54.9,429.1,-158.742,64.327,KALTAG,AK
575,26510,48.9,56.3,393.3,-155.603,62.953,MC GRATH,AK
576,26523,50.5,57.0,409.4,-151.239,60.580,KENAI,AK
577,26528,50.3,57.1,404.4,-150.092,62.322,TALKEETNA,AK
578,26529,49.0,56.9,384.7,-152.107,65.174,TANANA,AK
579,26533,46.9,56.2,360.7,-151.509,66.916,BETTLES,AK
580,26615,48.4,53.2,439.6,-161.826,60.786,BETHEL,AK
581,26616,49.1,54.9,421.7,-162.597,66.885,KOTZEBUE,AK
582,26617,46.9,51.3,447.0,-165.443,64.513,NOME,AK
583,26642,48.2,52.2,455.0,-164.548,67.732,KIVALINA,AK
584,26643,47.1,51.9,438.9,-162.764,66.069,DEERING,AK
585,27406,42.5,46.6,450.7,-148.477,70.192,DEADHORSE,AK
586,27515,43.3,47.9,441.4,-151.002,70.212,NUIQSUT,AK
589,53119,52.6,76.8,188.7,-119.629,36.319,HANFORD,CA
590,53120,52.0,72.0,228.1,-116.917,33.033,RAMONA,CA
591,53121,57.8,68.7,344.0,-117.349,33.219,OCEANSIDE,CA
592,53123,37.0,89.2,21.6,-115.196,36.212,LAS VEGAS,NV
593,53144,34.1,80.4,39.5,-117.865,34.988,EDWARDS,CA
594,53802,67.1,77.0,365.0,-88.280,39.478,MATTOON/CHARLESTON,IL
595,53819,71.5,81.9,360.0,-84.567,33.355,ATLANTA,GA
596,53820,74.2,82.9,386.6,-87.044,31.416,EVERGREEN,AL
597,53838,70.7,80.5,368.7,-83.830,34.272,GAINESVILLE,GA
598,53841,65.9,78.3,329.2,-84.903,38.185,FRANKFORT,KY
599,53842,64.1,78.2,305.8,-86.296,39.825,INDIANAPOLIS,IN
600,53843,72.9,85.4,332.9,-86.394,31.309,ANDALUSIA (FT RUCKER),AL
601,53844,64.5,73.5,376.7,-82.657,39.756,LANCASTER,OH
602,53847,72.8,85.9,324.9,-87.023,30.704,MILTON,FL
603,53848,73.6,83.4,369.9,-86.960,30.507,MILTON,FL
604,53850,71.2,82.9,342.2,-82.886,34.672,CLEMSON,SC
605,53852,69.2,83.1,312.0,-86.945,34.653,DECATUR,AL
606,53853,75.3,84.3,382.9,-86.472,30.400,DESTIN,FL
607,53854,73.3,82.6,377.3,-80.858,33.462,ORANGEBURG,SC
608,53855,64.6,76.7,332.3,-84.525,39.364,HAMILTON,OH
609,53858,75.8,83.5,402.6,-88.532,30.464,PASCAGOULA,MS
610,53859,64.0,75.9,334.2,-84.226,39.594,DAYTON,OH
611,53860,74.6,83.8,379.2,-81.515,30.336,JACKSONVILLE,FL
612,53862,75.1,82.8,402.6,-83.574,30.072,PERRY-FOLEY,FL
613,53863,69.7,82.8,322.4,-84.302,33.875,ATLANTA,GA
614,53864,71.5,83.4,339.7,-86.782,33.178,ALABASTER,AL
615,53865,75.4,83.9,390.3,-89.821,30.345,SLIDELL,LA
616,53866,65.0,75.6,353.3,-85.803,39.578,SHELBYVILLE,IN
617,53867,72.1,82.3,363.7,-80.996,33.971,COLUMBIA,SC
618,53868,70.6,78.3,400.1,-84.233,36.023,OAK RIDGE,TN
619,53869,71.2,82.9,342.2,-89.831,35.940,BLYTHEVILLE,AR
620,53870,69.5,80.6,349.0,-81.156,35.197,GASTONIA,NC
621,53871,69.7,80.7,350.8,-81.058,34.987,ROCK HILL,SC
622,53873,71.4,81.9,358.8,-84.849,34.123,CARTERSVILLE,GA
623,53874,72.1,81.2,379.8,-82.159,34.249,GREENWOOD,SC
624,53879,66.9,80.6,312.6,-94.371,38.960,LEE'S SUMMIT,MO
625,53901,65.9,81.7,286.1,-91.903,36.878,WEST PLAINS,MO
626,53902,72.7,85.4,329.8,-95.414,30.352,CONROE,TX
627,53903,70.5,87.6,275.0,-95.587,30.747,HUNTSVILLE,TX
628,53904,69.2,79.9,354.5,-90.428,38.929,ST CHARLES,MO
629,53905,71.8,87.2,295.9,-93.744,32.540,SHREVEPORT,LA
630,53907,68.0,86.4,259.0,-97.094,32.664,ARLINGTON,TX
631,53908,68.4,85.2,276.8,-95.984,36.039,TULSA,OK
632,53909,66.9,89.6,215.2,-97.318,32.973,FORT WORTH,TX
633,53910,73.0,85.8,328.6,-95.553,30.062,HOUSTON,TX
634,53911,65.7,88.9,209.6,-96.267,32.710,TERRELL,TX
635,53912,70.5,87.9,271.9,-96.398,32.027,CORSICANA,TX
636,53913,66.5,85.8,248.5,-97.416,35.850,GUTHRIE,OK
637,53914,69.6,87.4,267.0,-96.590,33.180,MC KINNEY,TX
638,53915,75.8,84.8,382.9,-91.884,30.038,NEW IBERIA,LA
639,53916,69.3,80.6,346.5,-93.579,39.823,CHILLICOTHE,MO
640,53918,68.6,82.0,318.1,-92.470,36.369,MOUNTAIN HOME,AR
641,53919,72.4,85.7,321.8,-91.751,33.638,MONTICELLO,AR
642,53920,69.5,86.7,273.1,-93.095,35.258,RUSSELLVILLE,AR
643,53921,69.6,84.0,306.4,-93.578,34.547,MOUNT IDA,AR
644,53922,65.8,82.8,272.5,-94.307,36.282,FAYETTEVILLE/SPRINGDALE,AR
645,53925,72.0,84.5,332.3,-94.399,34.047,DE QUEEN,AR
646,53959,72.4,82.2,369.3,-90.234,35.135,WEST MEMPHIS,AR
647,53988,73.7,86.5,329.2,-92.967,31.150,FORT POLK,LA
648,53989,66.0,86.3,237.4,-96.926,39.294,FORT RILEY,KS
649,54704,58.1,70.5,323.1,-71.174,42.191,NORWOOD,MA
650,54728,57.4,63.2,425.4,-71.545,44.368,WHITEFIELD,NH
651,54733,59.3,70.6,339.7,-70.918,42.584,BEVERLY,MA
652,54734,61.7,71.1,368.7,-73.483,41.371,DANBURY,CT
653,54737,63.0,74.6,337.9,-76.294,40.120,LANCASTER,PA
654,54740,58.1,69.0,344.0,-72.518,43.344,SPRINGFIELD,VT
655,54742,57.5,66.3,375.5,-72.019,44.419,SAINT JOHNSBURY,VT
656,54743,62.8,74.2,340.3,-74.283,40.876,CALDWELL,NJ
657,54756,58.6,69.6,343.4,-72.291,42.570,ORANGE,MA
658,54757,58.9,67.0,387.2,-77.992,42.109,WELLSVILLE,NY
659,54767,61.3,71.2,361.3,-72.184,41.742,WILLIMANTIC,CT
660,54768,59.5,68.5,373.6,-73.171,42.696,NORTH ADAMS,MA
661,54769,60.9,72.9,331.1,-70.729,41.910,PLYMOUTH,MA
662,54770,57.4,67.5,355.7,-72.004,42.805,JAFFREY,NH
663,54771,58.0,66.5,380.4,-72.614,44.534,MORRISVILLE,VT
664,54772,57.4,67.9,349.6,-70.948,43.991,FRYEBURG,ME
665,54773,61.6,69.4,393.9,-76.385,43.350,FULTON,NY
666,54777,61.7,69.9,387.2,-71.021,41.876,TAUNTON,MA
667,54778,61.4,70.5,373.0,-77.056,42.643,PENN YAN,NY
668,54779,62.3,71.5,372.4,-74.737,41.009,ANDOVER,NJ
669,54780,62.8,73.1,356.3,-71.923,41.073,MONTAUK,NY
670,54781,59.5,68.4,374.8,-73.247,42.891,BENNINGTON,VT
671,54782,63.2,76.4,316.3,-75.557,40.238,POTTSTOWN,PA
672,54785,63.4,73.6,358.2,-74.669,40.624,SOMERVILLE,NJ
673,54786,62.3,74.0,336.0,-75.123,40.330,DOYLESTOWN,PA
674,54788,61.9,72.3,353.9,-72.828,41.510,MERIDEN,CT
675,54789,58.2,68.3,356.3,-75.379,41.139,MOUNT POCONO,PA
676,54790,64.2,75.3,345.9,-72.869,40.822,SHIRLEY,NY
677,54791,57.0,69.9,315.7,-70.922,43.278,ROCHESTER,NH
678,54792,59.6,69.3,363.1,-78.412,41.047,CLEARFIELD,PA
679,54793,61.7,71.2,367.4,-74.623,41.200,SUSSEX,NJ
680,54813,61.9,69.5,397.0,-86.651,46.429,MUNISING,MI
681,63870,74.6,84.7,366.2,-86.312,31.043,FLORALA,AL
682,63872,72.7,85.3,331.1,-85.129,31.951,EUFAULA,AL
683,64775,60.7,69.4,379.2,-75.412,43.234,ROME,NY
684,64776,59.3,68.5,370.5,-73.468,44.651,PLATTSBURG,NY
685,73805,76.5,83.6,412.4,-85.788,30.349,PANAMA CITY,FL
686,92762,62.3,77.2,294.1,-77.430,39.734,SITE R,PA
687,92805,76.0,84.7,387.8,-80.108,26.250,POMPANO BEACH,FL
688,92806,76.1,85.1,383.5,-82.628,27.765,ST PETERSBURG,FL
689,92809,74.9,85.4,361.3,-80.241,25.999,HOLLYWOOD,FL
690,93005,47.9,66.6,238.0,-107.760,37.143,DURANGO,CO
691,93009,37.6,53.9,255.9,-106.316,39.228,LEADVILLE,CO
692,93010,50.9,68.9,248.5,-103.716,39.189,LIMON,CO
693,93013,47.8,70.8,194.9,-107.898,38.505,MONTROSE,CO
694,93026,62.0,79.8,260.2,-109.604,31.469,DOUGLAS BISBEE,AZ
695,93027,52.4,72.6,226.3,-109.379,34.518,ST JOHNS,AZ
696,93033,60.6,80.9,232.5,-104.263,32.338,CARLSBAD,NM
697,93037,48.8,70.9,204.1,-104.711,38.812,COLORADO SPRINGS,CO
698,93042,58.2,77.0,246.0,-102.547,36.023,DALHART,TX
699,93045,53.9,78.8,183.8,-107.268,33.237,TRUTH OR CONSEQUENCES,NM
700,93057,49.7,67.6,248.5,-107.902,35.165,GRANTS,NM
701,93058,51.3,74.2,199.2,-104.498,38.290,PUEBLO,CO
702,93067,46.5,72.1,170.8,-104.849,39.570,DENVER,CO
703,93069,50.5,68.3,250.3,-108.628,37.303,CORTEZ,CO
704,93073,42.6,58.8,261.4,-106.868,39.223,ASPEN,CO
705,93075,42.8,75.4,116.0,-109.754,38.755,MOAB,UT
706,93084,57.6,83.9,175.7,-109.635,32.855,SAFFORD,AZ
707,93102,30.9,69.7,69.1,-118.700,39.417,FALLON,NV
708,93104,34.4,83.2,30.9,-117.683,35.683,CHINA LAKE,CA
709,93107,56.6,70.3,305.2,-117.150,32.867,MIRAMAR,CA
710,93110,54.7,62.2,394.6,-119.206,34.201,OXNARD,CA
711,93111,55.3,60.6,433.4,-119.117,34.117,POINT MUGU,CA
712,93112,57.6,70.2,320.0,-117.200,32.700,SAN DIEGO,CA
713,93115,58.1,64.2,420.5,-117.117,32.567,IMPERIAL BEACH,CA
714,93129,40.5,71.2,125.8,-113.097,37.702,CEDAR CITY,UT
715,93138,47.4,91.4,60.5,-116.505,33.828,PALM SPRINGS,CA
716,93141,39.1,70.8,117.8,-110.750,39.545,PRICE,UT
717,93167,41.8,82.9,67.9,-113.937,35.259,KINGMAN,AZ
718,93184,55.7,72.3,268.2,-117.866,33.680,SANTA ANA,CA
719,93193,49.8,79.9,139.4,-119.719,36.780,FRESNO,CA
720,93197,55.2,65.2,355.7,-118.451,34.016,SANTA MONICA,CA
721,93205,51.2,72.6,213.3,-121.570,39.098,MARYSVILLE,CA
722,93206,52.2,64.8,316.3,-120.641,35.237,SAN LUIS OBISPO,CA
723,93210,51.1,76.1,180.1,-121.618,39.490,OROVILLE,CA
724,93225,52.6,72.3,231.8,-121.590,38.696,SACRAMENTO,CA
725,93227,52.2,63.5,334.2,-122.280,38.213,NAPA,CA
726,93228,52.6,64.9,320.6,-122.121,37.659,HAYWARD,CA
727,93230,35.0,60.0,164.0,-119.995,38.894,SOUTH LAKE TAHOE,CA
728,93241,50.2,73.4,195.5,-121.961,38.377,VACAVILLE,CA
729,93242,52.2,75.6,195.5,-120.111,36.988,MADERA,CA
730,93706,61.2,77.5,276.8,-77.730,39.708,HAGERSTOWN,MD
731,93718,74.9,81.6,418.0,-78.721,33.816,NORTH MYRTLE BEACH,SC
732,93719,71.6,80.5,382.2,-77.047,35.068,NEW BERN,NC
733,93720,67.3,77.1,366.2,-75.510,38.341,SALISBURY,MD
734,93721,65.5,77.4,335.4,-76.684,39.172,BALTIMORE,MD
735,93729,73.9,79.2,440.8,-75.623,35.232,CAPE HATTERAS,NC
736,93730,65.5,76.9,342.2,-74.457,39.458,ATLANTIC CITY,NJ
737,93736,66.9,77.3,357.6,-78.453,38.139,CHARLOTTESVILLE,VA
738,93738,65.7,77.0,344.0,-77.448,38.935,WASHINGTON,DC
739,93739,67.7,77.5,366.8,-75.496,37.941,WALLOPS ISLAND,VA
740,93740,69.8,82.5,328.0,-78.880,34.991,FAYETTEVILLE,NC
741,93741,69.6,79.3,369.3,-76.493,37.132,NEWPORT NEWS,VA
742,93743,72.2,79.6,405.7,-77.030,34.691,SWANSBORO,NC
743,93759,69.2,80.3,349.0,-77.893,35.855,ROCKY MOUNT,NC
744,93765,72.0,80.1,394.6,-76.661,34.734,BEAUFORT,NC
745,93773,67.8,79.6,338.5,-77.007,36.984,WAKEFIELD,VA
746,93775,67.9,79.8,337.2,-77.434,37.708,RICHMOND/ASHLAND,VA
747,93778,63.9,73.7,364.4,-76.874,39.918,YORK,PA
748,93780,63.3,75.7,327.4,-74.841,39.941,MOUNT HOLLY,NJ
749,93782,71.3,81.3,365.6,-79.366,34.792,MAXTON,NC
750,93783,69.4,79.2,367.4,-79.477,36.047,BURLINGTON,NC
751,93784,65.1,80.7,287.9,-76.610,39.281,BALTIMORE,MD
752,93785,68.7,80.9,333.5,-79.064,35.933,CHAPEL HILL,NC
753,93786,70.5,76.0,435.9,-75.124,38.308,OCEAN CITY,MD
754,93801,70.8,83.0,335.4,-85.161,34.348,ROME,GA
755,93805,74.9,84.2,377.9,-84.353,30.393,TALLAHASSEE,FL
756,93806,72.0,85.3,321.8,-87.616,33.212,TUSCALOOSA,AL
757,93807,67.8,79.0,346.5,-80.222,36.134,WINSTON SALEM,NC
758,93808,68.6,80.7,334.8,-86.436,36.981,BOWLING GREEN,KY
759,93810,67.6,80.1,328.6,-89.250,37.780,CARBONDALE/MURPHYBORO,IL
760,93812,66.4,77.3,350.2,-84.419,39.103,CINCINNATI,OH
761,93814,64.5,78.1,312.6,-84.672,39.043,COVINGTON,KY
762,93815,62.6,75.8,316.3,-84.219,39.906,DAYTON,OH
763,93817,65.4,81.4,283.6,-87.537,38.043,EVANSVILLE,IN
764,93819,64.3,79.6,291.0,-86.272,39.710,INDIANAPOLIS,IN
765,93820,63.8,78.1,302.7,-84.606,38.041,LEXINGTON,KY
766,93821,66.0,82.8,275.0,-85.730,38.177,LOUISVILLE,KY
767,93822,67.5,78.4,350.8,-89.684,39.845,SPRINGFIELD,IL
768,93824,63.7,74.6,348.3,-81.892,39.944,ZANESVILLE,OH
769,93831,74.9,83.6,387.2,-80.717,32.483,BEAUFORT,SC
770,93837,74.5,85.4,355.1,-81.683,30.233,JACKSONVILLE,FL
771,93841,73.6,84.7,352.0,-87.022,30.724,MILTON,FL
772,93842,70.8,85.4,304.6,-84.942,32.516,COLUMBUS,GA
773,93845,74.6,83.7,381.0,-83.277,30.783,VALDOSTA,GA
774,93846,69.8,81.6,339.7,-82.709,34.495,ANDERSON,SC
775,93862,72.5,84.3,341.6,-88.771,34.261,TUPELO,MS
776,93874,76.0,86.5,361.9,-89.070,30.407,GULFPORT,MS
777,93909,65.5,80.5,295.3,-94.890,38.831,OLATHE,KS
778,93915,73.1,85.7,331.7,-92.559,31.335,ALEXANDRIA,LA
779,93919,72.5,82.4,368.1,-90.472,31.178,MCCOMB,MS
780,93950,67.2,86.2,252.2,-95.783,34.899,MC ALESTER,OK
781,93953,67.8,85.3,268.8,-95.361,35.657,MUSKOGEE,OK
782,93967,67.5,83.8,281.8,-95.566,37.091,COFFEYVILLE,KS
783,93985,65.9,87.3,226.9,-98.061,32.782,MINERAL WELLS,TX
784,93986,63.7,87.1,205.9,-99.051,35.008,HOBART,OK
785,93987,71.5,87.8,284.8,-94.750,31.234,LUFKIN,TX
786,93988,72.3,85.1,328.6,-91.935,34.175,PINE BLUFF,AR
787,93989,68.1,77.6,371.1,-91.194,39.943,QUINCY,IL
788,93990,60.5,79.4,247.2,-99.830,39.376,HILL CITY,KS
789,93992,72.2,85.2,325.5,-92.813,33.221,EL DORADO,AR
790,93993,66.5,81.8,292.9,-94.170,36.005,FAYETTEVILLE,AR
791,93997,63.6,80.3,273.8,-98.828,38.872,RUSSELL,KS
792,94008,50.2,69.7,231.2,-106.621,48.214,GLASGOW,MT
793,94012,45.9,66.1,220.1,-109.780,48.559,HAVRE,MT
794,94014,54.5,68.9,294.1,-103.642,48.195,WILLISTON,ND
795,94017,52.1,69.1,260.8,-105.574,48.094,WOLF POINT,MT
796,94023,45.0,69.2,181.3,-105.542,44.339,GILLETTE,WY
797,94030,44.1,69.7,168.3,-109.509,40.441,VERNAL,UT
798,94032,45.3,65.8,216.4,-103.628,43.731,CUSTER,SD
799,94037,51.4,70.3,239.2,-103.546,45.604,BUFFALO,SD
800,94038,53.1,68.5,280.5,-102.655,46.014,HETTINGER,ND
801,94039,52.5,74.0,213.3,-102.518,43.021,PINE RIDGE,SD
802,94040,60.8,76.3,286.1,-100.591,40.206,MC COOK,NE
803,94041,56.6,68.4,330.5,-101.439,47.663,GARRISON,ND
804,94050,42.8,64.6,201.0,-107.885,40.049,MEEKER,CO
805,94051,46.1,69.0,194.2,-106.948,47.326,JORDAN,MT
806,94052,58.0,73.4,284.8,-100.408,45.546,MOBRIDGE,SD
807,94053,48.5,74.2,172.0,-104.153,42.065,TORRINGTON,WY
808,94054,43.9,68.9,173.3,-106.721,44.381,BUFFALO,WY
809,94055,49.7,69.7,225.7,-104.250,46.358,BAKER,MT
810,94056,55.4,73.3,253.4,-102.019,45.032,FAITH,SD
811,94057,42.3,70.4,146.8,-105.386,42.797,DOUGLAS,WY
812,94119,43.7,63.6,221.4,-117.421,47.969,DEER PARK,WA
813,94128,43.4,68.7,170.2,-111.853,41.787,LOGAN,UT
814,94129,40.2,64.4,176.4,-117.109,46.744,PULLMAN/MOSCOW,WA
815,94173,36.2,52.3,257.1,-110.421,44.544,YELLOWSTONE,WY
816,94176,44.2,68.9,175.7,-117.321,47.683,SPOKANE,WA
817,94178,39.4,71.2,117.8,-114.487,42.482,TWIN FALLS,ID
818,94182,38.6,60.0,201.0,-116.102,44.889,MCCALL,ID
819,94185,35.0,62.8,141.8,-118.954,43.592,BURNS,OR
820,94194,43.1,65.2,198.6,-111.881,43.834,REXBURG,ID
821,94197,43.2,70.0,157.9,-119.517,48.464,OMAK,WA
822,94224,53.4,60.2,405.7,-123.878,46.158,ASTORIA,OR
823,94225,53.0,59.2,416.1,-123.937,46.971,HOQUIAM,WA
824,94227,51.4,62.8,332.3,-123.148,47.238,SHELTON,WA
825,94236,40.4,63.5,186.8,-121.724,42.147,KLAMATH FALLS,OR
826,94239,44.9,71.8,158.5,-120.207,47.399,WENATCHEE,WA
827,94240,51.3,58.4,399.5,-124.561,47.934,QUILLAYUTE,WA
828,94248,53.4,65.9,318.1,-122.214,47.493,RENTON,WA
829,94261,51.1,64.9,299.0,-122.949,45.541,PORTLAND,OR
830,94266,49.5,58.8,362.5,-123.498,48.120,PORT ANGELES,WA
831,94273,51.4,65.4,296.6,-123.134,45.195,MC MINNVILLE,OR
832,94274,51.9,63.9,324.3,-122.576,47.268,TACOMA,WA
833,94276,50.4,60.0,358.2,-123.023,48.522,FRIDAY HARBOR,WA
834,94281,51.5,67.3,274.4,-122.769,45.249,AURORA,OR
835,94298,52.3,68.1,275.0,-122.657,45.621,VANCOUVER,WA
836,94299,35.3,63.9,135.7,-120.567,41.483,ALTURAS,CA
837,94623,59.2,67.5,384.1,-69.712,43.964,WISCASSET,ME
838,94624,63.1,71.2,389.6,-69.993,41.688,CHATHAM,MA
839,94626,54.9,65.2,350.8,-69.595,45.462,GREENVILLE,ME
840,94700,55.3,63.7,380.4,-71.179,44.576,BERLIN,NH
841,94702,62.5,75.2,322.4,-73.146,41.175,BRIDGEPORT,CT
842,94704,61.7,72.3,350.8,-77.713,42.571,DANSVILLE,NY
843,94705,56.7,65.9,368.7,-72.579,44.203,BARRE/MONTPELIER,VT
844,94720,62.5,70.3,393.9,-70.280,41.669,HYANNIS,MA
845,94723,58.2,73.1,291.0,-71.124,42.717,LAWRENCE,MA
846,94724,62.5,72.4,361.9,-70.615,41.393,VINEYARD HAVEN,MA
847,94725,60.3,68.6,384.7,-74.846,44.936,MASSENA,NY
848,94726,61.7,71.7,360.0,-70.958,41.676,NEW BEDFORD,MA
849,94728,61.8,77.5,284.2,-73.967,40.783,NEW YORK,NY
850,94732,63.8,77.0,316.9,-75.011,40.082,PHILADELPHIA,PA
851,94740,55.1,63.3,383.5,-74.207,44.385,SARANAC LAKE,NY
852,94741,60.9,76.1,289.8,-74.061,40.850,TETERBORO,NJ
853,94745,60.4,72.0,336.0,-73.708,41.067,WHITE PLAINS,NY
854,94746,59.0,70.1,342.2,-71.876,42.267,WORCESTER,MA
855,94765,57.9,69.6,332.9,-72.305,43.626,LEBANON,NH
856,94789,62.3,76.2,307.0,-73.796,40.655,NEW YORK,NY
857,94790,60.4,69.4,374.2,-76.022,43.992,WATERTOWN,NY
858,94814,61.3,70.0,379.2,-84.691,44.368,HOUGHTON LAKE,MI
859,94815,63.6,74.0,355.1,-85.552,42.235,KALAMAZOO,MI
860,94817,62.3,74.3,331.7,-83.418,42.665,PONTIAC,MI
861,94818,64.7,75.5,350.2,-87.814,42.761,RACINE,WI
862,94822,64.2,74.6,355.7,-89.093,42.196,ROCKFORD,IL
863,94823,60.5,74.4,305.2,-80.231,40.501,PITTSBURGH,PA
864,94830,63.0,74.1,344.6,-83.801,41.589,TOLEDO,OH
865,94846,64.1,83.5,244.8,-87.914,41.986,CHICAGO,IL
866,94847,63.6,75.3,336.6,-83.349,42.215,DETROIT,MI
867,94849,60.9,69.8,376.1,-83.581,45.072,ALPENA,MI
868,94855,63.4,72.9,368.1,-88.557,43.984,OSHKOSH,WI
869,94860,63.3,74.9,337.9,-85.523,42.882,GRAND RAPIDS,MI
870,94870,66.6,76.5,364.4,-88.278,40.040,CHAMPAIGN/URBANA,IL
871,94871,64.8,73.4,382.9,-86.422,42.129,BENTON HARBOR,MI
872,94889,63.1,71.7,381.6,-83.744,42.223,ANN ARBOR,MI
873,94892,65.2,74.9,366.2,-88.246,41.914,CHICAGO/WEST CHICAGO,IL
874,94893,60.5,69.6,372.4,-88.114,45.818,IRON MOUNTAIN/KINGSFORD,MI
875,94895,64.4,74.7,357.0,-85.394,40.234,MUNCIE,IN
876,94898,63.3,72.6,371.1,-82.793,44.022,HARBOR BEACH,MI
877,94899,59.1,69.3,355.1,-87.875,47.467,COPPER HARBOR,MI
878,94908,65.5,72.9,402.0,-90.704,42.398,DUBUQUE,IA
879,94910,67.0,74.0,409.4,-92.401,42.554,WATERLOO,IA
880,94929,61.5,68.8,402.0,-90.919,46.549,ASHLAND,WI
881,94931,58.7,66.9,385.9,-92.839,47.387,HIBBING,MN
882,94938,59.4,71.2,332.3,-94.131,46.405,BRAINERD,MN
883,94943,61.2,76.3,291.0,-99.318,43.767,CHAMBERLAIN,SD
884,94946,62.9,73.0,359.4,-99.639,41.437,BROKEN BOW,NE
885,94949,64.4,76.8,328.0,-98.427,40.604,HASTINGS,NE
886,94950,64.6,75.5,349.0,-98.038,43.777,MITCHELL,SD
887,94957,68.6,77.8,376.1,-95.592,40.079,FALLS CITY,NE
888,94958,62.7,74.8,330.5,-98.952,41.624,ORD,NE
889,94960,63.3,75.6,328.6,-93.351,45.063,MINNEAPOLIS,MN
890,94961,58.0,67.1,371.1,-94.610,48.728,BAUDETTE,MN
891,94963,64.2,76.1,334.8,-93.470,44.832,MINNEAPOLIS,MN
892,94967,59.1,68.6,365.6,-95.068,46.901,PARK RAPIDS,MN
893,94971,66.3,73.1,412.4,-94.746,43.408,ESTHERVILLE,IA
894,94973,61.5,69.3,393.3,-91.444,46.026,HAYWARD,WI
895,94978,68.2,76.0,397.0,-96.178,41.764,TEKAMAH,NE
896,94982,65.5,74.5,377.3,-90.591,41.614,DAVENPORT,IA
897,94985,63.0,71.3,386.6,-90.189,44.637,MARSHFIELD,WI
898,94988,67.2,74.5,404.4,-92.918,42.113,MARSHALLTOWN,IA
899,94989,67.5,74.9,403.2,-93.622,41.992,AMES,IA
900,94991,67.8,76.6,381.6,-93.902,40.633,LAMONI,IA
901,94992,55.0,62.2,400.1,-90.344,47.747,GRAND MARAIS,MN
902,94993,62.5,72.2,365.0,-96.991,45.669,SISSETON,SD
903,94994,65.6,74.6,377.3,-90.678,43.156,BOSCOBEL,WI
