,wban,dewpt,tavg,wp,long,lat,stname,ststate
0,03013,15.6,27.4,297.8,-102.688,38.070,LAMAR,CO
1,03017,14.1,30.0,238.6,-104.658,39.833,DENVER,CO
2,03024,19.8,37.1,226.9,-101.394,35.700,BORGER,TX
3,03026,16.4,27.6,307.7,-102.284,39.245,BURLINGTON,CO
4,03027,12.9,30.7,214.0,-105.663,35.003,CLINES CORNERS,NM
5,03028,15.5,31.0,244.8,-102.614,37.283,SPRINGFIELD,CO
6,03029,13.1,26.0,278.7,-109.061,35.658,WINDOW ROCK,AZ
7,03030,18.5,34.1,246.6,-101.505,36.682,GUYMON,OK
8,03031,18.8,45.8,131.4,-102.387,31.921,ODESSA,TX
9,03032,25.2,50.2,154.2,-102.213,30.048,DRYDEN,TX
10,03068,12.0,25.3,271.9,-104.300,38.767,BULLSEYE,CO
11,03102,33.7,56.1,186.2,-117.600,34.056,ONTARIO,CA
12,03104,31.0,53.9,178.8,-116.160,33.628,PALM SPRINGS,CA
13,03124,21.9,47.4,146.8,-110.344,31.588,FORT HUACHUCA/SIERRA VISTA,AZ
14,03131,39.3,57.3,237.4,-117.139,32.816,SAN DIEGO,CA
15,03144,30.6,55.6,159.7,-115.579,32.834,IMPERIAL,CA
16,03145,24.8,59.1,87.6,-114.617,32.650,YUMA,AZ
17,03159,28.7,44.0,260.2,-118.219,34.741,LANCASTER,CA
18,03160,22.9,44.4,184.4,-116.028,36.621,MERCURY,NV
19,03162,17.2,35.8,209.0,-111.448,36.926,PAGE,AZ
20,03166,38.5,57.5,225.7,-117.979,33.872,FULLERTON,CA
21,03167,39.5,59.3,218.3,-118.334,33.923,HAWTHORNE,CA
22,03170,17.5,29.2,300.9,-116.006,39.601,EUREKA,NV
23,03171,32.7,57.8,160.9,-117.439,33.952,RIVERSIDE,CA
24,03177,38.6,59.6,204.7,-117.279,33.128,CARLSBAD,CA
25,03178,38.3,56.0,239.8,-116.979,32.572,SAN DIEGO,CA
26,03179,37.3,55.0,239.2,-117.636,33.975,CHINO,CA
27,03184,26.1,53.0,139.4,-112.082,33.688,PHOENIX,AZ
28,03192,28.0,53.6,152.3,-111.911,33.623,SCOTTSDALE,AZ
29,03195,13.6,28.1,256.5,-112.155,35.946,GRAND CANYON,AZ
30,03196,19.2,48.5,114.1,-110.846,31.421,NOGALES,AZ
31,03749,14.5,23.9,336.0,-77.468,39.645,CAMP DAVID,MD
32,03757,22.0,29.8,369.3,-76.429,38.142,ST INIGOES,MD
33,03804,19.0,26.8,367.4,-81.439,39.345,PARKERSBURG,WV
34,03810,22.7,36.1,280.5,-81.390,35.741,HICKORY,NC
35,03812,22.8,33.2,325.5,-82.538,35.432,ASHEVILLE,NC
36,03813,30.5,42.0,314.4,-83.654,32.688,MACON,GA
37,03816,22.5,31.5,349.0,-88.774,37.056,PADUCAH,KY
38,03818,35.9,47.3,320.6,-85.184,30.836,MARIANNA,FL
39,03820,30.4,41.7,317.5,-81.965,33.370,AUGUSTA,GA
40,03822,33.5,45.1,315.7,-81.202,32.119,SAVANNAH,GA
41,03847,24.0,31.5,376.7,-85.085,35.951,CROSSVILLE,TN
42,03849,23.2,30.8,374.2,-84.077,37.087,LONDON,KY
43,03855,38.6,48.7,342.8,-87.317,30.350,PENSACOLA,FL
44,03856,28.9,37.3,363.7,-86.786,34.644,HUNTSVILLE,AL
45,03859,19.4,29.6,326.1,-81.208,37.296,BLUEFIELD,WV
46,03860,21.5,29.8,360.0,-82.555,38.382,HUNTINGTON,WV
47,03866,30.8,43.3,300.3,-88.567,32.550,MERIDIAN,MS
48,03868,18.1,24.0,403.2,-87.309,39.452,TERRE HAUTE,IN
49,03870,25.7,38.7,288.5,-82.219,34.899,GREER,SC
50,03872,19.5,27.5,364.4,-81.125,37.795,BECKLEY,WV
51,03878,32.6,41.9,350.8,-86.012,31.861,TROY,AL
52,03887,17.1,23.4,395.2,-88.866,39.984,DECATUR,IL
53,03888,27.6,39.4,307.7,-84.521,33.779,ATLANTA,GA
54,03889,21.5,30.7,344.6,-83.314,37.591,JACKSON,KY
55,03893,18.4,25.1,387.8,-86.617,39.144,BLOOMINGTON,IN
56,03901,33.0,44.4,318.1,-94.711,32.385,LONGVIEW,TX
57,03902,34.7,49.8,268.2,-97.822,31.070,FORT HOOD/KILLEEN,TX
58,03904,35.9,49.9,283.6,-96.364,30.588,COLLEGE STATION,TX
59,03919,16.9,26.2,339.1,-97.661,38.813,SALINA,KS
60,03927,29.5,42.8,287.9,-97.041,32.896,DALLAS-FORT WORTH,TX
61,03928,17.7,28.9,308.9,-97.429,37.647,WICHITA,KS
62,03931,35.7,47.2,318.7,-93.192,31.045,FORT POLK,LA
63,03932,20.6,35.8,254.0,-99.200,35.340,CLINTON,OK
64,03935,22.7,31.0,361.3,-89.571,37.225,CAPE GIRARDEAU,MO
65,03936,15.1,23.8,348.3,-96.678,39.135,MANHATTAN,KS
66,03937,39.3,50.3,329.2,-93.228,30.125,LAKE CHARLES,LA
67,03940,32.9,43.9,324.3,-90.078,32.320,JACKSON,MS
68,03945,17.2,24.7,371.8,-92.218,38.817,COLUMBIA,MO
69,03947,16.2,22.8,388.4,-94.718,39.299,KANSAS CITY,MO
70,03950,21.5,36.2,261.4,-98.416,34.568,LAWTON,OK
71,03953,25.6,35.6,334.2,-90.646,35.831,JONESBORO,AR
72,03954,20.8,35.6,259.6,-97.647,35.534,OKLAHOMA CITY,OK
73,03957,19.5,30.2,318.1,-98.553,37.284,MEDICINE LODGE,KS
74,03959,19.7,32.3,289.2,-96.011,36.762,BARTLESVILLE,OK
75,03960,19.4,26.8,375.5,-90.157,38.571,CAHOKIA/ST.LOUIS,IL
76,03962,27.4,39.1,308.9,-93.096,34.478,HOT SPRINGS,AR
77,03963,17.6,26.9,339.7,-92.156,38.591,JEFFERSON CITY,MO
78,03965,20.4,33.8,278.1,-97.086,36.160,STILLWATER,OK
79,03966,18.4,26.0,370.5,-90.656,38.657,ST LOUIS,MO
80,03967,16.6,24.2,369.3,-94.739,38.850,OLATHE,KS
81,03971,29.4,44.2,267.6,-96.868,32.681,DALLAS,TX
82,03974,18.1,28.9,315.7,-97.219,37.750,WICHITA,KS
83,03975,23.6,32.7,347.7,-90.325,36.773,POPLAR BLUFF,MO
84,03981,22.3,38.7,240.5,-98.984,34.352,FREDERICK,OK
85,03991,29.0,39.8,324.3,-97.199,33.206,DENTON,TX
86,03994,17.4,26.5,343.4,-93.183,38.704,SEDALIA,MO
87,03996,33.1,43.3,336.6,-91.030,32.348,TALLULAH/VICKSBURG,MS
88,03997,15.0,22.5,370.5,-95.212,39.008,LAWRENCE,KS
89,03998,18.6,29.0,322.4,-95.504,37.328,PARSONS,KS
90,03999,31.4,45.8,274.4,-98.235,30.741,BURNET,TX
91,04109,29.5,33.0,458.7,-115.596,46.144,ELK CITY,ID
92,04110,21.3,26.1,427.9,-114.456,42.727,JEROME,ID
93,04111,13.6,19.2,406.9,-111.031,41.273,EVANSTON,WY
94,04112,9.2,14.9,402.6,-114.927,44.171,STANLEY,ID
95,04113,29.4,35.9,398.3,-119.261,45.826,HERMISTON,OR
96,04114,13.0,18.7,404.4,-114.215,41.523,CHALLIS,ID
97,04201,36.9,38.9,493.2,-122.861,45.773,SCAPPOOSE,OR
98,04724,15.8,20.8,420.5,-78.945,43.107,NIAGARA FALLS,NY
99,04726,13.8,19.8,398.9,-78.834,40.301,JOHNSTOWN,PA
100,04751,13.0,17.0,441.4,-78.640,41.803,BRADFORD,PA
101,04780,13.7,23.1,335.4,-71.756,42.552,FITCHBURG,MA
102,04781,17.2,27.1,329.2,-73.102,40.794,ISLIP,NY
103,04787,15.4,20.6,416.1,-78.899,41.178,DU BOIS,PA
104,04803,4.9,10.2,408.7,-89.465,45.631,RHINELANDER,WI
105,04804,17.7,23.7,401.3,-83.078,40.078,COLUMBUS,OH
106,04808,13.6,18.8,415.5,-88.481,41.770,CHICAGO/AURORA,IL
107,04826,7.6,12.6,416.8,-89.837,44.359,WISCONSIN RAPIDS,WI
108,04836,7.4,12.1,422.9,-68.307,47.286,FRENCHVILLE,ME
109,04838,13.0,21.5,350.2,-87.905,42.121,CHICAGO/PROSPECT HGTS/WHEELI,IL
110,04839,15.0,23.1,359.4,-86.097,42.746,HOLLAND,MI
111,04840,9.8,14.7,419.8,-88.486,43.770,FOND DU LAC,WI
112,04841,10.6,15.6,418.0,-87.851,43.769,SHEBOYGAN,WI
113,04842,15.7,20.6,422.9,-81.887,40.875,WOOSTER,OH
114,04843,14.7,20.7,399.5,-80.215,41.626,MEADVILLE,PA
115,04845,12.6,18.5,400.1,-87.938,42.595,KENOSHA,WI
116,04846,15.2,20.2,420.5,-87.006,41.453,VALPARAISO,IN
117,04847,15.5,20.2,427.2,-84.079,41.868,ADRIAN,MI
118,04848,15.9,21.5,408.1,-83.476,41.563,TOLEDO,OH
119,04849,16.5,22.2,406.9,-82.179,41.179,LORAIN/ELYRIA,OH
120,04850,16.4,21.2,425.4,-84.027,40.708,LIMA,OH
121,04853,17.6,24.6,381.6,-81.684,41.518,CLEVELAND,OH
122,04854,8.9,12.7,443.9,-84.701,45.013,GAYLORD,MI
123,04855,16.2,20.7,431.5,-83.064,40.616,MARION,OH
124,04857,15.9,20.6,427.2,-80.696,41.778,ASHTABULA,OH
125,04858,17.1,22.1,421.7,-82.463,40.023,NEWARK,OH
129,12812,51.5,60.6,366.8,-81.991,26.917,PUNTA GORDA,FL
130,12815,47.9,59.5,326.8,-81.325,28.434,ORLANDO,FL
131,12816,41.1,51.8,334.8,-82.272,29.690,GAINESVILLE,FL
132,12818,45.6,54.3,369.9,-82.454,28.474,BROOKSVILLE,FL
133,12819,45.5,56.6,332.3,-81.810,28.821,LEESBURG,FL
134,12832,40.8,49.2,371.8,-85.033,29.733,APALACHICOLA,FL
135,12833,40.9,49.6,366.8,-83.105,29.550,CROSS CITY,FL
136,12834,45.5,55.2,353.9,-81.060,29.177,DAYTONA BEACH,FL
137,12835,52.2,62.8,344.6,-81.864,26.586,FORT MYERS,FL
138,12836,60.8,67.1,418.0,-81.754,24.553,KEY WEST,FL
139,12838,50.7,61.5,340.3,-80.646,28.103,MELBOURNE,FL
140,12839,56.5,67.0,349.0,-80.300,25.824,MIAMI,FL
141,12841,46.9,58.8,321.8,-81.333,28.545,ORLANDO,FL
142,12842,48.2,58.3,349.6,-82.540,27.961,TAMPA,FL
143,12843,51.8,60.5,373.6,-80.418,27.656,VERO BEACH,FL
144,12844,55.0,65.5,347.7,-80.099,26.685,WEST PALM BEACH,FL
145,12849,56.0,66.6,347.1,-80.154,26.072,FORT LAUDERDALE,FL
146,12850,60.3,69.0,378.5,-81.683,24.583,KEY WEST,FL
147,12854,47.0,57.6,340.9,-81.244,28.780,ORLANDO,FL
148,12871,50.2,57.5,395.8,-82.559,27.401,SARASOTA/BRADENTON,FL
149,12873,47.8,58.6,338.5,-82.688,27.911,ST PETERSBURG/CLEARWATER,FL
150,12876,47.9,59.1,332.9,-81.754,28.062,WINTER HAVEN,FL
151,12882,56.7,65.9,368.7,-80.280,25.907,MIAMI,FL
152,12884,44.7,51.4,403.2,-89.408,29.350,BOOTHVILLE,LA
153,12885,54.5,66.8,321.8,-80.171,26.197,FORT LAUDERDALE,FL
154,12888,56.8,64.7,389.6,-80.433,25.648,MIAMI,FL
155,12894,52.1,62.7,344.6,-81.755,26.536,FORT MYERS,FL
156,12895,52.1,60.1,385.3,-80.377,27.498,FORT PIERCE,FL
157,12904,51.8,60.9,367.4,-97.654,26.228,HARLINGEN,TX
158,12912,43.5,52.8,358.8,-96.930,28.863,VICTORIA,TX
159,12916,37.9,51.1,296.6,-90.251,29.993,NEW ORLEANS,LA
160,12917,39.7,50.0,340.3,-94.021,29.951,BEAUMONT/PORT ARTHUR,TX
161,12918,40.1,53.6,294.1,-95.279,29.645,HOUSTON,TX
162,12919,53.3,62.2,371.1,-97.426,25.906,BROWNSVILLE,TX
163,12921,36.8,50.6,287.3,-98.464,29.533,SAN ANTONIO,TX
164,12924,47.1,55.5,375.5,-97.513,27.773,CORPUS CHRISTI,TX
165,12928,46.4,53.3,400.7,-97.817,27.500,KINGSVILLE,TX
166,12932,45.3,55.9,339.7,-98.027,27.741,ALICE,TX
167,12935,45.2,52.8,387.8,-96.251,28.728,PALACIOS,TX
168,12946,47.0,58.6,326.1,-97.434,27.700,CORPUS CHRISTI,TX
169,12947,38.5,53.6,271.9,-99.220,28.458,COTULLA,TX
170,12957,54.6,61.5,405.0,-97.346,26.166,PORT ISABEL,TX
171,12958,37.6,48.5,329.2,-90.033,29.833,NEW ORLEANS,LA
172,12959,48.2,61.4,304.6,-98.238,26.175,MC ALLEN,TX
173,12960,39.6,51.4,317.5,-95.364,29.993,HOUSTON,TX
174,12962,34.7,50.3,262.0,-99.174,29.359,HONDO,TX
175,12968,41.9,49.6,384.1,-91.526,29.562,SALT POINT,LA
176,12970,36.7,52.1,266.4,-98.471,29.337,SAN ANTONIO,TX
177,12971,36.0,49.2,294.7,-98.045,29.709,NEW BRAUNFELS,TX
178,12972,47.0,54.7,387.2,-97.046,28.084,ROCKPORT,TX
179,12975,40.9,51.4,337.9,-95.240,29.521,HOUSTON,TX
180,12976,43.0,51.6,369.9,-95.462,29.110,ANGLETON/LAKE JACKSON,TX
181,12977,40.5,50.8,340.9,-95.656,29.622,HOUSTON,TX
182,13721,21.2,32.2,315.0,-76.400,38.283,PATUXENT RIVER,MD
183,13722,24.5,37.7,284.8,-78.786,35.871,RALEIGH/DURHAM,NC
184,13723,22.3,35.8,278.7,-79.944,36.098,GREENSBORO,NC
185,13728,22.9,34.8,302.1,-79.336,36.573,DANVILLE,VA
186,13729,18.0,24.8,385.9,-79.853,38.885,ELKINS,WV
187,13733,20.0,32.9,284.8,-79.207,37.338,LYNCHBURG,VA
188,13734,16.4,28.3,296.6,-77.984,39.402,MARTINSBURG,WV
189,13735,20.1,26.6,392.7,-75.078,39.366,MILLVILLE,NJ
190,13736,18.7,27.1,356.3,-79.916,39.643,MORGANTOWN,WV
191,13737,26.1,36.9,321.8,-76.192,36.904,NORFOLK,VA
192,13739,17.5,29.3,299.0,-75.231,39.868,PHILADELPHIA,PA
193,13740,22.4,34.6,297.2,-77.323,37.511,RICHMOND,VA
194,13741,19.6,34.7,254.0,-79.974,37.317,ROANOKE,VA
195,13743,19.5,33.7,266.4,-77.034,38.865,WASHINGTON,DC
196,13744,30.4,39.9,345.9,-79.731,34.188,FLORENCE,SC
197,13748,31.7,39.9,368.7,-77.906,34.268,WILMINGTON,NC
198,13750,26.0,35.1,349.6,-76.283,36.933,NORFOLK,VA
199,13752,19.7,31.4,302.7,-76.483,38.991,ANNAPOLIS,MD
200,13754,30.4,38.8,364.4,-76.883,34.900,CHERRY POINT,NC
201,13762,24.4,45.2,193.0,-76.136,36.695,FENTRESS,VA
202,13764,22.0,31.5,339.7,-75.359,38.689,GEORGETOWN,DE
203,13769,26.5,36.3,338.5,-76.033,36.817,OCEANA,VA
204,13776,30.2,38.9,359.4,-79.059,34.610,LUMBERTON,NC
205,13781,19.7,28.5,350.2,-75.601,39.673,WILMINGTON,DE
206,13786,28.9,37.4,361.9,-76.175,36.261,ELIZABETH CITY,NC
207,13809,20.7,26.9,398.9,-87.606,38.764,LAWRENCEVILLE,IL
208,13810,21.9,30.7,352.0,-85.664,38.228,LOUISVILLE,KY
209,13833,35.3,47.7,305.2,-89.253,31.265,HATTIESBURG,MS
210,13837,29.9,43.0,291.0,-82.039,33.467,AUGUSTA,GA
211,13838,35.9,46.8,328.0,-88.068,30.626,MOBILE,AL
212,13839,34.5,44.6,339.7,-85.450,31.321,DOTHAN,AL
213,13841,18.7,23.8,419.8,-83.822,39.420,WILMINGTON,OH
214,13865,32.3,42.1,342.8,-88.751,32.333,MERIDIAN,MS
215,13869,33.9,44.5,331.1,-84.194,31.536,ALBANY,GA
216,13870,33.9,44.9,324.9,-82.507,31.536,ALMA,GA
217,13871,28.9,39.5,327.4,-85.858,33.588,ANNISTON,AL
218,13873,26.9,39.7,292.9,-83.327,33.948,ATHENS,GA
219,13874,27.8,40.2,299.0,-84.427,33.640,ATLANTA,GA
220,13876,28.5,40.3,308.9,-86.754,33.564,BIRMINGHAM,AL
221,13877,23.6,32.8,345.9,-82.399,36.480,BRISTOL/JHNSN CTY/KNGSPRT,TN
222,13878,38.5,49.1,334.8,-81.391,31.252,BRUNSWICK,GA
223,13880,34.5,44.4,342.8,-80.041,32.899,CHARLESTON,SC
224,13881,25.1,37.4,298.4,-80.944,35.214,CHARLOTTE,NC
225,13882,26.5,37.5,319.4,-85.200,35.033,CHATTANOOGA,TN
226,13883,28.3,41.7,285.5,-81.118,33.942,COLUMBIA,SC
227,13884,35.5,44.9,351.4,-86.523,30.780,CRESTVIEW,FL
228,13886,24.7,39.2,267.0,-82.346,34.846,GREENVILLE,SC
229,13889,40.0,49.0,361.3,-81.693,30.494,JACKSONVILLE,FL
230,13891,26.1,36.0,336.6,-83.986,35.818,KNOXVILLE,TN
231,13893,28.4,38.9,328.6,-89.985,35.061,MEMPHIS,TN
232,13894,35.9,48.1,308.9,-88.246,30.688,MOBILE,AL
233,13895,30.6,43.0,301.5,-86.394,32.301,MONTGOMERY,AL
234,13896,28.7,37.4,358.2,-87.610,34.745,MUSCLE SHOALS,AL
235,13897,24.9,34.4,342.2,-86.689,36.119,NASHVILLE,TN
236,13899,37.1,49.1,312.6,-87.188,30.473,PENSACOLA,FL
237,13904,34.6,47.0,304.6,-97.681,30.179,AUSTIN/BERGSTROM,TX
238,13911,27.9,43.8,251.6,-97.441,32.769,FORT WORTH,TX
239,13920,15.7,23.5,365.0,-95.664,38.950,TOPEKA,KS
240,13927,32.7,43.9,321.2,-90.223,32.335,JACKSON,MS
241,13932,18.4,29.8,306.4,-97.037,37.168,WINFIELD/ARKANSAS CITY,KS
242,13935,35.0,46.2,323.1,-92.296,31.395,ALEXANDRIA,LA
243,13939,33.2,40.8,380.4,-90.986,33.483,GREENVILLE,MS
244,13942,34.4,45.6,322.4,-92.038,32.511,MONROE,LA
245,13957,32.8,44.5,313.8,-93.824,32.447,SHREVEPORT,LA
246,13958,34.0,49.7,260.2,-97.767,30.317,AUSTIN/CITY,TX
247,13959,31.9,45.1,291.0,-97.229,31.611,WACO,TX
248,13960,28.5,43.8,260.2,-96.851,32.847,DALLAS,TX
249,13961,29.0,42.2,288.5,-97.361,32.819,FORT WORTH,TX
250,13962,26.9,43.0,248.5,-99.682,32.411,ABILENE,TX
251,13963,27.7,41.4,280.5,-92.233,34.747,LITTLE ROCK,AR
252,13964,24.6,37.6,287.9,-94.365,35.334,FORT SMITH,AR
253,13966,23.8,38.9,258.3,-98.493,33.979,WICHITA FALLS,TX
254,13967,20.3,36.0,247.2,-97.600,35.389,OKLAHOMA CITY,OK
255,13968,21.5,34.1,291.0,-95.886,36.198,TULSA,OK
256,13969,19.0,31.4,291.6,-97.100,36.731,PONCA CITY,OK
257,13970,36.9,48.5,318.1,-91.147,30.537,BATON ROUGE,LA
258,13971,21.4,35.4,270.7,-93.155,36.261,HARRISON,AR
259,13972,32.3,44.1,312.0,-95.402,32.354,TYLER,TX
260,13973,30.0,46.6,245.4,-99.766,30.511,JUNCTION,TX
261,13975,19.7,33.1,277.4,-99.775,36.297,GAGE,OK
262,13976,38.5,49.4,329.8,-91.988,30.205,LAFAYETTE,LA
263,13977,30.3,41.4,320.6,-94.008,33.454,TEXARKANA,AR
264,13978,32.0,40.4,365.6,-90.084,33.496,GREENWOOD,MS
265,13981,19.0,28.4,339.1,-95.484,37.670,CHANUTE,KS
266,13984,16.2,24.4,358.2,-97.652,39.549,CONCORDIA,KS
267,13985,17.8,29.5,300.9,-99.970,37.773,DODGE CITY,KS
268,13986,18.0,29.2,308.9,-97.861,38.068,HUTCHINSON,KS
269,13987,20.2,31.1,315.7,-94.498,37.149,JOPLIN,MO
270,13988,16.2,25.4,340.3,-94.593,39.123,KANSAS CITY,MO
271,13989,15.9,26.3,320.0,-96.190,38.331,EMPORIA,KS
272,13993,14.4,20.2,403.2,-94.907,39.774,ST JOSEPH,MO
273,13994,18.8,27.7,347.7,-90.374,38.753,ST LOUIS,MO
274,13995,20.1,29.8,334.8,-93.390,37.240,SPRINGFIELD,MO
275,13996,15.5,24.2,349.0,-95.626,39.073,TOPEKA,KS
276,13997,19.9,27.7,368.1,-91.769,38.128,ROLLA/VICHY,MO
277,14605,10.7,18.8,356.3,-69.797,44.321,AUGUSTA,ME
278,14606,10.8,17.6,381.0,-68.824,44.808,BANGOR,ME
279,14607,8.5,10.0,500.0,-68.033,46.867,CARIBOU,ME
280,14609,8.9,14.9,395.8,-67.792,46.123,HOULTON,ME
281,14610,9.3,16.4,374.2,-68.686,45.648,MILLINOCKET,ME
282,14702,14.2,22.3,358.8,-71.289,42.470,BEDFORD,MA
283,14707,17.5,26.5,345.3,-72.049,41.328,GROTON NEW LONDON,CT
284,14710,13.0,22.6,331.1,-71.438,42.933,MANCHESTER,NH
285,14711,17.0,26.3,339.7,-76.763,40.194,HARRISBURG,PA
286,14712,16.4,26.2,330.5,-75.959,40.373,READING,PA
287,14732,17.9,31.9,267.6,-73.881,40.779,NEW YORK,NY
288,14733,15.6,21.3,406.3,-78.736,42.941,BUFFALO,NY
289,14734,17.4,29.5,294.7,-74.169,40.716,NEWARK,NJ
290,14735,13.6,20.6,379.2,-73.803,42.748,ALBANY,NY
291,14736,15.2,23.2,361.3,-78.317,40.300,ALTOONA,PA
292,14737,15.8,23.6,365.6,-75.449,40.651,ALLENTOWN,PA
293,14739,16.7,27.6,312.6,-71.011,42.361,BOSTON,MA
294,14740,13.8,23.0,338.5,-72.683,41.938,WINDSOR LOCKS,CT
295,14742,12.2,18.2,398.3,-73.150,44.468,BURLINGTON,VT
296,14745,11.1,18.3,373.6,-71.501,43.195,CONCORD,NH
297,14747,15.9,21.8,402.0,-79.272,42.493,DUNKIRK,NY
298,14748,13.3,20.0,384.7,-76.892,42.159,ELMIRA/CORNING,NY
299,14750,11.8,16.9,416.8,-73.610,43.341,GLENS FALLS,NY
300,14751,16.2,27.0,313.8,-76.851,40.217,HARRISBURG,PA
301,14752,15.3,24.3,343.4,-72.651,41.736,HARTFORD,CT
302,14756,22.8,30.4,373.6,-70.061,41.253,NANTUCKET,MA
303,14757,14.1,21.8,366.2,-73.884,41.627,POUGHKEEPSIE,NY
304,14758,17.8,27.0,341.6,-72.887,41.264,NEW HAVEN,CT
305,14762,17.5,24.8,376.1,-79.922,40.355,PITTSBURGH,PA
306,14763,12.5,18.1,406.3,-73.289,42.427,PITTSFIELD,MA
307,14764,13.1,22.3,337.9,-70.304,43.642,PORTLAND,ME
308,14765,17.0,26.2,340.9,-71.433,41.722,PROVIDENCE,RI
309,14768,15.7,21.9,395.8,-77.677,43.117,ROCHESTER,NY
310,14770,15.8,23.2,373.0,-76.864,40.821,SELINSGROVE,PA
311,14775,12.8,21.7,343.4,-72.716,42.158,WESTFIELD/SPRINGFIELD,MA
312,14777,15.2,22.9,366.8,-75.727,41.339,WILKES-BARRE/SCRANTON,PA
313,14778,15.9,23.7,365.6,-76.922,41.243,WILLIAMSPORT,PA
314,14787,19.3,26.1,386.6,-71.284,41.530,NEWPORT,RI
315,14792,17.4,28.4,311.4,-74.814,40.277,TRENTON,NJ
316,14794,17.2,26.8,334.2,-71.799,41.350,WESTERLY,RI
317,14813,15.8,21.8,400.1,-81.464,41.038,AKRON,OH
318,14815,14.8,19.7,422.3,-85.251,42.308,BATTLE CREEK,MI
319,14819,13.1,22.3,337.9,-87.752,41.786,CHICAGO,IL
320,14820,16.7,23.2,390.9,-81.853,41.405,CLEVELAND,OH
321,14821,18.0,23.4,413.7,-82.881,39.991,COLUMBUS,OH
322,14822,15.2,22.0,384.1,-83.010,42.409,DETROIT,MI
323,14825,15.9,21.0,418.6,-83.669,41.014,FINDLAY,OH
324,14826,13.4,19.0,406.9,-83.749,42.967,FLINT,MI
325,14827,15.9,20.5,429.1,-85.206,41.006,FORT WAYNE,IN
326,14829,15.4,19.9,431.5,-85.792,41.527,GOSHEN,IN
327,14833,14.8,20.3,410.0,-84.459,42.260,JACKSON,MI
328,14835,16.5,22.6,398.3,-86.937,40.412,LAFAYETTE,IN
329,14836,13.9,19.2,413.7,-84.579,42.780,LANSING,MI
330,14837,10.5,16.8,390.9,-89.345,43.141,MADISON,WI
331,14839,11.0,20.6,329.2,-87.897,42.947,MILWAUKEE,WI
332,14840,15.2,22.6,372.4,-86.237,43.171,MUSKEGON,MI
333,14841,9.5,12.3,467.9,-84.796,45.571,PELLSTON,MI
334,14842,14.6,20.9,393.3,-89.684,40.668,PEORIA,IL
335,14845,13.1,18.8,404.4,-84.080,43.533,SAGINAW,MI
336,14847,4.5,11.3,376.7,-84.367,46.467,SAULT STE MARIE,MI
337,14848,15.7,21.2,410.0,-86.333,41.707,SOUTH BEND,IN
338,14850,13.1,19.6,388.4,-85.583,44.741,TRAVERSE CITY,MI
339,14852,16.5,21.6,419.2,-80.674,41.254,YOUNGSTOWN/WARREN,OH
340,14853,14.1,20.9,383.5,-83.230,42.237,DETROIT,MI
341,14858,8.8,14.0,413.1,-88.506,47.169,HANCOCK,MI
342,14860,16.6,23.0,392.7,-80.183,42.080,ERIE,PA
343,14880,11.5,27.3,237.4,-87.868,42.422,CHICAGO/WAUKEGAN,IL
344,14891,15.5,21.0,410.0,-82.518,40.820,MANSFIELD,OH
345,14894,16.7,24.7,362.5,-80.647,40.176,WHEELING,WV
346,14895,15.7,22.1,392.1,-81.443,40.918,AKRON,OH
347,14897,5.9,10.8,418.0,-89.627,44.929,WAUSAU,WI
348,14898,8.3,13.9,403.8,-88.120,44.513,GREEN BAY,WI
349,14913,1.2,7.1,393.3,-92.194,46.844,DULUTH,MN
350,14914,-1.0,3.2,430.3,-96.811,46.925,FARGO,ND
351,14916,-1.7,0.7,474.1,-97.176,47.949,GRAND FORKS,ND
352,14918,-1.2,-1.0,534.5,-93.403,48.566,INTERNATIONAL FALLS,MN
353,14919,0.5,5.0,424.2,-98.678,46.930,JAMESTOWN,ND
354,14920,8.6,14.1,406.3,-91.256,43.754,LA CROSSE,WI
355,14921,9.3,16.7,368.1,-90.181,43.212,LONE ROCK,WI
356,14922,5.8,12.1,387.8,-93.229,44.883,MINNEAPOLIS,MN
357,14923,13.5,20.3,382.9,-90.523,41.465,MOLINE,IL
358,14925,7.0,11.5,427.2,-92.492,43.904,ROCHESTER,MN
359,14926,3.5,7.6,434.6,-94.052,45.545,ST CLOUD,MN
360,14927,6.4,11.9,405.0,-93.048,44.930,ST PAUL,MN
361,14929,2.5,6.1,445.7,-98.421,45.450,ABERDEEN,SD
362,14931,14.8,19.9,418.0,-91.125,40.783,BURLINGTON,IA
363,14933,11.6,18.6,377.9,-93.666,41.538,DES MOINES,IA
364,14935,12.3,18.6,392.1,-98.313,40.958,GRAND ISLAND,NE
365,14936,5.2,9.0,442.6,-98.229,44.385,HURON,SD
366,14937,12.5,18.2,404.4,-91.543,41.633,IOWA CITY,IA
367,14938,14.4,19.8,411.8,-92.543,40.097,KIRKSVILLE,MO
368,14939,12.3,18.5,393.9,-96.764,40.831,LINCOLN,NE
369,14940,7.6,10.7,459.9,-93.331,43.158,MASON CITY,IA
370,14941,9.9,15.8,398.9,-97.437,41.981,NORFOLK,NE
371,14942,12.2,18.3,395.8,-95.899,41.310,OMAHA,NE
372,14943,8.7,13.6,419.2,-96.379,42.391,SIOUX CITY,IA
373,14944,6.2,10.3,435.9,-96.754,43.577,SIOUX FALLS,SD
374,14946,2.8,5.2,475.3,-97.154,44.931,WATERTOWN,SD
375,14950,12.6,17.8,414.9,-92.448,41.107,OTTUMWA,IA
376,14972,7.1,10.5,452.5,-95.202,43.164,SPENCER,IA
377,14990,10.8,16.0,413.7,-91.709,41.884,CEDAR RAPIDS,IA
378,14991,5.9,10.2,430.9,-91.485,44.865,EAU CLAIRE,WI
379,14992,4.4,8.3,439.6,-95.082,44.547,REDWOOD FALLS,MN
380,21504,61.9,71.4,367.4,-155.051,19.723,HILO,HI
381,21510,61.7,74.9,315.0,-156.049,19.736,KAILUA/KONA,HI
382,22010,31.9,51.8,209.6,-100.922,29.367,DEL RIO,TX
383,22501,60.9,73.3,325.5,-159.789,22.025,"KEKAHA, KAUAI",HI
384,22516,61.0,71.5,352.0,-156.433,20.902,KAHULUI,HI
385,22521,62.9,73.4,353.3,-157.943,21.328,HONOLULU,HI
386,22534,62.2,68.5,418.6,-157.099,21.157,KAUNAKAKAI,HI
387,22536,63.1,71.8,380.4,-159.341,21.979,LIHUE,HI
388,23007,20.8,39.1,216.4,-100.288,34.434,CHILDRESS,TX
389,23009,13.3,39.7,130.1,-104.541,33.308,ROSWELL,NM
390,23023,18.7,42.5,157.9,-102.208,31.932,MIDLAND,TX
391,23034,27.8,45.8,226.3,-100.494,31.351,SAN ANGELO,TX
392,23040,17.1,43.1,137.5,-103.201,31.780,WINK,TX
393,23042,16.1,39.8,156.0,-101.821,33.668,LUBBOCK,TX
394,23044,17.1,44.6,125.8,-106.376,31.811,EL PASO,TX
395,23047,18.8,35.6,231.8,-101.706,35.219,AMARILLO,TX
396,23048,13.8,36.5,162.8,-103.603,35.182,TUCUMCARI,NM
397,23049,14.0,35.6,173.9,-106.089,35.617,SANTA FE,NM
398,23050,14.4,39.5,141.8,-106.616,35.042,ALBUQUERQUE,NM
399,23052,10.0,31.8,167.7,-104.502,36.741,RATON,NM
400,23054,10.1,32.6,160.9,-105.143,35.654,LAS VEGAS,NM
401,23055,15.2,42.0,128.9,-104.809,31.831,GUADALUPE PASS,TX
402,23061,5.3,19.7,249.7,-105.866,37.436,ALAMOSA,CO
403,23064,18.0,28.5,320.0,-100.725,37.927,GARDEN CITY,KS
404,23065,17.4,28.6,308.3,-101.693,39.368,GOODLAND,KS
405,23067,17.4,28.7,307.0,-103.527,38.051,LA JUNTA,CO
406,23070,12.9,31.5,204.7,-104.341,37.259,TRINIDAD,CO
407,23078,15.0,40.0,143.7,-107.721,32.262,DEMING,NM
408,23081,14.6,28.0,272.5,-108.789,35.511,GALLUP,NM
409,23090,14.4,25.2,312.0,-108.229,36.744,FARMINGTON,NM
410,23091,19.1,48.4,114.1,-102.912,30.915,FORT STOCKTON,TX
411,23110,41.9,45.3,464.8,-119.950,36.333,LEMOORE,CA
412,23129,39.9,58.4,232.5,-118.163,33.828,LONG BEACH,CA
413,23130,31.9,57.4,156.6,-118.489,34.210,VAN NUYS,CA
414,23136,36.9,56.8,214.6,-119.083,34.217,CAMARILLO,CA
415,23152,34.2,56.8,185.0,-118.359,34.201,BURBANK,CA
416,23153,19.0,33.4,263.3,-117.087,38.060,TONOPAH,NV
417,23154,15.1,22.7,368.7,-114.845,39.295,ELY,NV
418,23155,40.5,47.1,402.6,-119.056,35.434,BAKERSFIELD,CA
419,23157,18.9,41.6,168.3,-118.363,37.373,BISHOP,CA
420,23158,24.4,55.3,108.6,-114.717,33.619,BLYTHE,CA
421,23159,11.0,20.7,328.0,-112.146,37.706,BRYCE CANYON,UT
422,23160,22.5,51.6,119.0,-110.955,32.131,TUCSON,AZ
423,23161,26.8,48.9,182.5,-116.787,34.854,DAGGETT,CA
424,23169,24.1,49.1,152.9,-115.155,36.079,LAS VEGAS,NV
425,23174,39.0,59.2,213.3,-118.406,33.938,LOS ANGELES,CA
426,23176,13.6,20.0,390.9,-113.028,38.443,MILFORD,UT
427,23179,25.1,54.6,119.0,-114.623,34.766,NEEDLES,CA
428,23182,29.8,44.8,265.1,-118.084,34.629,PALMDALE,CA
429,23183,26.5,55.7,122.7,-111.990,33.443,PHOENIX,AZ
430,23184,18.9,38.2,202.9,-112.421,34.652,PRESCOTT,AZ
431,23185,23.6,37.3,276.8,-119.771,39.484,RENO,NV
432,23188,41.5,60.2,231.8,-117.169,32.735,SAN DIEGO,CA
433,23190,42.2,53.7,323.7,-119.844,34.426,SANTA BARBARA,CA
434,23191,33.6,57.1,176.4,-118.416,33.405,AVALON,CA
435,23194,14.7,32.5,215.8,-110.722,35.022,WINSLOW,AZ
436,23199,27.9,55.8,133.8,-115.667,32.817,EL CENTRO,CA
437,23213,41.0,48.2,392.1,-122.812,38.509,SANTA ROSA,CA
438,23225,20.7,44.0,164.6,-120.708,39.292,EMIGRANT GAP,CA
439,23230,42.3,49.7,389.6,-122.221,37.755,OAKLAND,CA
440,23232,41.9,46.2,447.0,-121.493,38.513,SACRAMENTO,CA
441,23234,43.4,50.5,395.2,-122.398,37.620,SAN FRANCISCO,CA
442,23244,42.7,51.8,361.3,-122.048,37.415,MOUNTAIN VIEW,CA
443,23254,40.4,46.9,404.4,-122.052,37.992,CONCORD,CA
444,23257,41.3,44.9,460.5,-120.513,37.285,MERCED,CA
445,23258,41.5,45.4,454.4,-120.953,37.626,MODESTO,CA
446,23259,41.2,53.1,317.5,-121.845,36.588,MONTEREY,CA
447,23273,41.5,53.2,320.6,-120.465,34.916,SANTA MARIA,CA
448,23275,39.4,48.3,362.5,-123.201,39.126,UKIAH,CA
449,23277,42.5,52.2,351.4,-121.789,36.936,WATSONVILLE,CA
450,23285,40.1,47.4,389.6,-121.817,37.694,LIVERMORE,CA
451,23293,42.3,51.2,364.4,-121.928,37.362,SAN JOSE,CA
452,24011,4.2,8.7,426.0,-100.748,46.774,BISMARCK,ND
453,24012,7.9,11.7,443.3,-102.802,46.797,DICKINSON,ND
454,24013,3.1,9.1,392.7,-101.281,48.259,MINOT,ND
455,24015,16.2,25.8,333.5,-103.232,40.172,AKRON,CO
456,24017,17.3,22.0,427.9,-103.095,42.838,CHADRON,NE
457,24018,13.7,27.7,263.3,-104.807,41.158,CHEYENNE,WY
458,24021,12.8,22.6,327.4,-108.733,42.817,LANDER,WY
459,24023,15.2,20.4,416.1,-100.668,41.122,NORTH PLATTE,NE
460,24024,11.1,23.7,281.1,-101.601,44.051,PHILIP,SD
461,24025,8.9,12.9,439.6,-100.286,44.383,PIERRE,SD
462,24028,18.0,26.9,347.1,-103.595,41.874,SCOTTSBLUFF,NE
463,24029,15.3,23.2,363.1,-106.976,44.774,SHERIDAN,WY
464,24030,17.4,26.7,339.7,-102.985,41.101,SIDNEY,NE
465,24032,12.3,17.1,423.5,-100.551,42.859,VALENTINE,NE
466,24033,15.6,25.7,324.9,-108.543,45.808,BILLINGS,MT
467,24036,15.4,21.3,402.0,-109.467,47.049,LEWISTOWN,MT
468,24037,11.1,15.9,422.9,-105.886,46.428,MILES CITY,MT
469,24044,16.4,21.2,425.4,-102.800,42.057,ALLIANCE,NE
470,24046,8.5,12.8,432.2,-107.521,40.495,CRAIG,CO
471,24048,10.4,14.4,440.2,-108.082,44.517,GREYBULL,WY
472,24057,12.9,21.8,343.4,-107.200,41.806,RAWLINS,WY
473,24061,12.1,20.9,344.6,-108.459,43.064,RIVERTON,WY
474,24062,9.8,13.0,458.1,-107.951,43.966,WORLAND,WY
475,24090,14.2,20.3,397.0,-103.054,44.046,RAPID CITY,SD
476,24091,17.6,27.5,329.8,-101.620,40.510,IMPERIAL,NE
477,24110,24.4,29.2,429.1,-119.319,47.208,MOSES LAKE,WA
478,24112,12.6,22.2,331.1,-111.187,47.504,GREAT FALLS,MT
479,24121,18.5,28.1,335.4,-115.792,40.825,ELKO,NV
480,24126,19.4,26.7,377.3,-112.011,41.196,OGDEN,UT
481,24128,23.2,31.8,356.3,-117.807,40.902,WINNEMUCCA,NV
482,24130,19.3,23.1,448.2,-117.810,44.838,BAKER CITY,OR
483,24131,23.9,31.7,371.1,-116.220,43.565,BOISE,ID
484,24132,16.5,23.1,388.4,-111.152,45.794,BOZEMAN,MT
485,24133,20.9,28.2,377.9,-113.772,42.543,BURLEY,ID
486,24135,13.5,21.2,365.6,-112.513,45.953,BUTTE,MT
487,24137,10.1,18.6,348.3,-112.376,48.608,CUT BANK,MT
488,24138,14.8,23.3,352.0,-112.552,45.255,DILLON,MT
489,24141,23.1,29.0,406.3,-119.514,47.304,EPHRATA,WA
490,24143,14.4,23.5,340.9,-111.382,47.473,GREAT FALLS,MT
491,24144,16.9,26.6,332.3,-111.964,46.606,HELENA,MT
492,24145,14.8,16.9,486.4,-112.067,43.516,IDAHO FALLS,ID
493,24146,18.4,23.8,413.7,-114.264,48.304,KALISPELL,MT
494,24149,27.6,36.8,349.0,-117.014,46.375,LEWISTON,ID
495,24150,15.6,28.8,276.8,-110.448,45.699,LIVINGSTON,MT
496,24152,24.1,27.4,461.1,-118.425,45.511,MEACHAM,OR
497,24153,21.3,26.0,429.7,-114.093,46.921,MISSOULA,MT
498,24154,18.6,22.0,456.8,-115.645,47.457,MULLAN PASS,ID
499,24155,28.5,35.4,390.3,-118.834,45.698,PENDLETON,OR
500,24156,18.1,22.3,438.9,-112.571,42.920,POCATELLO,ID
501,24157,25.3,29.2,448.2,-117.528,47.621,SPOKANE,WA
502,24160,30.4,37.7,384.1,-118.287,46.095,WALLA WALLA,WA
503,24162,21.8,29.9,363.7,-117.013,44.021,ONTARIO,OR
504,24163,29.1,36.4,383.5,-119.118,46.265,PASCO,WA
505,24164,5.3,11.9,381.6,-110.108,42.584,BIG PINEY,WY
506,24172,23.0,33.9,318.1,-118.565,40.066,LOVELOCK,NV
507,24215,27.2,37.9,324.3,-122.333,41.333,MOUNT SHASTA,CA
508,24216,36.6,47.6,327.4,-122.254,40.152,RED BLUFF,CA
509,24217,33.9,40.5,398.9,-122.537,48.794,BELLINGHAM,WA
510,24219,31.3,39.5,368.7,-121.167,45.619,THE DALLES,OR
511,24220,24.0,31.0,385.9,-120.530,47.034,ELLENSBURG,WA
512,24221,38.0,41.5,461.8,-123.214,44.133,EUGENE,OR
513,24222,36.0,41.2,426.6,-122.280,47.908,EVERETT,WA
514,24225,34.4,39.4,429.7,-122.871,42.389,MEDFORD,OR
515,24227,37.2,40.2,471.6,-122.903,46.973,OLYMPIA,WA
516,24229,36.8,41.7,432.8,-122.600,45.591,PORTLAND,OR
517,24230,26.5,34.8,363.7,-121.150,44.254,REDMOND,OR
518,24231,39.5,44.5,432.2,-123.355,43.239,ROSEBURG,OR
519,24232,38.1,42.3,447.0,-122.995,44.908,SALEM,OR
520,24233,36.6,41.8,426.6,-122.314,47.461,SEATTLE,WA
521,24234,37.2,42.9,417.4,-122.301,47.530,SEATTLE,WA
522,24235,29.4,39.6,334.2,-123.381,42.617,SEXTON SUMMIT,OR
523,24237,25.0,28.7,452.5,-121.337,47.293,STAMPEDE PASS,WA
524,24242,37.1,41.2,448.8,-122.400,45.549,PORTLAND,OR
525,24243,25.6,32.8,382.9,-120.534,46.564,YAKIMA,WA
526,24255,35.8,40.3,440.2,-122.650,48.350,WHIDBEY ISLAND,WA
527,24257,35.4,47.4,311.4,-122.313,40.515,REDDING,CA
528,24259,29.2,35.6,400.1,-122.468,41.781,MONTAGUE,CA
529,24283,41.8,47.5,419.8,-124.109,40.978,ARCATA/EUREKA,CA
530,24286,42.0,48.0,414.3,-124.237,41.780,CRESCENT CITY,CA
531,25308,28.2,36.0,373.6,-131.570,55.043,ANNETTE,AK
532,25309,22.4,28.2,408.1,-134.575,58.355,JUNEAU,AK
533,25323,17.9,25.0,379.8,-135.520,59.245,HAINES,AK
534,25325,28.1,34.7,395.8,-131.712,55.357,KETCHIKAN,AK
535,25331,9.7,15.6,398.3,-149.092,61.596,PALMER,AK
536,25333,26.2,35.0,355.1,-135.360,57.048,SITKA,AK
537,25335,16.3,27.0,315.7,-135.313,59.460,SKAGWAY,AK
538,25339,23.1,30.2,383.5,-139.628,59.510,YAKUTAT,AK
539,25367,28.0,34.0,406.9,-133.075,55.580,KLAWOCK,AK
540,25501,27.7,32.7,426.6,-152.492,57.750,KODIAK,AK
541,25503,15.4,19.9,431.5,-156.654,58.684,KING SALMON,AK
542,25506,15.5,21.9,392.1,-154.915,59.753,ILIAMNA,AK
543,25507,19.6,25.0,414.3,-151.477,59.647,HOMER,AK
544,25516,22.9,26.8,447.6,-151.702,59.443,SELDOVIA,AK
545,25624,28.3,30.5,487.0,-162.722,55.207,COLD BAY,AK
546,25628,25.8,28.5,475.3,-169.565,56.600,ST. GEORGE ISLAND,AK
547,25713,22.8,25.8,467.3,-170.220,57.163,ST PAUL ISLAND,AK
548,26409,11.6,19.1,368.1,-149.855,61.217,ANCHORAGE,AK
549,26410,19.7,26.0,396.4,-145.451,60.489,CORDOVA,AK
550,26415,-2.9,3.4,382.2,-145.718,63.995,DELTA JUNCTION/FT GREELY,AK
551,26438,18.5,26.4,365.6,-149.417,60.128,SEWARD,AK
552,26451,13.1,18.8,404.4,-149.993,61.175,ANCHORAGE,AK
553,26491,12.6,20.1,368.7,-149.961,61.179,ANCHORAGE,AK
554,26492,18.4,21.6,461.1,-148.839,60.785,PORTAGE GLACIER,AK
555,26523,12.7,19.5,382.2,-151.239,60.580,KENAI,AK
556,26528,5.9,14.3,347.1,-150.092,62.322,TALKEETNA,AK
557,26615,6.9,11.6,422.9,-161.826,60.786,BETHEL,AK
558,26616,2.6,4.1,498.7,-162.597,66.885,KOTZEBUE,AK
559,26617,7.6,14.9,369.3,-165.443,64.513,NOME,AK
560,26642,1.7,4.8,457.4,-164.548,67.732,KIVALINA,AK
561,26643,1.5,2.6,509.2,-162.764,66.069,DEERING,AK
563,53119,41.3,45.1,456.2,-119.629,36.319,HANFORD,CA
564,53120,34.8,51.5,248.5,-116.917,33.033,RAMONA,CA
565,53121,41.4,54.5,300.9,-117.349,33.219,OCEANSIDE,CA
566,53123,24.4,48.1,164.6,-115.196,36.212,LAS VEGAS,NV
567,53144,26.6,44.0,232.5,-117.865,34.988,EDWARDS,CA
568,53802,18.4,23.0,430.3,-88.280,39.478,MATTOON/CHARLESTON,IL
569,53819,27.5,39.3,307.7,-84.567,33.355,ATLANTA,GA
570,53820,34.0,43.3,352.0,-87.044,31.416,EVERGREEN,AL
571,53838,26.8,38.5,308.9,-83.830,34.272,GAINESVILLE,GA
572,53841,20.8,28.7,366.8,-84.903,38.185,FRANKFORT,KY
573,53842,16.4,23.6,377.3,-86.296,39.825,INDIANAPOLIS,IN
574,53843,33.1,46.8,285.5,-86.394,31.309,ANDALUSIA (FT RUCKER),AL
575,53844,17.7,22.4,427.9,-82.657,39.756,LANCASTER,OH
576,53847,33.6,49.6,255.9,-87.023,30.704,MILTON,FL
577,53850,26.5,41.4,263.3,-82.886,34.672,CLEMSON,SC
578,53852,28.3,36.3,370.5,-86.945,34.653,DECATUR,AL
579,53853,39.7,48.6,362.5,-86.472,30.400,DESTIN,FL
580,53854,30.4,41.9,314.4,-80.858,33.462,ORANGEBURG,SC
581,53855,17.5,25.1,369.9,-84.525,39.364,HAMILTON,OH
582,53858,37.5,47.0,351.4,-88.532,30.464,PASCAGOULA,MS
583,53859,18.1,24.3,397.6,-84.226,39.594,DAYTON,OH
584,53860,40.5,49.9,355.1,-81.515,30.336,JACKSONVILLE,FL
585,53862,38.4,47.9,352.0,-83.574,30.072,PERRY-FOLEY,FL
586,53863,26.8,38.7,305.8,-84.302,33.875,ATLANTA,GA
587,53864,30.5,40.8,333.5,-86.782,33.178,ALABASTER,AL
588,53865,37.3,47.7,336.6,-89.821,30.345,SLIDELL,LA
589,53866,17.6,23.9,395.2,-85.803,39.578,SHELBYVILLE,IN
590,53867,30.4,42.0,313.2,-80.996,33.971,COLUMBIA,SC
591,53868,25.5,35.8,329.2,-84.233,36.023,OAK RIDGE,TN
592,53869,26.8,34.8,369.3,-89.831,35.940,BLYTHEVILLE,AR
593,53870,24.8,36.8,302.7,-81.156,35.197,GASTONIA,NC
594,53871,25.5,36.9,312.0,-81.058,34.987,ROCK HILL,SC
595,53872,27.2,38.1,321.2,-80.621,35.017,MONROE,NC
596,53873,28.0,37.9,337.9,-84.849,34.123,CARTERSVILLE,GA
597,53874,27.5,39.7,302.1,-82.159,34.249,GREENWOOD,SC
598,53879,16.4,25.0,351.4,-94.371,38.960,LEE'S SUMMIT,MO
599,53901,20.7,31.0,325.5,-91.903,36.878,WEST PLAINS,MO
600,53902,37.3,47.6,338.5,-95.414,30.352,CONROE,TX
601,53903,36.4,47.8,321.2,-95.587,30.747,HUNTSVILLE,TX
602,53904,18.0,24.6,389.6,-90.428,38.929,ST CHARLES,MO
603,53905,32.6,44.1,316.3,-93.744,32.540,SHREVEPORT,LA
604,53907,28.9,42.6,281.8,-97.094,32.664,ARLINGTON,TX
605,53908,21.6,34.6,284.8,-95.984,36.039,TULSA,OK
606,53909,28.6,40.6,305.8,-97.318,32.973,FORT WORTH,TX
607,53910,37.9,49.3,321.8,-95.553,30.062,HOUSTON,TX
608,53911,28.1,41.8,281.1,-96.267,32.710,TERRELL,TX
609,53912,32.0,44.6,299.6,-96.398,32.027,CORSICANA,TX
610,53913,20.8,35.4,262.0,-97.416,35.850,GUTHRIE,OK
611,53914,29.5,40.0,329.2,-96.590,33.180,MC KINNEY,TX
612,53915,40.0,50.1,343.4,-91.884,30.038,NEW IBERIA,LA
613,53916,14.9,21.9,379.8,-93.579,39.823,CHILLICOTHE,MO
614,53918,22.2,34.5,295.9,-92.470,36.369,MOUNTAIN HOME,AR
615,53919,31.0,42.0,322.4,-91.751,33.638,MONTICELLO,AR
616,53920,25.5,37.3,305.8,-93.095,35.258,RUSSELLVILLE,AR
617,53922,21.5,32.2,320.0,-94.307,36.282,FAYETTEVILLE/SPRINGDALE,AR
618,53925,29.5,38.8,349.0,-94.399,34.047,DE QUEEN,AR
619,53959,28.7,36.6,372.4,-90.234,35.135,WEST MEMPHIS,AR
620,53988,36.0,46.9,328.0,-92.967,31.150,FORT POLK,LA
621,53989,15.5,28.7,276.8,-96.926,39.294,FORT RILEY,KS
622,54704,14.6,21.7,377.9,-71.174,42.191,NORWOOD,MA
623,54728,9.2,12.8,448.8,-71.545,44.368,WHITEFIELD,NH
624,54733,15.1,22.3,376.1,-70.918,42.584,BEVERLY,MA
625,54734,14.6,21.5,381.6,-73.483,41.371,DANBURY,CT
626,54737,17.1,25.8,350.2,-76.294,40.120,LANCASTER,PA
627,54740,11.0,18.2,373.6,-72.518,43.344,SPRINGFIELD,VT
628,54742,9.8,15.5,402.6,-72.019,44.419,SAINT JOHNSBURY,VT
629,54743,15.9,25.3,336.6,-74.283,40.876,CALDWELL,NJ
630,54756,12.3,18.4,395.8,-72.291,42.570,ORANGE,MA
631,54757,13.7,19.1,411.2,-77.992,42.109,WELLSVILLE,NY
632,54767,14.2,21.8,368.1,-72.184,41.742,WILLIMANTIC,CT
633,54768,12.4,19.1,384.1,-73.171,42.696,NORTH ADAMS,MA
634,54769,17.7,25.5,366.8,-70.729,41.910,PLYMOUTH,MA
635,54770,11.0,16.8,401.3,-72.004,42.805,JAFFREY,NH
636,54771,10.2,15.5,411.2,-72.614,44.534,MORRISVILLE,VT
637,54772,9.4,16.3,377.9,-70.948,43.991,FRYEBURG,ME
638,54773,15.4,20.1,427.2,-76.385,43.350,FULTON,NY
639,54777,16.9,23.8,382.9,-71.021,41.876,TAUNTON,MA
640,54778,14.9,21.7,383.5,-77.056,42.643,PENN YAN,NY
641,54779,14.8,21.9,377.9,-74.737,41.009,ANDOVER,NJ
642,54780,19.3,29.7,323.1,-71.923,41.073,MONTAUK,NY
643,54781,13.2,18.6,411.2,-73.247,42.891,BENNINGTON,VT
644,54782,16.9,27.6,316.3,-75.557,40.238,POTTSTOWN,PA
645,54785,16.0,23.6,369.3,-74.669,40.624,SOMERVILLE,NJ
646,54786,16.5,25.0,353.3,-75.123,40.330,DOYLESTOWN,PA
647,54787,18.4,27.0,352.7,-73.417,40.734,FARMINGDALE,NY
648,54788,14.2,22.7,351.4,-72.828,41.510,MERIDEN,CT
649,54789,13.1,19.8,384.7,-75.379,41.139,MOUNT POCONO,PA
650,54790,18.6,26.3,369.3,-72.869,40.822,SHIRLEY,NY
651,54791,11.9,21.5,330.5,-70.922,43.278,ROCHESTER,NH
652,54792,14.6,20.7,397.6,-78.412,41.047,CLEARFIELD,PA
653,54793,13.8,21.9,358.2,-74.623,41.200,SUSSEX,NJ
654,54813,11.0,17.0,397.0,-86.651,46.429,MUNISING,MI
655,63871,35.7,44.7,358.2,-85.601,30.846,BONIFAY,FL
656,63872,31.5,43.6,306.4,-85.129,31.951,EUFAULA,AL
657,63873,32.1,44.8,298.4,-85.654,31.346,FORT RUCKER/OZARK,AL
658,63890,38.9,52.2,295.9,-81.883,30.350,JACKSONVILLE,FL
659,64775,14.5,18.1,450.7,-75.412,43.234,ROME,NY
660,64776,11.3,16.8,408.1,-73.468,44.651,PLATTSBURG,NY
661,73805,38.1,47.2,358.2,-85.788,30.349,PANAMA CITY,FL
662,92805,54.6,66.3,330.5,-80.108,26.250,POMPANO BEACH,FL
663,92806,49.9,60.6,341.6,-82.628,27.765,ST PETERSBURG,FL
664,92809,56.1,66.2,354.5,-80.241,25.999,HOLLYWOOD,FL
665,93005,12.5,21.2,346.5,-107.760,37.143,DURANGO,CO
666,93009,6.0,14.5,345.3,-106.316,39.228,LEADVILLE,CO
667,93010,14.1,22.9,345.9,-103.716,39.189,LIMON,CO
668,93013,14.7,24.2,334.2,-107.898,38.505,MONTROSE,CO
669,93026,16.3,43.6,126.4,-109.604,31.469,DOUGLAS BISBEE,AZ
670,93027,14.6,29.1,257.7,-109.379,34.518,ST JOHNS,AZ
671,93033,15.3,42.7,124.6,-104.263,32.338,CARLSBAD,NM
672,93037,12.6,29.3,226.9,-104.711,38.812,COLORADO SPRINGS,CO
673,93042,16.7,33.8,226.3,-102.547,36.023,DALHART,TX
674,93045,11.6,40.2,111.6,-107.268,33.237,TRUTH OR CONSEQUENCES,NM
675,93057,12.3,27.7,242.9,-107.902,35.165,GRANTS,NM
676,93058,15.0,26.9,295.3,-104.498,38.290,PUEBLO,CO
677,93067,13.5,30.5,223.8,-104.849,39.570,DENVER,CO
678,93069,13.3,23.8,316.3,-108.628,37.303,CORTEZ,CO
679,93073,10.5,16.5,397.0,-106.868,39.223,ASPEN,CO
680,93075,14.2,19.6,411.8,-109.754,38.755,MOAB,UT
681,93084,18.9,44.8,140.0,-109.635,32.855,SAFFORD,AZ
682,93104,26.5,43.4,238.0,-117.683,35.683,CHINA LAKE,CA
683,93110,37.7,58.2,209.0,-119.206,34.201,OXNARD,CA
684,93111,39.5,55.0,267.6,-119.117,34.117,POINT MUGU,CA
685,93112,42.8,60.0,250.3,-117.200,32.700,SAN DIEGO,CA
686,93129,17.6,28.0,321.2,-113.097,37.702,CEDAR CITY,UT
687,93134,37.7,61.0,181.9,-118.296,34.028,LOS ANGELES,CA
688,93138,29.1,58.4,124.6,-116.505,33.828,PALM SPRINGS,CA
689,93141,12.9,24.3,301.5,-110.750,39.545,PRICE,UT
690,93167,23.3,42.4,209.6,-113.937,35.259,KINGMAN,AZ
691,93184,40.0,57.9,239.2,-117.866,33.680,SANTA ANA,CA
692,93193,41.5,46.6,430.9,-119.719,36.780,FRESNO,CA
693,93197,38.5,58.0,220.1,-118.451,34.016,SANTA MONICA,CA
694,93205,40.7,46.1,424.8,-121.570,39.098,MARYSVILLE,CA
695,93206,42.9,54.4,324.3,-120.641,35.237,SAN LUIS OBISPO,CA
696,93209,37.8,49.5,317.5,-120.627,35.673,PASO ROBLES,CA
697,93210,41.1,45.4,446.3,-121.618,39.490,OROVILLE,CA
698,93225,41.9,45.2,466.7,-121.590,38.696,SACRAMENTO,CA
699,93227,40.5,46.1,421.1,-122.280,38.213,NAPA,CA
700,93228,41.5,51.0,353.9,-122.121,37.659,HAYWARD,CA
701,93230,20.7,31.7,314.4,-119.995,38.894,SOUTH LAKE TAHOE,CA
702,93241,40.0,46.0,413.1,-121.961,38.377,VACAVILLE,CA
703,93242,41.1,45.2,450.7,-120.111,36.988,MADERA,CA
704,93706,16.6,27.3,315.7,-77.730,39.708,HAGERSTOWN,MD
705,93718,33.1,40.4,385.9,-78.721,33.816,NORTH MYRTLE BEACH,SC
706,93719,29.8,39.3,345.9,-77.047,35.068,NEW BERN,NC
707,93721,18.9,30.3,306.4,-76.684,39.172,BALTIMORE,MD
708,93727,30.8,38.9,369.9,-77.433,34.700,NEW RIVER,NC
709,93729,34.0,42.0,374.2,-75.623,35.232,CAPE HATTERAS,NC
710,93730,20.5,29.7,344.0,-74.457,39.458,ATLANTIC CITY,NJ
711,93736,19.0,35.0,241.7,-78.453,38.139,CHARLOTTESVILLE,VA
712,93738,18.0,30.0,296.6,-77.448,38.935,WASHINGTON,DC
713,93739,24.3,33.2,352.0,-75.496,37.941,WALLOPS ISLAND,VA
714,93740,27.4,38.8,313.8,-78.880,34.991,FAYETTEVILLE,NC
715,93741,25.3,34.5,347.1,-76.493,37.132,NEWPORT NEWS,VA
716,93743,30.0,39.3,349.0,-77.030,34.691,SWANSBORO,NC
717,93759,25.5,36.8,313.8,-77.893,35.855,ROCKY MOUNT,NC
718,93765,32.2,40.7,364.4,-76.661,34.734,BEAUFORT,NC
719,93773,23.5,34.7,313.8,-77.007,36.984,WAKEFIELD,VA
720,93775,21.5,33.8,295.3,-77.434,37.708,RICHMOND/ASHLAND,VA
721,93778,16.7,24.9,358.8,-76.874,39.918,YORK,PA
722,93780,18.1,27.5,338.5,-74.841,39.941,MOUNT HOLLY,NJ
723,93782,28.1,38.0,337.9,-79.366,34.792,MAXTON,NC
724,93783,23.3,35.4,299.6,-79.477,36.047,BURLINGTON,NC
725,93784,18.4,33.1,258.3,-76.610,39.281,BALTIMORE,MD
726,93785,24.1,37.0,288.5,-79.064,35.933,CHAPEL HILL,NC
727,93786,24.3,33.0,355.1,-75.124,38.308,OCEAN CITY,MD
728,93801,26.8,37.8,319.4,-85.161,34.348,ROME,GA
729,93805,36.2,46.6,336.0,-84.353,30.393,TALLAHASSEE,FL
730,93806,29.9,41.5,312.6,-87.616,33.212,TUSCALOOSA,AL
731,93807,23.2,35.6,295.3,-80.222,36.134,WINSTON SALEM,NC
732,93808,24.1,32.5,360.0,-86.436,36.981,BOWLING GREEN,KY
733,93810,20.8,29.0,361.3,-89.250,37.780,CARBONDALE/MURPHYBORO,IL
734,93812,19.5,27.3,368.1,-84.419,39.103,CINCINNATI,OH
735,93814,19.0,26.1,380.4,-84.672,39.043,COVINGTON,KY
736,93815,17.9,23.0,419.8,-84.219,39.906,DAYTON,OH
737,93817,21.1,28.7,372.4,-87.537,38.043,EVANSVILLE,IN
738,93819,17.1,23.9,385.3,-86.272,39.710,INDIANAPOLIS,IN
739,93820,19.9,28.5,353.9,-84.606,38.041,LEXINGTON,KY
740,93821,21.2,30.8,337.9,-85.730,38.177,LOUISVILLE,KY
741,93822,17.2,22.8,408.7,-89.684,39.845,SPRINGFIELD,IL
742,93824,17.5,24.0,391.5,-81.892,39.944,ZANESVILLE,OH
743,93831,33.4,45.4,309.5,-80.717,32.483,BEAUFORT,SC
744,93837,40.7,51.0,340.9,-81.683,30.233,JACKSONVILLE,FL
745,93841,35.2,49.6,278.1,-87.022,30.724,MILTON,FL
746,93842,30.7,43.7,292.9,-84.942,32.516,COLUMBUS,GA
747,93845,36.7,48.3,318.1,-83.277,30.783,VALDOSTA,GA
748,93846,26.2,39.0,292.2,-82.709,34.495,ANDERSON,SC
749,93862,29.4,38.3,355.1,-88.771,34.261,TUPELO,MS
750,93874,36.2,47.4,323.7,-89.070,30.407,GULFPORT,MS
751,93909,15.1,22.9,365.0,-94.890,38.831,OLATHE,KS
752,93915,35.2,46.4,323.1,-92.559,31.335,ALEXANDRIA,LA
753,93919,34.7,45.3,331.7,-90.472,31.178,MCCOMB,MS
754,93950,23.7,36.0,297.2,-95.783,34.899,MC ALESTER,OK
755,93953,23.3,35.0,305.8,-95.361,35.657,MUSKOGEE,OK
756,93967,20.1,31.3,310.7,-95.566,37.091,COFFEYVILLE,KS
757,93985,28.0,41.5,283.6,-98.061,32.782,MINERAL WELLS,TX
758,93986,22.2,36.2,271.3,-99.051,35.008,HOBART,OK
759,93987,35.1,46.5,320.0,-94.750,31.234,LUFKIN,TX
760,93988,29.4,40.6,318.1,-91.935,34.175,PINE BLUFF,AR
761,93989,15.3,21.4,397.6,-91.194,39.943,QUINCY,IL
762,93990,16.2,27.0,313.8,-99.830,39.376,HILL CITY,KS
763,93992,31.5,41.5,339.1,-92.813,33.221,EL DORADO,AR
764,93993,22.0,33.2,312.6,-94.170,36.005,FAYETTEVILLE,AR
765,93997,17.3,26.5,341.6,-98.828,38.872,RUSSELL,KS
766,94008,6.7,9.7,461.8,-106.621,48.214,GLASGOW,MT
767,94012,9.4,13.4,439.6,-109.780,48.559,HAVRE,MT
768,94014,5.2,9.1,440.2,-103.642,48.195,WILLISTON,ND
769,94017,5.4,9.2,442.6,-105.574,48.094,WOLF POINT,MT
770,94023,15.7,22.0,393.9,-105.542,44.339,GILLETTE,WY
771,94030,5.2,10.9,400.1,-109.509,40.441,VERNAL,UT
772,94032,12.8,21.4,348.3,-103.628,43.731,CUSTER,SD
773,94037,10.3,14.9,426.6,-103.546,45.604,BUFFALO,SD
774,94038,7.3,11.4,436.5,-102.655,46.014,HETTINGER,ND
775,94039,14.3,19.1,424.2,-102.518,43.021,PINE RIDGE,SD
776,94040,17.0,25.7,350.2,-100.591,40.206,MC COOK,NE
777,94041,3.1,7.2,434.6,-101.439,47.663,GARRISON,ND
778,94050,10.3,15.6,411.2,-107.885,40.049,MEEKER,CO
779,94051,10.7,13.2,475.3,-106.948,47.326,JORDAN,MT
780,94052,5.2,9.7,426.0,-100.408,45.546,MOBRIDGE,SD
781,94053,16.8,27.4,317.5,-104.153,42.065,TORRINGTON,WY
782,94054,14.3,24.6,320.6,-106.721,44.381,BUFFALO,WY
783,94055,10.4,14.3,442.0,-104.250,46.358,BAKER,MT
784,94056,9.8,14.0,435.2,-102.019,45.032,FAITH,SD
785,94057,16.3,24.0,367.4,-105.386,42.797,DOUGLAS,WY
786,94107,21.8,29.6,369.3,-117.864,42.591,ROME,OR
787,94119,22.5,26.0,456.2,-117.421,47.969,DEER PARK,WA
788,94128,18.8,22.6,448.2,-111.853,41.787,LOGAN,UT
789,94129,26.8,31.6,430.3,-117.109,46.744,PULLMAN/MOSCOW,WA
790,94173,9.3,12.5,458.1,-110.421,44.544,YELLOWSTONE,WY
791,94176,26.2,31.3,424.2,-117.321,47.683,SPOKANE,WA
792,94178,22.9,30.9,366.8,-114.487,42.482,TWIN FALLS,ID
793,94182,17.0,20.6,451.9,-116.102,44.889,MCCALL,ID
794,94185,16.5,20.0,453.7,-118.954,43.592,BURNS,OR
795,94194,15.6,17.6,488.9,-111.881,43.834,REXBURG,ID
796,94197,21.5,26.8,417.4,-119.517,48.464,OMAK,WA
797,94224,39.2,42.3,470.4,-123.878,46.158,ASTORIA,OR
798,94225,39.3,42.2,474.7,-123.937,46.971,HOQUIAM,WA
799,94227,37.0,39.4,484.6,-123.148,47.238,SHELTON,WA
800,94236,24.7,30.9,401.3,-121.724,42.147,KLAMATH FALLS,OR
801,94239,23.5,29.7,400.7,-120.207,47.399,WENATCHEE,WA
802,94240,39.6,41.6,493.8,-124.561,47.934,QUILLAYUTE,WA
803,94248,37.7,42.1,443.3,-122.214,47.493,RENTON,WA
804,94266,35.2,38.9,456.2,-123.498,48.120,PORT ANGELES,WA
805,94274,37.6,41.5,453.1,-122.576,47.268,TACOMA,WA
806,94276,36.0,41.0,430.3,-123.023,48.522,FRIDAY HARBOR,WA
807,94281,38.0,41.3,465.5,-122.769,45.249,AURORA,OR
808,94298,37.0,41.5,440.8,-122.657,45.621,VANCOUVER,WA
809,94299,23.3,31.2,368.7,-120.567,41.483,ALTURAS,CA
810,94623,11.8,18.9,376.1,-69.712,43.964,WISCASSET,ME
811,94624,22.3,30.4,364.4,-69.993,41.688,CHATHAM,MA
812,94626,8.8,14.0,413.1,-69.595,45.462,GREENVILLE,ME
813,94700,7.9,13.1,412.4,-71.179,44.576,BERLIN,NH
814,94702,17.0,26.7,332.3,-73.146,41.175,BRIDGEPORT,CT
815,94704,15.9,22.7,384.1,-77.713,42.571,DANSVILLE,NY
816,94705,9.4,14.6,413.1,-72.579,44.203,BARRE/MONTPELIER,VT
817,94720,20.8,28.1,377.9,-70.280,41.669,HYANNIS,MA
818,94723,14.2,23.7,333.5,-71.124,42.717,LAWRENCE,MA
819,94724,20.6,28.9,359.4,-70.615,41.393,VINEYARD HAVEN,MA
820,94725,9.2,14.2,417.4,-74.846,44.936,MASSENA,NY
821,94726,18.3,27.0,350.8,-70.958,41.676,NEW BEDFORD,MA
822,94728,17.5,29.7,292.9,-73.967,40.783,NEW YORK,NY
823,94740,10.0,11.2,508.0,-74.207,44.385,SARANAC LAKE,NY
824,94741,15.7,27.4,299.0,-74.061,40.850,TETERBORO,NJ
825,94745,15.4,25.1,331.1,-73.708,41.067,WHITE PLAINS,NY
826,94746,14.3,21.9,368.1,-71.876,42.267,WORCESTER,MA
827,94765,9.2,17.7,347.7,-72.305,43.626,LEBANON,NH
828,94789,17.7,29.1,305.8,-73.796,40.655,NEW YORK,NY
829,94790,12.5,16.4,443.3,-76.022,43.992,WATERTOWN,NY
830,94814,10.6,14.6,440.2,-84.691,44.368,HOUGHTON LAKE,MI
831,94815,14.8,20.9,397.6,-85.552,42.235,KALAMAZOO,MI
832,94817,13.9,19.0,417.4,-83.418,42.665,PONTIAC,MI
833,94818,12.8,20.2,370.5,-87.814,42.761,RACINE,WI
834,94822,11.4,19.9,349.6,-89.093,42.196,ROCKFORD,IL
835,94823,16.2,24.2,361.9,-80.231,40.501,PITTSBURGH,PA
836,94830,15.1,21.2,397.6,-83.801,41.589,TOLEDO,OH
837,94846,13.7,20.6,381.0,-87.914,41.986,CHICAGO,IL
838,94847,15.3,21.9,387.8,-83.349,42.215,DETROIT,MI
839,94849,10.0,14.3,433.4,-83.581,45.072,ALPENA,MI
840,94860,14.8,21.4,387.8,-85.523,42.882,GRAND RAPIDS,MI
841,94870,17.2,21.2,443.3,-88.278,40.040,CHAMPAIGN/URBANA,IL
842,94871,15.5,22.7,376.7,-86.422,42.129,BENTON HARBOR,MI
843,94889,14.1,18.6,430.9,-83.744,42.223,ANN ARBOR,MI
844,94892,13.2,20.1,380.4,-88.246,41.914,CHICAGO/WEST CHICAGO,IL
845,94893,6.3,11.9,402.6,-88.114,45.818,IRON MOUNTAIN/KINGSFORD,MI
846,94895,16.1,21.8,406.3,-85.394,40.234,MUNCIE,IN
847,94898,14.7,20.4,405.7,-82.793,44.022,HARBOR BEACH,MI
848,94899,11.9,17.8,400.1,-87.875,47.467,COPPER HARBOR,MI
849,94908,10.7,15.7,418.0,-90.704,42.398,DUBUQUE,IA
850,94910,10.1,13.6,451.3,-92.401,42.554,WATERLOO,IA
851,94929,6.5,11.4,418.0,-90.919,46.549,ASHLAND,WI
852,94931,-0.4,3.7,432.8,-92.839,47.387,HIBBING,MN
853,94938,0.1,6.0,392.7,-94.131,46.405,BRAINERD,MN
854,94943,9.0,13.9,419.2,-99.318,43.767,CHAMBERLAIN,SD
855,94946,14.5,19.9,411.8,-99.639,41.437,BROKEN BOW,NE
856,94949,13.5,19.4,400.7,-98.427,40.604,HASTINGS,NE
857,94950,6.8,13.2,386.6,-98.038,43.777,MITCHELL,SD
858,94957,15.1,20.1,420.5,-95.592,40.079,FALLS CITY,NE
859,94958,11.4,16.7,411.8,-98.952,41.624,ORD,NE
860,94961,-2.9,-0.2,466.1,-94.610,48.728,BAUDETTE,MN
861,94963,5.7,11.0,408.7,-93.470,44.832,MINNEAPOLIS,MN
862,94967,-0.4,2.6,459.3,-95.068,46.901,PARK RAPIDS,MN
863,94971,7.4,10.5,459.9,-94.746,43.408,ESTHERVILLE,IA
864,94973,4.2,9.5,408.1,-91.444,46.026,HAYWARD,WI
865,94978,10.3,16.1,400.7,-96.178,41.764,TEKAMAH,NE
866,94982,11.6,17.7,395.8,-90.591,41.614,DAVENPORT,IA
867,94985,6.1,11.7,402.6,-90.189,44.637,MARSHFIELD,WI
868,94988,10.3,14.7,430.9,-92.918,42.113,MARSHALLTOWN,IA
869,94989,10.2,15.0,422.3,-93.622,41.992,AMES,IA
870,94990,11.5,16.9,410.0,-99.842,43.390,WINNER,SD
871,94991,13.0,18.7,404.4,-93.902,40.633,LAMONI,IA
872,94992,4.1,11.8,358.8,-90.344,47.747,GRAND MARAIS,MN
873,94993,2.0,6.0,436.5,-96.991,45.669,SISSETON,SD
874,94994,9.7,16.0,390.3,-90.678,43.156,BOSCOBEL,WI
