,wban,dewpt,tavg,wp,long,lat,stname,ststate
0,03013,15.6,21.5,402.0,-102.688,38.070,LAMAR,CO
1,03017,14.5,26.7,290.4,-104.658,39.833,DENVER,CO
2,03024,26.3,36.3,334.8,-101.394,35.700,BORGER,TX
3,03026,17.8,29.2,305.8,-102.284,39.245,BURLINGTON,CO
4,03027,17.8,25.1,376.1,-105.663,35.003,CLINES CORNERS,NM
5,03029,17.2,27.3,326.1,-109.061,35.658,WINDOW ROCK,AZ
6,03030,24.5,32.7,364.4,-101.505,36.682,GUYMON,OK
7,03032,31.7,48.0,250.3,-102.213,30.048,DRYDEN,TX
8,03068,12.2,25.1,278.1,-104.300,38.767,BULLSEYE,CO
9,03102,26.1,52.3,144.9,-117.600,34.056,ONTARIO,CA
10,03103,15.5,26.3,313.2,-111.672,35.140,FLAGSTAFF,AZ
11,03104,25.8,50.6,156.6,-116.160,33.628,PALM SPRINGS,CA
12,03131,37.0,53.7,250.3,-117.139,32.816,SAN DIEGO,CA
13,03144,30.1,52.0,187.5,-115.579,32.834,IMPERIAL,CA
14,03145,27.7,54.6,141.2,-114.617,32.650,YUMA,AZ
15,03159,17.8,41.9,154.2,-118.219,34.741,LANCASTER,CA
16,03162,22.3,37.1,260.8,-111.448,36.926,PAGE,AZ
17,03164,22.1,44.3,176.4,-116.467,32.617,CAMPO,CA
18,03166,35.2,56.2,201.6,-117.979,33.872,FULLERTON,CA
19,03167,36.4,56.1,216.4,-118.334,33.923,HAWTHORNE,CA
20,03170,7.9,27.6,186.8,-116.006,39.601,EUREKA,NV
21,03171,25.2,54.3,122.1,-117.439,33.952,RIVERSIDE,CA
22,03177,36.7,53.9,244.2,-117.279,33.128,CARLSBAD,CA
23,03178,36.5,52.3,260.8,-116.979,32.572,SAN DIEGO,CA
24,03179,31.4,51.4,208.4,-117.636,33.975,CHINO,CA
25,03184,30.0,50.5,201.6,-112.082,33.688,PHOENIX,AZ
26,03192,32.5,51.1,224.4,-111.911,33.623,SCOTTSDALE,AZ
27,03195,15.9,27.5,300.9,-112.155,35.946,GRAND CANYON,AZ
28,03196,25.7,46.4,194.9,-110.846,31.421,NOGALES,AZ
29,03749,27.6,38.5,321.8,-77.468,39.645,CAMP DAVID,MD
30,03757,33.8,46.1,305.8,-76.429,38.142,ST INIGOES,MD
31,03802,30.5,39.4,356.3,-80.229,39.296,CLARKSBURG,WV
32,03804,31.6,40.6,355.1,-81.439,39.345,PARKERSBURG,WV
33,03810,35.6,46.4,329.2,-81.390,35.741,HICKORY,NC
34,03811,35.8,43.2,385.3,-88.917,35.593,JACKSON,TN
35,03812,33.5,44.3,328.0,-82.538,35.432,ASHEVILLE,NC
36,03813,42.4,51.0,369.3,-83.654,32.688,MACON,GA
37,03816,34.2,41.8,381.0,-88.774,37.056,PADUCAH,KY
38,03818,47.9,56.2,377.9,-85.184,30.836,MARIANNA,FL
39,03822,45.1,55.8,337.9,-81.202,32.119,SAVANNAH,GA
40,03847,34.3,43.3,357.0,-85.085,35.951,CROSSVILLE,TN
41,03849,33.4,41.6,369.9,-84.077,37.087,LONDON,KY
42,03853,51.6,60.4,371.8,-81.417,30.400,MAYPORT,FL
43,03855,50.2,55.9,423.5,-87.317,30.350,PENSACOLA,FL
44,03856,37.6,46.7,357.6,-86.786,34.644,HUNTSVILLE,AL
45,03859,29.7,43.1,286.7,-81.208,37.296,BLUEFIELD,WV
46,03860,32.3,42.0,344.0,-82.555,38.382,HUNTINGTON,WV
47,03866,41.0,49.4,371.8,-88.567,32.550,MERIDIAN,MS
48,03868,31.8,37.8,408.7,-87.309,39.452,TERRE HAUTE,IN
49,03870,37.9,48.6,332.9,-82.219,34.899,GREER,SC
50,03872,29.9,39.9,337.9,-81.125,37.795,BECKLEY,WV
51,03878,44.2,51.2,397.6,-86.012,31.861,TROY,AL
52,03887,31.7,37.1,420.5,-88.866,39.984,DECATUR,IL
53,03888,39.4,49.5,342.8,-84.521,33.779,ATLANTA,GA
54,03889,31.7,43.5,311.4,-83.314,37.591,JACKSON,KY
55,03893,31.5,38.4,392.1,-86.617,39.144,BLOOMINGTON,IN
56,03894,34.9,42.1,388.4,-87.415,36.622,CLARKSVILLE,TN
57,03901,41.1,48.6,387.2,-94.711,32.385,LONGVIEW,TX
58,03902,37.6,49.2,318.7,-97.822,31.070,FORT HOOD/KILLEEN,TX
59,03904,43.6,53.0,357.0,-96.364,30.588,COLLEGE STATION,TX
60,03919,26.1,33.7,376.1,-97.661,38.813,SALINA,KS
61,03927,36.8,47.6,330.5,-97.041,32.896,DALLAS-FORT WORTH,TX
62,03928,29.4,36.7,383.5,-97.429,37.647,WICHITA,KS
63,03931,43.7,51.2,388.4,-93.192,31.045,FORT POLK,LA
64,03932,30.4,39.6,350.8,-99.200,35.340,CLINTON,OK
65,03935,34.5,40.5,410.6,-89.571,37.225,CAPE GIRARDEAU,MO
66,03936,26.9,34.9,369.3,-96.678,39.135,MANHATTAN,KS
67,03937,46.9,54.8,383.5,-93.228,30.125,LAKE CHARLES,LA
68,03940,42.6,49.8,393.3,-90.078,32.320,JACKSON,MS
69,03945,29.8,37.8,371.1,-92.218,38.817,COLUMBIA,MO
70,03947,27.8,36.0,366.2,-94.718,39.299,KANSAS CITY,MO
71,03949,42.9,49.8,398.3,-93.283,31.400,FORT POLK,LA
72,03950,32.5,41.3,359.4,-98.416,34.568,LAWTON,OK
73,03953,35.0,42.7,379.8,-90.646,35.831,JONESBORO,AR
74,03954,30.9,40.9,338.5,-97.647,35.534,OKLAHOMA CITY,OK
75,03957,27.4,39.6,301.5,-98.553,37.284,MEDICINE LODGE,KS
76,03959,29.7,39.0,349.0,-96.011,36.762,BARTLESVILLE,OK
77,03960,31.5,39.8,366.8,-90.157,38.571,CAHOKIA/ST.LOUIS,IL
78,03962,36.1,45.6,350.2,-93.096,34.478,HOT SPRINGS,AR
79,03963,29.4,39.9,329.2,-92.156,38.591,JEFFERSON CITY,MO
80,03965,29.3,40.1,324.3,-97.086,36.160,STILLWATER,OK
81,03966,30.5,38.8,366.2,-90.656,38.657,ST LOUIS,MO
82,03967,27.9,36.9,352.7,-94.739,38.850,OLATHE,KS
83,03971,37.3,47.9,333.5,-96.868,32.681,DALLAS,TX
84,03974,28.1,37.0,354.5,-97.219,37.750,WICHITA,KS
85,03975,34.8,41.9,390.3,-90.325,36.773,POPLAR BLUFF,MO
86,03981,33.2,42.0,360.0,-98.984,34.352,FREDERICK,OK
87,03991,36.5,45.1,365.6,-97.199,33.206,DENTON,TX
88,03994,30.4,40.2,340.9,-93.183,38.704,SEDALIA,MO
89,03996,42.5,48.4,416.1,-91.030,32.348,TALLULAH/VICKSBURG,MS
90,03997,27.1,35.5,362.5,-95.212,39.008,LAWRENCE,KS
91,03998,28.9,39.0,335.4,-95.504,37.328,PARSONS,KS
92,03999,38.9,49.6,333.5,-98.235,30.741,BURNET,TX
93,04109,28.0,33.7,413.1,-115.596,46.144,ELK CITY,ID
94,04110,16.5,27.5,310.7,-114.456,42.727,JEROME,ID
95,04111,11.3,20.8,331.7,-111.031,41.273,EVANSTON,WY
96,04112,5.4,12.8,365.6,-114.927,44.171,STANLEY,ID
97,04113,26.2,31.2,426.0,-119.261,45.826,HERMISTON,OR
98,04114,11.2,20.3,338.5,-114.215,41.523,CHALLIS,ID
99,04134,17.5,22.1,430.3,-113.351,40.161,DUGWAY PROVING GROUND,UT
100,04201,34.0,37.0,471.0,-122.861,45.773,SCAPPOOSE,OR
101,04724,28.9,34.6,413.1,-78.945,43.107,NIAGARA FALLS,NY
102,04725,24.1,33.0,351.4,-75.981,42.208,BINGHAMTON,NY
103,04726,27.5,34.3,391.5,-78.834,40.301,JOHNSTOWN,PA
104,04751,25.4,32.0,393.9,-78.640,41.803,BRADFORD,PA
105,04780,26.1,36.6,326.8,-71.756,42.552,FITCHBURG,MA
106,04781,31.2,40.5,350.2,-73.102,40.794,ISLIP,NY
107,04787,27.6,33.5,408.7,-78.899,41.178,DU BOIS,PA
108,04789,27.8,36.4,359.4,-74.265,41.509,MONTGOMERY,NY
109,04803,17.6,21.5,445.1,-89.465,45.631,RHINELANDER,WI
110,04804,31.2,37.4,405.0,-83.078,40.078,COLUMBUS,OH
111,04808,28.0,33.4,418.6,-88.481,41.770,CHICAGO/AURORA,IL
112,04826,20.6,25.8,419.2,-89.837,44.359,WISCONSIN RAPIDS,WI
113,04836,16.2,20.0,447.0,-68.307,47.286,FRENCHVILLE,ME
114,04838,27.1,35.9,355.7,-87.905,42.121,CHICAGO/PROSPECT HGTS/WHEELI,IL
115,04839,26.4,36.2,338.5,-86.097,42.746,HOLLAND,MI
116,04840,23.8,30.7,387.2,-88.486,43.770,FOND DU LAC,WI
117,04841,24.0,30.6,393.3,-87.851,43.769,SHEBOYGAN,WI
118,04842,30.2,35.2,427.9,-81.887,40.875,WOOSTER,OH
119,04843,28.3,34.7,399.5,-80.215,41.626,MEADVILLE,PA
120,04845,25.3,32.8,377.3,-87.938,42.595,KENOSHA,WI
121,04846,28.8,34.5,413.1,-87.006,41.453,VALPARAISO,IN
122,04848,30.1,36.1,408.1,-83.476,41.563,TOLEDO,OH
123,04849,30.4,37.8,382.2,-82.179,41.179,LORAIN/ELYRIA,OH
124,04850,28.9,36.6,376.1,-84.027,40.708,LIMA,OH
125,04851,28.9,35.9,388.4,-84.429,41.338,DEFIANCE,OH
126,04852,29.1,37.1,370.5,-81.420,40.470,NEW PHILADELPHIA,OH
127,04853,30.2,39.2,354.5,-81.684,41.518,CLEVELAND,OH
128,04854,23.3,27.0,451.9,-84.701,45.013,GAYLORD,MI
129,04855,30.4,35.6,424.2,-83.064,40.616,MARION,OH
130,04857,28.8,36.2,381.0,-80.696,41.778,ASHTABULA,OH
131,04858,30.9,37.3,400.7,-82.463,40.023,NEWARK,OH
133,12812,57.5,67.7,353.9,-81.991,26.917,PUNTA GORDA,FL
134,12815,56.6,65.9,366.8,-81.325,28.434,ORLANDO,FL
135,12816,51.2,60.5,363.7,-82.272,29.690,GAINESVILLE,FL
136,12818,54.2,63.3,368.7,-82.454,28.474,BROOKSVILLE,FL
137,12819,54.4,65.0,345.9,-81.810,28.821,LEESBURG,FL
138,12832,50.6,59.1,376.1,-85.033,29.733,APALACHICOLA,FL
139,12833,50.7,58.9,381.0,-83.105,29.550,CROSS CITY,FL
140,12834,56.2,64.6,381.0,-81.060,29.177,DAYTONA BEACH,FL
141,12835,58.3,69.8,336.0,-81.864,26.586,FORT MYERS,FL
142,12836,65.3,73.9,382.9,-81.754,24.553,KEY WEST,FL
143,12838,58.7,67.7,373.0,-80.646,28.103,MELBOURNE,FL
144,12839,61.3,73.2,332.3,-80.300,25.824,MIAMI,FL
145,12841,56.8,65.8,371.8,-81.333,28.545,ORLANDO,FL
146,12842,56.4,67.6,339.1,-82.540,27.961,TAMPA,FL
147,12843,59.1,69.3,355.1,-80.418,27.656,VERO BEACH,FL
148,12844,62.1,72.1,360.0,-80.099,26.685,WEST PALM BEACH,FL
149,12849,62.0,73.5,338.5,-80.154,26.072,FORT LAUDERDALE,FL
150,12850,64.7,74.2,369.3,-81.683,24.583,KEY WEST,FL
151,12854,56.2,66.2,356.3,-81.244,28.780,ORLANDO,FL
152,12871,57.0,67.5,349.6,-82.559,27.401,SARASOTA/BRADENTON,FL
153,12873,57.2,67.2,357.0,-82.688,27.911,ST PETERSBURG/CLEARWATER,FL
154,12876,56.5,66.4,358.2,-81.754,28.062,WINTER HAVEN,FL
155,12882,61.4,72.4,345.3,-80.280,25.907,MIAMI,FL
156,12884,52.6,59.3,407.5,-89.408,29.350,BOOTHVILLE,LA
157,12885,60.7,73.6,318.7,-80.171,26.197,FORT LAUDERDALE,FL
158,12894,58.1,68.8,347.1,-81.755,26.536,FORT MYERS,FL
159,12895,59.8,67.9,387.8,-80.377,27.498,FORT PIERCE,FL
160,12896,65.6,74.6,377.3,-81.052,24.726,MARATHON,FL
161,12897,59.9,69.4,366.2,-81.775,26.153,NAPLES,FL
162,12904,54.0,62.8,373.6,-97.654,26.228,HARLINGEN,TX
163,12917,47.5,56.8,361.3,-94.021,29.951,BEAUMONT/PORT ARTHUR,TX
164,12918,47.7,56.2,374.2,-95.279,29.645,HOUSTON,TX
165,12919,55.4,62.9,395.2,-97.426,25.906,BROWNSVILLE,TX
166,12921,43.3,54.0,336.6,-98.464,29.533,SAN ANTONIO,TX
167,12924,50.6,59.5,369.3,-97.513,27.773,CORPUS CHRISTI,TX
168,12928,50.1,59.2,366.2,-97.817,27.500,KINGSVILLE,TX
169,12932,48.9,58.7,354.5,-98.027,27.741,ALICE,TX
170,12935,50.8,57.1,413.1,-96.251,28.728,PALACIOS,TX
171,12946,50.7,61.7,337.9,-97.434,27.700,CORPUS CHRISTI,TX
172,12947,45.7,55.4,353.9,-99.220,28.458,COTULLA,TX
173,12957,56.5,63.7,400.7,-97.346,26.166,PORT ISABEL,TX
174,12958,48.6,56.8,379.8,-90.033,29.833,NEW ORLEANS,LA
175,12959,51.8,61.8,353.3,-98.238,26.175,MC ALLEN,TX
176,12960,46.1,53.3,395.2,-95.364,29.993,HOUSTON,TX
177,12968,50.0,57.7,389.0,-91.526,29.562,SALT POINT,LA
178,12970,44.3,54.7,342.2,-98.471,29.337,SAN ANTONIO,TX
179,12971,43.8,52.0,376.7,-98.045,29.709,NEW BRAUNFELS,TX
180,12972,51.4,58.4,401.3,-97.046,28.084,ROCKPORT,TX
181,12975,48.5,55.9,392.7,-95.240,29.521,HOUSTON,TX
182,12976,49.2,56.1,402.0,-95.462,29.110,ANGLETON/LAKE JACKSON,TX
183,12977,47.2,55.6,375.5,-95.656,29.622,HOUSTON,TX
184,13721,34.6,44.9,336.6,-76.400,38.283,PATUXENT RIVER,MD
185,13722,36.5,48.4,313.8,-78.786,35.871,RALEIGH/DURHAM,NC
186,13723,34.9,46.7,313.8,-79.944,36.098,GREENSBORO,NC
187,13728,34.8,44.4,347.7,-79.336,36.573,DANVILLE,VA
188,13729,28.5,37.4,354.5,-79.853,38.885,ELKINS,WV
189,13733,32.5,42.8,334.8,-79.207,37.338,LYNCHBURG,VA
190,13734,29.2,40.1,323.1,-77.984,39.402,MARTINSBURG,WV
191,13735,33.6,40.9,385.9,-75.078,39.366,MILLVILLE,NJ
192,13736,30.6,40.7,336.6,-79.916,39.643,MORGANTOWN,WV
193,13737,39.4,50.4,329.2,-76.192,36.904,NORFOLK,VA
194,13739,31.4,43.3,309.5,-75.231,39.868,PHILADELPHIA,PA
195,13740,35.4,46.3,328.0,-77.323,37.511,RICHMOND,VA
196,13741,31.4,44.0,299.0,-79.974,37.317,ROANOKE,VA
197,13743,33.3,45.0,313.8,-77.034,38.865,WASHINGTON,DC
198,13748,42.9,52.7,350.2,-77.906,34.268,WILMINGTON,NC
199,13750,37.9,50.7,302.1,-76.283,36.933,NORFOLK,VA
200,13752,35.0,45.8,329.2,-76.483,38.991,ANNAPOLIS,MD
201,13754,42.5,51.8,358.2,-76.883,34.900,CHERRY POINT,NC
202,13764,34.7,44.5,344.6,-75.359,38.689,GEORGETOWN,DE
203,13769,38.8,47.8,360.0,-76.033,36.817,OCEANA,VA
204,13776,41.3,50.4,360.0,-79.059,34.610,LUMBERTON,NC
205,13781,34.5,40.0,419.8,-75.601,39.673,WILMINGTON,DE
206,13786,41.0,49.2,374.8,-76.175,36.261,ELIZABETH CITY,NC
207,13809,32.2,39.3,389.0,-87.606,38.764,LAWRENCEVILLE,IL
208,13810,33.7,42.6,358.2,-85.664,38.228,LOUISVILLE,KY
209,13833,45.2,52.9,385.9,-89.253,31.265,HATTIESBURG,MS
210,13837,41.2,52.9,320.0,-82.039,33.467,AUGUSTA,GA
211,13838,48.3,55.8,391.5,-88.068,30.626,MOBILE,AL
212,13839,46.1,55.5,358.8,-85.450,31.321,DOTHAN,AL
213,13841,31.8,38.6,393.9,-83.822,39.420,WILMINGTON,OH
214,13865,42.6,49.3,402.0,-88.751,32.333,MERIDIAN,MS
215,13866,32.1,42.5,332.9,-81.591,38.379,CHARLESTON,WV
216,13869,44.8,55.5,337.9,-84.194,31.536,ALBANY,GA
217,13870,45.0,56.1,331.7,-82.507,31.536,ALMA,GA
218,13871,40.2,49.2,361.3,-85.858,33.588,ANNISTON,AL
219,13873,38.7,49.6,330.5,-83.327,33.948,ATHENS,GA
220,13874,38.7,50.5,316.9,-84.427,33.640,ATLANTA,GA
221,13876,40.6,49.6,361.3,-86.754,33.564,BIRMINGHAM,AL
222,13877,34.3,42.8,365.6,-82.399,36.480,BRISTOL/JHNSN CTY/KNGSPRT,TN
223,13878,51.0,58.7,389.6,-81.391,31.252,BRUNSWICK,GA
224,13880,45.1,54.9,352.0,-80.041,32.899,CHARLESTON,SC
225,13881,37.8,47.9,342.2,-80.944,35.214,CHARLOTTE,NC
226,13882,38.2,46.6,369.9,-85.200,35.033,CHATTANOOGA,TN
227,13883,40.2,51.6,323.7,-81.118,33.942,COLUMBIA,SC
228,13884,47.2,55.3,380.4,-86.523,30.780,CRESTVIEW,FL
229,13886,37.6,49.0,321.8,-82.346,34.846,GREENVILLE,SC
230,13889,50.9,58.8,385.9,-81.693,30.494,JACKSONVILLE,FL
231,13891,36.9,45.0,374.2,-83.986,35.818,KNOXVILLE,TN
232,13893,36.5,46.6,340.9,-89.985,35.061,MEMPHIS,TN
233,13894,47.4,55.3,384.1,-88.246,30.688,MOBILE,AL
234,13895,43.5,52.4,365.0,-86.394,32.301,MONTGOMERY,AL
235,13896,37.7,46.4,364.4,-87.610,34.745,MUSCLE SHOALS,AL
236,13897,34.5,43.9,350.8,-86.689,36.119,NASHVILLE,TN
237,13899,49.4,57.4,383.5,-87.188,30.473,PENSACOLA,FL
238,13904,43.1,51.4,374.8,-97.681,30.179,AUSTIN/BERGSTROM,TX
239,13911,35.0,47.4,305.2,-97.441,32.769,FORT WORTH,TX
240,13920,27.2,36.4,349.0,-95.664,38.950,TOPEKA,KS
241,13927,42.5,50.0,387.8,-90.223,32.335,JACKSON,MS
242,13932,29.9,38.5,360.7,-97.037,37.168,WINFIELD/ARKANSAS CITY,KS
243,13935,43.6,49.7,413.1,-92.296,31.395,ALEXANDRIA,LA
244,13939,40.9,45.8,434.6,-90.986,33.483,GREENVILLE,MS
245,13942,41.4,48.8,389.0,-92.038,32.511,MONROE,LA
246,13957,41.4,48.8,389.0,-93.824,32.447,SHREVEPORT,LA
247,13958,41.1,51.0,347.7,-97.767,30.317,AUSTIN/CITY,TX
248,13959,39.5,48.3,363.7,-97.229,31.611,WACO,TX
249,13960,37.4,48.3,329.2,-96.851,32.847,DALLAS,TX
250,13961,36.5,46.4,344.0,-97.361,32.819,FORT WORTH,TX
251,13962,33.9,44.1,337.2,-99.682,32.411,ABILENE,TX
252,13963,36.9,45.7,362.5,-92.233,34.747,LITTLE ROCK,AR
253,13964,34.3,44.9,331.7,-94.365,35.334,FORT SMITH,AR
254,13966,33.8,42.7,358.2,-98.493,33.979,WICHITA FALLS,TX
255,13967,30.6,41.1,330.5,-97.600,35.389,OKLAHOMA CITY,OK
256,13968,30.9,42.5,313.8,-95.886,36.198,TULSA,OK
257,13969,29.6,39.1,345.3,-97.100,36.731,PONCA CITY,OK
258,13970,47.6,54.3,404.4,-91.147,30.537,BATON ROUGE,LA
259,13971,30.2,41.7,314.4,-93.155,36.261,HARRISON,AR
260,13972,39.6,48.3,365.6,-95.402,32.354,TYLER,TX
261,13973,37.3,48.2,329.2,-99.766,30.511,JUNCTION,TX
262,13975,27.6,36.9,347.1,-99.775,36.297,GAGE,OK
263,13976,47.5,54.9,392.7,-91.988,30.205,LAFAYETTE,LA
264,13977,38.6,47.0,369.9,-94.008,33.454,TEXARKANA,AR
265,13978,39.6,46.8,391.5,-90.084,33.496,GREENWOOD,MS
266,13981,29.2,37.9,358.8,-95.484,37.670,CHANUTE,KS
267,13984,24.6,33.9,345.3,-97.652,39.549,CONCORDIA,KS
268,13985,23.9,31.6,372.4,-99.970,37.773,DODGE CITY,KS
269,13986,26.6,34.8,365.6,-97.861,38.068,HUTCHINSON,KS
270,13987,30.4,39.8,347.7,-94.498,37.149,JOPLIN,MO
271,13988,27.8,38.6,323.1,-94.593,39.123,KANSAS CITY,MO
272,13989,28.1,36.8,358.2,-96.190,38.331,EMPORIA,KS
273,13993,28.1,34.4,401.3,-94.907,39.774,ST JOSEPH,MO
274,13994,30.9,40.8,339.7,-90.374,38.753,ST LOUIS,MO
275,13995,29.2,38.3,352.0,-93.390,37.240,SPRINGFIELD,MO
276,13996,28.2,36.5,365.0,-95.626,39.073,TOPEKA,KS
277,13997,29.8,38.5,358.8,-91.769,38.128,ROLLA/VICHY,MO
278,14605,22.4,29.9,375.5,-69.797,44.321,AUGUSTA,ME
279,14606,22.8,28.6,408.1,-68.824,44.808,BANGOR,ME
280,14607,18.1,22.5,434.6,-68.033,46.867,CARIBOU,ME
281,14609,19.4,23.7,437.7,-67.792,46.123,HOULTON,ME
282,14610,20.2,26.2,402.6,-68.686,45.648,MILLINOCKET,ME
283,14702,27.5,35.8,364.4,-71.289,42.470,BEDFORD,MA
284,14707,30.3,39.8,345.9,-72.049,41.328,GROTON NEW LONDON,CT
285,14710,24.3,35.2,318.7,-71.438,42.933,MANCHESTER,NH
286,14711,29.6,39.0,347.1,-76.763,40.194,HARRISBURG,PA
287,14712,30.6,39.7,352.7,-75.959,40.373,READING,PA
288,14719,30.5,38.2,376.7,-72.632,40.844,WESTHAMPTON BEACH,NY
289,14732,29.8,43.3,285.5,-73.881,40.779,NEW YORK,NY
290,14733,27.9,35.5,377.3,-78.736,42.941,BUFFALO,NY
291,14734,29.8,42.6,295.3,-74.169,40.716,NEWARK,NJ
292,14735,26.5,34.0,377.9,-73.803,42.748,ALBANY,NY
293,14736,27.6,37.2,342.2,-78.317,40.300,ALTOONA,PA
294,14737,29.9,38.4,362.5,-75.449,40.651,ALLENTOWN,PA
295,14739,28.2,40.0,308.3,-71.011,42.361,BOSTON,MA
296,14740,27.0,37.6,325.5,-72.683,41.938,WINDSOR LOCKS,CT
297,14742,22.3,30.6,360.7,-73.150,44.468,BURLINGTON,VT
298,14745,23.7,31.4,372.4,-71.501,43.195,CONCORD,NH
299,14747,28.3,36.3,370.5,-79.272,42.493,DUNKIRK,NY
300,14748,26.7,34.5,373.0,-76.892,42.159,ELMIRA/CORNING,NY
301,14750,25.1,31.5,397.6,-73.610,43.341,GLENS FALLS,NY
302,14751,29.7,39.4,342.2,-76.851,40.217,HARRISBURG,PA
303,14752,27.2,37.9,324.3,-72.651,41.736,HARTFORD,CT
304,14756,35.9,42.2,405.7,-70.061,41.253,NANTUCKET,MA
305,14757,27.6,37.2,342.2,-73.884,41.627,POUGHKEEPSIE,NY
306,14758,30.0,40.1,336.0,-72.887,41.264,NEW HAVEN,CT
307,14762,28.7,38.4,341.6,-79.922,40.355,PITTSBURGH,PA
308,14763,26.0,32.5,396.4,-73.289,42.427,PITTSFIELD,MA
309,14764,24.2,33.3,348.3,-70.304,43.642,PORTLAND,ME
310,14765,28.8,39.2,330.5,-71.433,41.722,PROVIDENCE,RI
311,14768,26.9,34.9,369.3,-77.677,43.117,ROCHESTER,NY
312,14770,29.7,37.2,379.8,-76.864,40.821,SELINSGROVE,PA
313,14771,26.5,35.8,346.5,-76.103,43.109,SYRACUSE,NY
314,14775,25.7,36.1,328.0,-72.716,42.158,WESTFIELD/SPRINGFIELD,MA
315,14777,27.8,36.2,363.1,-75.727,41.339,WILKES-BARRE/SCRANTON,PA
316,14778,28.3,36.4,368.7,-76.922,41.243,WILLIAMSPORT,PA
317,14787,31.8,39.9,370.5,-71.284,41.530,NEWPORT,RI
318,14792,30.2,42.3,305.8,-74.814,40.277,TRENTON,NJ
319,14794,30.9,39.7,358.2,-71.799,41.350,WESTERLY,RI
320,14813,29.5,36.0,398.3,-81.464,41.038,AKRON,OH
321,14815,27.4,33.3,408.7,-85.251,42.308,BATTLE CREEK,MI
322,14819,27.6,35.8,366.2,-87.752,41.786,CHICAGO,IL
323,14820,30.1,37.5,382.2,-81.853,41.405,CLEVELAND,OH
324,14821,32.1,39.0,392.1,-82.881,39.991,COLUMBUS,OH
325,14822,28.5,35.6,386.6,-83.010,42.409,DETROIT,MI
326,14825,30.4,35.8,419.8,-83.669,41.014,FINDLAY,OH
327,14826,26.4,33.3,389.0,-83.749,42.967,FLINT,MI
328,14827,29.5,35.2,413.7,-85.206,41.006,FORT WAYNE,IN
329,14829,28.5,34.7,403.2,-85.792,41.527,GOSHEN,IN
330,14833,25.8,33.0,382.9,-84.459,42.260,JACKSON,MI
331,14835,31.8,36.9,426.6,-86.937,40.412,LAFAYETTE,IN
332,14836,26.8,33.2,398.9,-84.579,42.780,LANSING,MI
333,14837,24.0,30.9,387.8,-89.345,43.141,MADISON,WI
334,14839,24.8,33.3,358.8,-87.897,42.947,MILWAUKEE,WI
335,14840,27.9,36.3,363.1,-86.237,43.171,MUSKEGON,MI
336,14841,24.3,28.9,433.4,-84.796,45.571,PELLSTON,MI
337,14842,28.4,35.4,388.4,-89.684,40.668,PEORIA,IL
338,14845,25.9,33.0,384.7,-84.080,43.533,SAGINAW,MI
339,14847,19.7,26.0,396.4,-84.367,46.467,SAULT STE MARIE,MI
340,14848,27.7,35.1,380.4,-86.333,41.707,SOUTH BEND,IN
341,14850,24.9,32.9,368.1,-85.583,44.741,TRAVERSE CITY,MI
342,14852,28.6,35.8,384.7,-80.674,41.254,YOUNGSTOWN/WARREN,OH
343,14853,27.2,35.8,358.8,-83.230,42.237,DETROIT,MI
344,14858,18.5,24.4,403.8,-88.506,47.169,HANCOCK,MI
345,14860,29.0,37.6,360.0,-80.183,42.080,ERIE,PA
346,14880,26.7,33.8,385.3,-87.868,42.422,CHICAGO/WAUKEGAN,IL
347,14891,30.6,35.9,422.3,-82.518,40.820,MANSFIELD,OH
348,14894,29.4,38.1,358.8,-80.647,40.176,WHEELING,WV
349,14895,28.8,36.3,379.8,-81.443,40.918,AKRON,OH
350,14897,19.0,25.0,402.0,-89.627,44.929,WAUSAU,WI
351,14898,21.7,29.1,376.7,-88.120,44.513,GREEN BAY,WI
352,14910,17.5,24.4,383.5,-95.393,45.883,ALEXANDRIA,MN
353,14913,14.3,21.8,369.9,-92.194,46.844,DULUTH,MN
354,14914,14.8,25.3,317.5,-96.811,46.925,FARGO,ND
355,14916,14.7,22.3,368.1,-97.176,47.949,GRAND FORKS,ND
356,14918,13.1,18.7,406.9,-93.403,48.566,INTERNATIONAL FALLS,MN
357,14919,16.7,23.9,377.3,-98.678,46.930,JAMESTOWN,ND
358,14920,23.0,28.1,422.3,-91.256,43.754,LA CROSSE,WI
359,14921,23.0,30.3,379.2,-90.181,43.212,LONE ROCK,WI
360,14922,19.3,27.8,355.1,-93.229,44.883,MINNEAPOLIS,MN
361,14923,27.5,34.1,395.2,-90.523,41.465,MOLINE,IL
362,14925,21.6,26.1,434.0,-92.492,43.904,ROCHESTER,MN
363,14926,17.7,25.4,368.7,-94.052,45.545,ST CLOUD,MN
364,14927,19.7,27.3,371.8,-93.048,44.930,ST PAUL,MN
365,14929,16.5,24.4,363.7,-98.421,45.450,ABERDEEN,SD
366,14931,28.6,34.1,417.4,-91.125,40.783,BURLINGTON,IA
367,14933,24.7,32.9,364.4,-93.666,41.538,DES MOINES,IA
368,14935,20.9,29.6,352.7,-98.313,40.958,GRAND ISLAND,NE
369,14936,18.8,27.0,360.0,-98.229,44.385,HURON,SD
370,14937,26.5,32.5,406.3,-91.543,41.633,IOWA CITY,IA
371,14938,26.8,35.1,363.7,-92.543,40.097,KIRKSVILLE,MO
372,14939,22.8,29.2,396.4,-96.764,40.831,LINCOLN,NE
373,14940,21.1,26.1,423.5,-93.331,43.158,MASON CITY,IA
374,14941,20.2,27.7,373.6,-97.437,41.981,NORFOLK,NE
375,14942,23.5,30.2,390.9,-95.899,41.310,OMAHA,NE
376,14943,19.8,26.6,386.6,-96.379,42.391,SIOUX CITY,IA
377,14944,18.3,26.9,352.7,-96.754,43.577,SIOUX FALLS,SD
378,14946,17.6,24.5,383.5,-97.154,44.931,WATERTOWN,SD
379,14950,26.5,32.9,398.3,-92.448,41.107,OTTUMWA,IA
380,14972,19.7,25.4,408.1,-95.202,43.164,SPENCER,IA
381,14990,25.0,31.1,403.2,-91.709,41.884,CEDAR RAPIDS,IA
382,14991,19.7,24.6,424.8,-91.485,44.865,EAU CLAIRE,WI
383,14992,18.4,26.7,358.2,-95.082,44.547,REDWOOD FALLS,MN
384,21504,64.9,71.6,413.1,-155.051,19.723,HILO,HI
385,21510,62.3,75.1,321.2,-156.049,19.736,KAILUA/KONA,HI
386,22010,38.6,49.9,324.3,-100.922,29.367,DEL RIO,TX
387,22501,60.0,74.3,299.6,-159.789,22.025,"KEKAHA, KAUAI",HI
388,22516,62.0,73.6,337.2,-156.433,20.902,KAHULUI,HI
389,22519,66.2,74.7,385.3,-157.768,21.451,KANEOHE,HI
390,22521,64.8,76.4,339.1,-157.943,21.328,HONOLULU,HI
391,22534,63.2,72.4,373.0,-157.099,21.157,KAUNAKAKAI,HI
392,22536,65.4,74.2,380.4,-159.341,21.979,LIHUE,HI
393,22551,62.8,74.5,336.0,-158.067,21.317,KAPOLEI,HI
394,23007,30.1,41.4,317.5,-100.288,34.434,CHILDRESS,TX
395,23009,28.0,34.5,397.6,-104.541,33.308,ROSWELL,NM
396,23023,31.2,41.9,327.4,-102.208,31.932,MIDLAND,TX
397,23034,34.0,46.3,305.8,-100.494,31.351,SAN ANGELO,TX
398,23040,30.9,42.0,321.2,-103.201,31.780,WINK,TX
399,23042,28.9,38.0,351.4,-101.821,33.668,LUBBOCK,TX
400,23044,28.9,41.7,294.1,-106.376,31.811,EL PASO,TX
401,23047,26.5,34.6,367.4,-101.706,35.219,AMARILLO,TX
402,23048,24.6,32.6,367.4,-103.603,35.182,TUCUMCARI,NM
403,23049,17.1,27.5,321.2,-106.089,35.617,SANTA FE,NM
404,23050,21.5,33.5,299.6,-106.616,35.042,ALBUQUERQUE,NM
405,23051,20.6,30.1,339.1,-103.154,36.446,CLAYTON,NM
406,23052,15.6,30.9,247.9,-104.502,36.741,RATON,NM
407,23054,17.2,27.2,328.0,-105.143,35.654,LAS VEGAS,NM
408,23055,25.2,38.7,281.1,-104.809,31.831,GUADALUPE PASS,TX
409,23061,5.2,14.4,331.7,-105.866,37.436,ALAMOSA,CO
410,23064,22.6,28.4,408.1,-100.725,37.927,GARDEN CITY,KS
411,23065,19.6,29.7,328.0,-101.693,39.368,GOODLAND,KS
412,23066,16.3,28.8,287.3,-108.538,39.134,GRAND JUNCTION,CO
413,23067,17.1,23.8,387.2,-103.527,38.051,LA JUNTA,CO
414,23070,15.9,27.0,308.9,-104.341,37.259,TRINIDAD,CO
415,23078,27.5,38.4,321.2,-107.721,32.262,DEMING,NM
416,23081,17.9,28.2,323.1,-108.789,35.511,GALLUP,NM
417,23090,20.1,30.7,320.0,-108.229,36.744,FARMINGTON,NM
418,23091,29.9,44.1,275.6,-102.912,30.915,FORT STOCKTON,TX
419,23110,28.3,42.6,273.1,-119.950,36.333,LEMOORE,CA
420,23129,37.3,54.2,248.5,-118.163,33.828,LONG BEACH,CA
421,23130,26.3,53.0,141.2,-118.489,34.210,VAN NUYS,CA
422,23136,33.2,52.8,214.0,-119.083,34.217,CAMARILLO,CA
423,23141,13.9,39.8,135.1,-115.68333,36.58333,NELLIS AIR FORCE BASE,NV
424,23152,28.6,53.3,160.3,-118.359,34.201,BURBANK,CA
425,23153,7.4,33.1,129.5,-117.087,38.060,TONOPAH,NV
426,23154,9.9,25.6,236.8,-114.845,39.295,ELY,NV
427,23155,30.6,45.6,265.7,-119.056,35.434,BAKERSFIELD,CA
428,23157,7.6,36.3,106.7,-118.363,37.373,BISHOP,CA
429,23158,25.2,51.0,147.4,-114.717,33.619,BLYTHE,CA
430,23159,12.0,18.3,392.1,-112.146,37.706,BRYCE CANYON,UT
431,23160,31.5,48.9,237.4,-110.955,32.131,TUCSON,AZ
432,23161,17.0,45.6,117.2,-116.787,34.854,DAGGETT,CA
433,23169,18.5,46.2,125.2,-115.155,36.079,LAS VEGAS,NV
434,23174,37.2,54.2,247.2,-118.406,33.938,LOS ANGELES,CA
435,23176,15.5,24.7,339.7,-113.028,38.443,MILFORD,UT
436,23179,23.8,51.7,129.5,-114.623,34.766,NEEDLES,CA
437,23182,17.7,42.9,144.9,-118.084,34.629,PALMDALE,CA
438,23183,33.7,53.2,215.8,-111.990,33.443,PHOENIX,AZ
439,23184,21.8,36.2,265.7,-112.421,34.652,PRESCOTT,AZ
440,23185,12.6,33.6,178.2,-119.771,39.484,RENO,NV
441,23187,14.1,42.9,112.9,-118.724,34.744,SANDBERG,CA
442,23188,39.1,55.6,254.6,-117.169,32.735,SAN DIEGO,CA
443,23190,38.2,50.0,316.3,-119.844,34.426,SANTA BARBARA,CA
444,23191,29.4,55.3,151.1,-118.416,33.405,AVALON,CA
445,23194,22.0,33.0,315.7,-110.722,35.022,WINSLOW,AZ
446,23213,33.2,46.5,291.0,-122.812,38.509,SANTA ROSA,CA
447,23225,12.7,42.8,101.8,-120.708,39.292,EMIGRANT GAP,CA
448,23230,36.1,48.2,310.1,-122.221,37.755,OAKLAND,CA
449,23232,32.3,45.6,290.4,-121.493,38.513,SACRAMENTO,CA
450,23233,33.9,50.0,255.3,-121.605,36.663,SALINAS,CA
451,23234,38.0,49.3,323.7,-122.398,37.620,SAN FRANCISCO,CA
452,23244,35.1,51.9,247.9,-122.048,37.415,MOUNTAIN VIEW,CA
453,23254,32.5,46.9,275.6,-122.052,37.992,CONCORD,CA
454,23257,31.1,43.2,306.4,-120.513,37.285,MERCED,CA
455,23258,32.9,43.9,324.3,-120.953,37.626,MODESTO,CA
456,23259,33.8,49.6,258.3,-121.845,36.588,MONTEREY,CA
457,23273,36.1,50.0,285.5,-120.465,34.916,SANTA MARIA,CA
458,23275,33.9,45.0,323.7,-123.201,39.126,UKIAH,CA
459,23277,34.3,49.3,269.4,-121.789,36.936,WATSONVILLE,CA
460,23285,29.7,47.2,234.3,-121.817,37.694,LIVERMORE,CA
461,23293,33.0,49.4,250.3,-121.928,37.362,SAN JOSE,CA
462,24011,18.2,25.1,384.1,-100.748,46.774,BISMARCK,ND
463,24012,18.2,25.1,384.1,-102.802,46.797,DICKINSON,ND
464,24013,18.3,25.5,378.5,-101.281,48.259,MINOT,ND
465,24015,16.5,27.8,305.8,-103.232,40.172,AKRON,CO
466,24017,16.7,26.7,327.4,-103.095,42.838,CHADRON,NE
467,24018,12.4,26.0,267.6,-104.807,41.158,CHEYENNE,WY
468,24021,9.6,17.1,366.8,-108.733,42.817,LANDER,WY
469,24022,7.7,13.8,393.3,-105.674,41.313,LARAMIE,WY
470,24023,18.4,27.7,340.3,-100.668,41.122,NORTH PLATTE,NE
471,24024,18.2,28.8,318.7,-101.601,44.051,PHILIP,SD
472,24025,19.0,28.2,342.8,-100.286,44.383,PIERRE,SD
473,24027,11.7,22.0,318.1,-109.065,41.594,ROCK SPRINGS,WY
474,24028,15.7,26.0,321.2,-103.595,41.874,SCOTTSBLUFF,NE
475,24029,16.0,25.6,333.5,-106.976,44.774,SHERIDAN,WY
476,24030,15.7,29.2,272.5,-102.985,41.101,SIDNEY,NE
477,24032,17.5,28.5,312.0,-100.551,42.859,VALENTINE,NE
478,24033,16.0,30.8,254.6,-108.543,45.808,BILLINGS,MT
479,24036,17.5,27.4,329.8,-109.467,47.049,LEWISTOWN,MT
480,24037,18.1,29.2,310.7,-105.886,46.428,MILES CITY,MT
481,24044,14.5,24.1,332.3,-102.800,42.057,ALLIANCE,NE
482,24046,11.2,19.8,347.1,-107.521,40.495,CRAIG,CO
483,24048,12.2,19.2,377.9,-108.082,44.517,GREYBULL,WY
484,24057,11.1,19.8,345.3,-107.200,41.806,RAWLINS,WY
485,24061,9.8,17.6,361.3,-108.459,43.064,RIVERTON,WY
486,24062,12.5,19.8,372.4,-107.951,43.966,WORLAND,WY
487,24089,13.6,24.0,318.1,-106.473,42.898,CASPER,WY
488,24090,17.9,28.0,326.8,-103.054,44.046,RAPID CITY,SD
489,24091,18.8,30.7,299.0,-101.620,40.510,IMPERIAL,NE
490,24110,22.5,28.6,402.0,-119.319,47.208,MOSES LAKE,WA
491,24112,17.6,31.7,265.7,-111.187,47.504,GREAT FALLS,MT
492,24121,9.3,25.3,232.5,-115.792,40.825,ELKO,NV
493,24126,17.3,28.0,316.3,-112.011,41.196,OGDEN,UT
494,24127,18.8,29.4,319.4,-111.968,40.787,SALT LAKE CITY,UT
495,24128,9.9,25.2,242.3,-117.807,40.902,WINNEMUCCA,NV
496,24130,18.8,26.1,376.7,-117.810,44.838,BAKER CITY,OR
497,24131,18.3,31.3,281.8,-116.220,43.565,BOISE,ID
498,24132,15.1,22.0,381.6,-111.152,45.794,BOZEMAN,MT
499,24133,16.8,26.8,327.4,-113.772,42.543,BURLEY,ID
500,24135,10.8,18.5,363.7,-112.513,45.953,BUTTE,MT
501,24137,17.1,28.3,308.3,-112.376,48.608,CUT BANK,MT
502,24138,12.5,24.8,287.3,-112.552,45.255,DILLON,MT
503,24141,22.7,28.5,408.1,-119.514,47.304,EPHRATA,WA
504,24143,18.3,31.3,281.8,-111.382,47.473,GREAT FALLS,MT
505,24144,17.0,26.0,344.6,-111.964,46.606,HELENA,MT
506,24145,13.8,22.3,350.8,-112.067,43.516,IDAHO FALLS,ID
507,24146,21.5,26.9,415.5,-114.264,48.304,KALISPELL,MT
508,24149,25.8,33.3,377.3,-117.014,46.375,LEWISTON,ID
509,24150,14.8,31.2,233.1,-110.448,45.699,LIVINGSTON,MT
510,24152,20.1,32.4,294.1,-118.425,45.511,MEACHAM,OR
511,24153,19.6,25.5,404.4,-114.093,46.921,MISSOULA,MT
512,24154,17.9,22.6,427.9,-115.645,47.457,MULLAN PASS,ID
513,24155,26.1,32.1,405.7,-118.834,45.698,PENDLETON,OR
514,24156,14.1,21.9,364.4,-112.571,42.920,POCATELLO,ID
515,24157,24.3,28.9,433.4,-117.528,47.621,SPOKANE,WA
516,24160,26.4,33.6,383.5,-118.287,46.095,WALLA WALLA,WA
517,24162,17.7,28.7,312.0,-117.013,44.021,ONTARIO,OR
518,24163,26.4,31.8,418.0,-119.118,46.265,PASCO,WA
519,24164,6.3,14.1,358.8,-110.108,42.584,BIG PINEY,WY
520,24172,9.0,28.0,196.1,-118.565,40.066,LOVELOCK,NV
521,24215,19.9,36.5,235.5,-122.333,41.333,MOUNT SHASTA,CA
522,24216,26.8,47.5,196.1,-122.254,40.152,RED BLUFF,CA
523,24217,34.6,39.5,431.5,-122.537,48.794,BELLINGHAM,WA
524,24219,28.2,35.7,379.2,-121.167,45.619,THE DALLES,OR
525,24220,22.4,29.9,375.5,-120.530,47.034,ELLENSBURG,WA
526,24221,34.5,38.2,456.2,-123.214,44.133,EUGENE,OR
527,24222,34.5,39.8,424.2,-122.280,47.908,EVERETT,WA
528,24225,28.6,35.3,393.9,-122.871,42.389,MEDFORD,OR
529,24227,34.4,36.9,482.1,-122.903,46.973,OLYMPIA,WA
530,24229,34.2,39.1,431.5,-122.600,45.591,PORTLAND,OR
531,24230,19.3,31.7,291.6,-121.150,44.254,REDMOND,OR
532,24231,34.4,39.2,433.4,-123.355,43.239,ROSEBURG,OR
533,24232,34.4,38.8,441.4,-122.995,44.908,SALEM,OR
534,24233,35.2,39.2,450.0,-122.314,47.461,SEATTLE,WA
535,24234,35.9,39.7,454.4,-122.301,47.530,SEATTLE,WA
536,24235,22.9,38.7,248.5,-123.381,42.617,SEXTON SUMMIT,OR
537,24242,34.0,38.9,431.5,-122.400,45.549,PORTLAND,OR
538,24243,21.5,29.3,369.3,-120.534,46.564,YAKIMA,WA
539,24255,34.9,39.9,429.7,-122.650,48.350,WHIDBEY ISLAND,WA
540,24257,26.2,46.9,195.5,-122.313,40.515,REDDING,CA
541,24259,19.7,31.8,296.6,-122.468,41.781,MONTAGUE,CA
542,24283,37.6,44.4,397.6,-124.109,40.978,ARCATA/EUREKA,CA
543,24286,38.7,46.2,385.3,-124.237,41.780,CRESCENT CITY,CA
544,25308,34.1,36.9,475.3,-131.570,55.043,ANNETTE,AK
545,25309,31.6,33.8,487.6,-134.575,58.355,JUNEAU,AK
546,25323,29.0,32.2,464.8,-135.520,59.245,HAINES,AK
547,25325,33.5,36.6,468.5,-131.712,55.357,KETCHIKAN,AK
548,25331,16.3,21.6,414.9,-149.092,61.596,PALMER,AK
549,25333,33.2,36.4,466.1,-135.360,57.048,SITKA,AK
550,25335,29.1,35.0,409.4,-135.313,59.460,SKAGWAY,AK
551,25339,29.6,32.6,469.8,-139.628,59.510,YAKUTAT,AK
552,25367,33.7,35.9,488.3,-133.075,55.580,KLAWOCK,AK
553,25501,20.5,28.5,365.0,-152.492,57.750,KODIAK,AK
554,25503,14.2,13.1,539.4,-156.654,58.684,KING SALMON,AK
555,25506,14.8,20.7,401.3,-154.915,59.753,ILIAMNA,AK
556,25507,22.0,26.0,445.1,-151.477,59.647,HOMER,AK
557,25516,23.5,29.2,410.6,-151.702,59.443,SELDOVIA,AK
558,25624,25.6,29.3,453.1,-162.722,55.207,COLD BAY,AK
559,25628,23.6,22.6,539.4,-169.565,56.600,ST. GEORGE ISLAND,AK
560,26409,18.2,23.8,409.4,-149.855,61.217,ANCHORAGE,AK
561,26410,27.8,30.9,466.7,-145.451,60.489,CORDOVA,AK
562,26411,3.9,3.9,539.4,-147.855,64.817,FAIRBANKS,AK
563,26415,3.9,8.8,416.8,-145.718,63.995,DELTA JUNCTION/FT GREELY,AK
564,26422,3.0,5.7,467.9,-141.148,64.777,EAGLE,AK
565,26425,8.6,11.5,464.8,-145.458,62.160,GULKANA,AK
566,26435,1.7,5.2,448.2,-149.072,64.550,NENANA,AK
567,26438,20.3,26.2,404.4,-149.417,60.128,SEWARD,AK
568,26451,18.0,23.7,407.5,-149.993,61.175,ANCHORAGE,AK
569,26491,18.1,25.7,370.5,-149.961,61.179,ANCHORAGE,AK
570,26523,17.5,19.6,487.0,-151.239,60.580,KENAI,AK
571,26528,13.6,17.0,455.0,-150.092,62.322,TALKEETNA,AK
572,26533,-0.6,-1.8,539.4,-151.509,66.916,BETTLES,AK
573,26615,8.1,11.3,457.4,-161.826,60.786,BETHEL,AK
574,26617,3.0,6.5,448.8,-165.443,64.513,NOME,AK
575,26642,-0.7,1.7,474.7,-164.548,67.732,KIVALINA,AK
576,26643,2.0,2.6,522.8,-162.764,66.069,DEERING,AK
577,27502,-13.1,-9.6,441.4,-156.763,71.287,BARROW,AK
579,53119,30.4,42.0,313.2,-119.629,36.319,HANFORD,CA
580,53120,29.9,47.1,238.0,-116.917,33.033,RAMONA,CA
581,53121,36.4,49.9,291.0,-117.349,33.219,OCEANSIDE,CA
582,53123,19.0,45.6,134.4,-115.196,36.212,LAS VEGAS,NV
583,53802,31.6,37.2,416.8,-88.280,39.478,MATTOON/CHARLESTON,IL
584,53819,40.2,48.9,366.2,-84.567,33.355,ATLANTA,GA
585,53820,44.9,53.6,369.3,-87.044,31.416,EVERGREEN,AL
586,53838,38.5,48.5,344.0,-83.830,34.272,GAINESVILLE,GA
587,53841,33.2,40.5,385.9,-84.903,38.185,FRANKFORT,KY
588,53842,30.4,36.2,412.4,-86.296,39.825,INDIANAPOLIS,IN
589,53843,45.8,55.9,347.7,-86.394,31.309,ANDALUSIA (FT RUCKER),AL
590,53844,31.6,38.0,401.3,-82.657,39.756,LANCASTER,OH
591,53847,48.0,55.8,385.9,-87.023,30.704,MILTON,FL
592,53848,47.2,56.6,359.4,-86.960,30.507,MILTON,FL
593,53850,38.6,50.7,312.6,-82.886,34.672,CLEMSON,SC
594,53852,36.4,44.5,373.6,-86.945,34.653,DECATUR,AL
595,53853,51.5,58.7,398.3,-86.472,30.400,DESTIN,FL
596,53854,42.0,52.6,337.2,-80.858,33.462,ORANGEBURG,SC
597,53855,29.7,38.7,353.9,-84.525,39.364,HAMILTON,OH
598,53858,47.5,54.8,393.9,-88.532,30.464,PASCAGOULA,MS
599,53859,31.4,38.1,395.8,-84.226,39.594,DAYTON,OH
600,53863,38.0,48.8,331.1,-84.302,33.875,ATLANTA,GA
601,53864,41.1,49.4,373.6,-86.782,33.178,ALABASTER,AL
602,53865,48.2,55.3,398.3,-89.821,30.345,SLIDELL,LA
603,53866,31.5,38.6,388.4,-85.803,39.578,SHELBYVILLE,IN
604,53867,41.7,52.7,331.1,-80.996,33.971,COLUMBIA,SC
605,53868,36.7,43.1,404.4,-84.233,36.023,OAK RIDGE,TN
606,53869,36.5,43.8,387.8,-89.831,35.940,BLYTHEVILLE,AR
607,53870,38.4,48.2,347.1,-81.156,35.197,GASTONIA,NC
608,53871,40.3,47.7,388.4,-81.058,34.987,ROCK HILL,SC
609,53872,39.5,48.1,367.4,-80.621,35.017,MONROE,NC
610,53873,39.6,47.6,377.3,-84.849,34.123,CARTERSVILLE,GA
611,53874,40.3,49.0,366.2,-82.159,34.249,GREENWOOD,SC
612,53879,27.2,37.8,326.1,-94.371,38.960,LEE'S SUMMIT,MO
613,53901,30.2,39.1,355.7,-91.903,36.878,WEST PLAINS,MO
614,53902,44.5,51.9,390.9,-95.414,30.352,CONROE,TX
615,53903,44.5,52.7,377.3,-95.587,30.747,HUNTSVILLE,TX
616,53904,30.3,38.7,364.4,-90.428,38.929,ST CHARLES,MO
617,53905,41.1,47.5,406.3,-93.744,32.540,SHREVEPORT,LA
618,53907,37.0,46.9,344.6,-97.094,32.664,ARLINGTON,TX
619,53908,29.7,41.9,304.0,-95.984,36.039,TULSA,OK
620,53909,36.3,45.7,352.0,-97.318,32.973,FORT WORTH,TX
621,53910,46.5,53.4,400.7,-95.553,30.062,HOUSTON,TX
622,53911,38.0,47.1,358.2,-96.267,32.710,TERRELL,TX
623,53912,40.0,48.8,364.4,-96.398,32.027,CORSICANA,TX
624,53914,37.0,46.1,357.6,-96.590,33.180,MC KINNEY,TX
625,53915,47.5,56.1,372.4,-91.884,30.038,NEW IBERIA,LA
626,53916,27.8,36.0,366.2,-93.579,39.823,CHILLICOTHE,MO
627,53917,50.7,57.4,406.3,-90.028,30.043,NEW ORLEANS,LA
628,53918,31.5,41.8,334.2,-92.470,36.369,MOUNTAIN HOME,AR
629,53919,39.2,45.9,400.1,-91.751,33.638,MONTICELLO,AR
630,53920,35.4,44.2,361.3,-93.095,35.258,RUSSELLVILLE,AR
631,53922,30.7,40.1,347.7,-94.307,36.282,FAYETTEVILLE/SPRINGDALE,AR
632,53925,37.5,45.1,382.9,-94.399,34.047,DE QUEEN,AR
633,53959,37.3,44.2,395.2,-90.234,35.135,WEST MEMPHIS,AR
634,53988,44.0,51.4,390.3,-92.967,31.150,FORT POLK,LA
635,53989,24.5,37.8,283.6,-96.926,39.294,FORT RILEY,KS
636,54704,28.0,38.1,334.8,-71.174,42.191,NORWOOD,MA
637,54728,20.4,24.5,442.0,-71.545,44.368,WHITEFIELD,NH
638,54733,27.6,36.9,347.1,-70.918,42.584,BEVERLY,MA
639,54734,29.5,37.1,377.9,-73.483,41.371,DANBURY,CT
640,54737,31.0,39.0,371.8,-76.294,40.120,LANCASTER,PA
641,54740,22.2,31.4,345.3,-72.518,43.344,SPRINGFIELD,VT
642,54742,21.4,20.8,539.4,-72.019,44.419,SAINT JOHNSBURY,VT
643,54743,29.1,39.0,338.5,-74.283,40.876,CALDWELL,NJ
644,54756,25.8,33.5,374.2,-72.291,42.570,ORANGE,MA
645,54757,25.4,33.0,375.5,-77.992,42.109,WELLSVILLE,NY
646,54767,28.1,37.4,347.7,-72.184,41.742,WILLIMANTIC,CT
647,54768,24.2,34.0,336.6,-73.171,42.696,NORTH ADAMS,MA
648,54769,30.7,38.1,382.2,-70.729,41.910,PLYMOUTH,MA
649,54770,24.9,32.5,375.5,-72.004,42.805,JAFFREY,NH
650,54771,20.9,26.2,417.4,-72.614,44.534,MORRISVILLE,VT
651,54772,20.7,28.5,368.7,-70.948,43.991,FRYEBURG,ME
652,54773,27.0,33.7,393.3,-76.385,43.350,FULTON,NY
653,54777,28.8,36.8,370.5,-71.021,41.876,TAUNTON,MA
654,54778,27.0,35.4,362.5,-77.056,42.643,PENN YAN,NY
655,54779,29.2,37.9,358.8,-74.737,41.009,ANDOVER,NJ
656,54780,33.9,43.1,353.9,-71.923,41.073,MONTAUK,NY
657,54782,31.0,39.8,358.2,-75.557,40.238,POTTSTOWN,PA
658,54785,28.7,38.9,333.5,-74.669,40.624,SOMERVILLE,NJ
659,54786,30.5,39.1,361.3,-75.123,40.330,DOYLESTOWN,PA
660,54787,31.2,40.3,353.3,-73.417,40.734,FARMINGDALE,NY
661,54788,27.9,37.8,337.9,-72.828,41.510,MERIDEN,CT
662,54789,26.2,33.9,374.2,-75.379,41.139,MOUNT POCONO,PA
663,54790,31.4,40.7,350.2,-72.869,40.822,SHIRLEY,NY
664,54791,24.4,33.4,350.2,-70.922,43.278,ROCHESTER,NH
665,54792,27.0,33.8,391.5,-78.412,41.047,CLEARFIELD,PA
666,54793,28.1,37.1,352.7,-74.623,41.200,SUSSEX,NJ
667,54813,21.5,28.0,393.3,-86.651,46.429,MUNISING,MI
668,63870,46.7,57.0,345.3,-86.312,31.043,FLORALA,AL
669,63872,44.1,53.6,355.7,-85.129,31.951,EUFAULA,AL
670,63890,50.4,58.4,384.1,-81.883,30.350,JACKSONVILLE,FL
671,64776,21.9,29.4,374.8,-73.468,44.651,PLATTSBURG,NY
672,73805,49.2,57.2,383.5,-85.788,30.349,PANAMA CITY,FL
673,92805,62.9,73.6,350.2,-80.108,26.250,POMPANO BEACH,FL
674,92806,59.9,67.2,400.7,-82.628,27.765,ST PETERSBURG,FL
675,92809,61.3,72.1,347.7,-80.241,25.999,HOLLYWOOD,FL
676,93005,18.7,27.2,354.5,-107.760,37.143,DURANGO,CO
677,93009,4.7,16.7,284.2,-106.316,39.228,LEADVILLE,CO
678,93010,14.4,23.1,347.7,-103.716,39.189,LIMON,CO
679,93013,14.8,23.5,348.3,-107.898,38.505,MONTROSE,CO
680,93026,26.9,46.4,209.0,-109.604,31.469,DOUGLAS BISBEE,AZ
681,93027,21.2,31.3,329.2,-109.379,34.518,ST JOHNS,AZ
682,93033,29.3,38.7,347.1,-104.263,32.338,CARLSBAD,NM
683,93037,12.6,28.9,231.8,-104.711,38.812,COLORADO SPRINGS,CO
684,93042,23.8,31.7,369.3,-102.547,36.023,DALHART,TX
685,93045,25.0,35.3,329.2,-107.268,33.237,TRUTH OR CONSEQUENCES,NM
686,93057,14.8,21.2,391.5,-107.902,35.165,GRANTS,NM
687,93058,15.2,25.2,326.1,-104.498,38.290,PUEBLO,CO
688,93067,14.8,27.9,277.4,-104.849,39.570,DENVER,CO
689,93069,17.5,28.7,308.3,-108.628,37.303,CORTEZ,CO
690,93073,9.5,21.5,289.2,-106.868,39.223,ASPEN,CO
691,93075,15.5,27.4,295.9,-109.754,38.755,MOAB,UT
692,93084,29.7,44.2,271.3,-109.635,32.855,SAFFORD,AZ
693,93104,12.8,42.3,106.1,-117.683,35.683,CHINA LAKE,CA
694,93107,34.7,53.7,222.0,-117.150,32.867,MIRAMAR,CA
695,93110,34.0,54.1,209.6,-119.206,34.201,OXNARD,CA
696,93111,36.0,51.1,269.4,-119.117,34.117,POINT MUGU,CA
697,93112,41.0,57.7,254.0,-117.200,32.700,SAN DIEGO,CA
698,93115,39.3,56.5,246.6,-117.117,32.567,IMPERIAL BEACH,CA
699,93129,15.0,23.4,353.9,-113.097,37.702,CEDAR CITY,UT
700,93134,35.1,54.7,215.8,-118.296,34.028,LOS ANGELES,CA
701,93138,23.9,54.7,108.6,-116.505,33.828,PALM SPRINGS,CA
702,93141,11.7,28.2,228.1,-110.750,39.545,PRICE,UT
703,93167,24.9,40.6,251.6,-113.937,35.259,KINGMAN,AZ
704,93184,36.1,56.0,214.0,-117.866,33.680,SANTA ANA,CA
705,93193,32.3,45.6,290.4,-119.719,36.780,FRESNO,CA
706,93197,35.6,54.1,228.8,-118.451,34.016,SANTA MONICA,CA
707,93205,30.4,45.5,264.5,-121.570,39.098,MARYSVILLE,CA
708,93206,36.7,51.7,271.3,-120.641,35.237,SAN LUIS OBISPO,CA
709,93209,29.1,45.8,242.9,-120.627,35.673,PASO ROBLES,CA
710,93210,32.8,45.9,293.5,-121.618,39.490,OROVILLE,CA
711,93225,32.0,45.7,284.2,-121.590,38.696,SACRAMENTO,CA
712,93227,31.9,45.5,285.5,-122.280,38.213,NAPA,CA
713,93228,33.8,48.9,267.6,-122.121,37.659,HAYWARD,CA
714,93230,10.7,32.1,172.7,-119.995,38.894,SOUTH LAKE TAHOE,CA
715,93241,29.5,45.7,249.7,-121.961,38.377,VACAVILLE,CA
716,93242,31.3,43.4,306.4,-120.111,36.988,MADERA,CA
717,93706,29.6,39.9,332.3,-77.730,39.708,HAGERSTOWN,MD
718,93718,44.3,52.3,380.4,-78.721,33.816,NORTH MYRTLE BEACH,SC
719,93719,42.5,50.8,374.2,-77.047,35.068,NEW BERN,NC
720,93720,35.5,45.4,343.4,-75.510,38.341,SALISBURY,MD
721,93721,32.3,42.3,339.7,-76.684,39.172,BALTIMORE,MD
722,93727,42.5,51.2,367.4,-77.433,34.700,NEW RIVER,NC
723,93729,45.9,54.4,373.0,-75.623,35.232,CAPE HATTERAS,NC
724,93730,33.5,43.0,348.3,-74.457,39.458,ATLANTIC CITY,NJ
725,93736,31.0,43.2,304.6,-78.453,38.139,CHARLOTTESVILLE,VA
726,93738,31.6,41.5,340.3,-77.448,38.935,WASHINGTON,DC
727,93739,37.0,45.6,365.6,-75.496,37.941,WALLOPS ISLAND,VA
728,93740,38.7,50.5,316.9,-78.880,34.991,FAYETTEVILLE,NC
729,93741,37.2,46.5,354.5,-76.493,37.132,NEWPORT NEWS,VA
730,93743,42.4,50.7,374.2,-77.030,34.691,SWANSBORO,NC
731,93759,37.7,47.3,349.6,-77.893,35.855,ROCKY MOUNT,NC
732,93762,29.5,41.7,303.3,-77.43333,39.73333,SITE R,PA
733,93765,45.1,52.7,387.8,-76.661,34.734,BEAUFORT,NC
734,93773,36.2,45.9,347.1,-77.007,36.984,WAKEFIELD,VA
735,93775,34.7,44.3,347.7,-77.434,37.708,RICHMOND/ASHLAND,VA
736,93778,30.1,38.3,368.1,-76.874,39.918,YORK,PA
737,93780,31.9,41.6,344.0,-74.841,39.941,MOUNT HOLLY,NJ
738,93782,39.4,49.6,341.6,-79.366,34.792,MAXTON,NC
739,93783,35.7,46.6,328.0,-79.477,36.047,BURLINGTON,NC
740,93784,32.6,47.2,273.1,-76.610,39.281,BALTIMORE,MD
741,93785,36.7,47.8,325.5,-79.064,35.933,CHAPEL HILL,NC
742,93786,35.9,43.1,389.0,-75.124,38.308,OCEAN CITY,MD
743,93801,37.6,47.2,349.6,-85.161,34.348,ROME,GA
744,93805,48.1,57.0,368.1,-84.353,30.393,TALLAHASSEE,FL
745,93806,39.6,49.6,344.6,-87.616,33.212,TUSCALOOSA,AL
746,93807,35.2,46.7,318.7,-80.222,36.134,WINSTON SALEM,NC
747,93808,34.5,43.2,362.5,-86.436,36.981,BOWLING GREEN,KY
748,93810,33.8,40.3,400.7,-89.250,37.780,CARBONDALE/MURPHYBORO,IL
749,93812,33.1,40.1,390.9,-84.419,39.103,CINCINNATI,OH
750,93814,32.3,39.5,387.2,-84.672,39.043,COVINGTON,KY
751,93815,30.7,36.4,414.3,-84.219,39.906,DAYTON,OH
752,93817,33.6,40.8,387.8,-87.537,38.043,EVANSVILLE,IN
753,93819,31.2,37.8,397.6,-86.272,39.710,INDIANAPOLIS,IN
754,93820,33.0,40.7,378.5,-84.606,38.041,LEXINGTON,KY
755,93821,33.1,42.9,343.4,-85.730,38.177,LOUISVILLE,KY
756,93822,30.6,37.6,389.6,-89.684,39.845,SPRINGFIELD,IL
757,93824,30.5,37.7,385.9,-81.892,39.944,ZANESVILLE,OH
758,93831,45.5,54.9,358.2,-80.717,32.483,BEAUFORT,SC
759,93837,52.6,62.6,353.9,-81.683,30.233,JACKSONVILLE,FL
760,93841,49.4,57.1,388.4,-87.022,30.724,MILTON,FL
761,93842,42.7,53.6,333.5,-84.942,32.516,COLUMBUS,GA
762,93845,48.2,58.6,344.6,-83.277,30.783,VALDOSTA,GA
763,93846,38.8,48.8,344.0,-82.709,34.495,ANDERSON,SC
764,93862,38.4,46.1,381.6,-88.771,34.261,TUPELO,MS
765,93909,26.6,36.2,341.6,-94.890,38.831,OLATHE,KS
766,93915,43.3,49.8,405.7,-92.559,31.335,ALEXANDRIA,LA
767,93919,45.7,52.0,410.6,-90.472,31.178,MCCOMB,MS
768,93950,32.7,43.7,324.3,-95.783,34.899,MC ALESTER,OK
769,93953,32.5,43.0,331.7,-95.361,35.657,MUSKOGEE,OK
770,93967,29.8,40.5,326.1,-95.566,37.091,COFFEYVILLE,KS
771,93985,36.1,44.9,361.9,-98.061,32.782,MINERAL WELLS,TX
772,93986,32.5,40.2,378.5,-99.051,35.008,HOBART,OK
773,93987,42.2,50.6,372.4,-94.750,31.234,LUFKIN,TX
774,93988,38.5,45.5,394.6,-91.935,34.175,PINE BLUFF,AR
775,93989,28.7,36.5,374.2,-91.194,39.943,QUINCY,IL
776,93990,22.5,31.5,349.0,-99.830,39.376,HILL CITY,KS
777,93992,39.5,44.9,424.2,-92.813,33.221,EL DORADO,AR
778,93993,31.5,40.4,357.0,-94.170,36.005,FAYETTEVILLE,AR
779,93997,24.0,30.0,405.0,-98.828,38.872,RUSSELL,KS
780,94008,18.4,23.8,413.7,-106.621,48.214,GLASGOW,MT
781,94012,19.4,29.3,331.1,-109.780,48.559,HAVRE,MT
782,94014,18.9,25.0,400.1,-103.642,48.195,WILLISTON,ND
783,94017,18.1,22.6,432.8,-105.574,48.094,WOLF POINT,MT
784,94023,17.4,26.7,339.7,-105.542,44.339,GILLETTE,WY
785,94030,11.6,20.7,338.5,-109.509,40.441,VERNAL,UT
786,94032,12.3,25.6,271.9,-103.628,43.731,CUSTER,SD
787,94037,16.9,27.4,319.4,-103.546,45.604,BUFFALO,SD
788,94038,16.9,24.0,379.2,-102.655,46.014,HETTINGER,ND
789,94039,16.0,25.4,336.6,-102.518,43.021,PINE RIDGE,SD
790,94040,19.9,28.2,359.4,-100.591,40.206,MC COOK,NE
791,94041,18.5,24.7,397.6,-101.439,47.663,GARRISON,ND
792,94050,11.6,21.8,320.0,-107.885,40.049,MEEKER,CO
793,94052,19.2,26.1,384.7,-100.408,45.546,MOBRIDGE,SD
794,94053,15.0,26.3,304.6,-104.153,42.065,TORRINGTON,WY
795,94054,14.0,27.5,270.7,-106.721,44.381,BUFFALO,WY
796,94055,17.8,25.1,376.1,-104.250,46.358,BAKER,MT
797,94056,18.1,27.8,333.5,-102.019,45.032,FAITH,SD
798,94057,13.1,22.1,341.6,-105.386,42.797,DOUGLAS,WY
799,94107,14.1,27.6,270.7,-117.864,42.591,ROME,OR
800,94119,24.1,28.4,439.6,-117.421,47.969,DEER PARK,WA
801,94128,15.5,21.7,395.8,-111.853,41.787,LOGAN,UT
802,94129,24.6,31.3,391.5,-117.109,46.744,PULLMAN/MOSCOW,WA
803,94173,5.2,10.4,410.6,-110.421,44.544,YELLOWSTONE,WY
804,94176,25.0,30.5,415.5,-117.321,47.683,SPOKANE,WA
805,94178,16.1,29.5,274.4,-114.487,42.482,TWIN FALLS,ID
806,94182,14.3,21.4,377.3,-116.102,44.889,MCCALL,ID
807,94185,15.5,24.9,336.6,-118.954,43.592,BURNS,OR
808,94194,12.8,21.2,352.0,-111.881,43.834,REXBURG,ID
809,94197,21.4,27.5,401.3,-119.517,48.464,OMAK,WA
810,94224,36.8,40.2,463.0,-123.878,46.158,ASTORIA,OR
811,94225,37.5,40.2,478.4,-123.937,46.971,HOQUIAM,WA
812,94227,35.0,37.2,488.9,-123.148,47.238,SHELTON,WA
813,94236,19.1,29.4,324.3,-121.724,42.147,KLAMATH FALLS,OR
814,94239,23.4,29.8,396.4,-120.207,47.399,WENATCHEE,WA
815,94240,37.0,39.7,478.4,-124.561,47.934,QUILLAYUTE,WA
816,94248,35.8,39.6,454.4,-122.214,47.493,RENTON,WA
817,94266,34.5,38.3,454.4,-123.498,48.120,PORT ANGELES,WA
818,94274,36.5,39.6,469.1,-122.576,47.268,TACOMA,WA
819,94276,36.4,41.2,434.6,-123.023,48.522,FRIDAY HARBOR,WA
820,94281,34.9,37.4,482.1,-122.769,45.249,AURORA,OR
821,94298,33.7,39.3,418.0,-122.657,45.621,VANCOUVER,WA
822,94299,15.7,28.6,281.1,-120.567,41.483,ALTURAS,CA
823,94623,23.5,31.0,376.1,-69.712,43.964,WISCASSET,ME
824,94624,34.0,40.3,404.4,-69.993,41.688,CHATHAM,MA
825,94626,19.5,24.0,433.4,-69.595,45.462,GREENVILLE,ME
826,94700,19.3,24.2,424.8,-71.179,44.576,BERLIN,NH
827,94702,28.7,41.1,299.6,-73.146,41.175,BRIDGEPORT,CT
828,94704,27.8,36.7,354.5,-77.713,42.571,DANSVILLE,NY
829,94705,21.6,26.8,419.8,-72.579,44.203,BARRE/MONTPELIER,VT
830,94720,33.0,39.2,405.7,-70.280,41.669,HYANNIS,MA
831,94723,26.1,38.2,302.1,-71.124,42.717,LAWRENCE,MA
832,94724,33.4,40.8,384.1,-70.615,41.393,VINEYARD HAVEN,MA
833,94725,22.9,27.1,440.8,-74.846,44.936,MASSENA,NY
834,94726,31.3,38.3,390.3,-70.958,41.676,NEW BEDFORD,MA
835,94728,30.2,42.6,300.9,-73.967,40.783,NEW YORK,NY
836,94732,30.7,41.4,327.4,-75.011,40.082,PHILADELPHIA,PA
837,94740,20.6,24.6,444.5,-74.207,44.385,SARANAC LAKE,NY
838,94741,28.8,42.3,284.2,-74.061,40.850,TETERBORO,NJ
839,94745,29.4,39.6,334.2,-73.708,41.067,WHITE PLAINS,NY
840,94746,26.0,36.1,332.9,-71.876,42.267,WORCESTER,MA
841,94765,22.7,29.8,382.9,-72.305,43.626,LEBANON,NH
842,94789,30.2,42.5,302.7,-73.796,40.655,NEW YORK,NY
843,94790,25.8,30.4,434.0,-76.022,43.992,WATERTOWN,NY
844,94814,24.1,30.1,405.0,-84.691,44.368,HOUGHTON LAKE,MI
845,94815,27.1,34.4,382.2,-85.552,42.235,KALAMAZOO,MI
846,94817,26.9,32.8,408.1,-83.418,42.665,PONTIAC,MI
847,94818,26.1,32.9,390.9,-87.814,42.761,RACINE,WI
848,94822,25.6,32.6,386.6,-89.093,42.196,ROCKFORD,IL
849,94823,28.5,37.5,353.3,-80.231,40.501,PITTSBURGH,PA
850,94830,28.0,35.1,386.6,-83.801,41.589,TOLEDO,OH
851,94846,27.3,35.2,371.1,-87.914,41.986,CHICAGO,IL
852,94847,28.1,35.6,379.2,-83.349,42.215,DETROIT,MI
853,94849,23.8,29.3,414.3,-83.581,45.072,ALPENA,MI
854,94855,22.7,29.7,384.7,-88.557,43.984,OSHKOSH,WI
855,94860,27.1,35.0,371.1,-85.523,42.882,GRAND RAPIDS,MI
856,94870,30.7,36.0,422.3,-88.278,40.040,CHAMPAIGN/URBANA,IL
857,94871,28.5,35.9,381.0,-86.422,42.129,BENTON HARBOR,MI
858,94889,28.9,33.1,443.9,-83.744,42.223,ANN ARBOR,MI
859,94892,26.4,33.2,390.9,-88.246,41.914,CHICAGO/WEST CHICAGO,IL
860,94893,18.1,22.8,428.5,-88.114,45.818,IRON MOUNTAIN/KINGSFORD,MI
861,94895,29.3,36.5,385.3,-85.394,40.234,MUNCIE,IN
862,94898,26.3,33.4,385.3,-82.793,44.022,HARBOR BEACH,MI
863,94899,20.6,27.7,381.6,-87.875,47.467,COPPER HARBOR,MI
864,94908,25.4,30.5,423.5,-90.704,42.398,DUBUQUE,IA
865,94910,24.5,29.6,422.9,-92.401,42.554,WATERLOO,IA
866,94929,18.4,24.6,397.6,-90.919,46.549,ASHLAND,WI
867,94931,13.7,18.5,424.2,-92.839,47.387,HIBBING,MN
868,94938,15.4,24.2,347.1,-94.131,46.405,BRAINERD,MN
869,94943,19.4,29.8,323.1,-99.318,43.767,CHAMBERLAIN,SD
870,94946,19.4,27.4,364.4,-99.639,41.437,BROKEN BOW,NE
871,94949,21.7,29.1,376.7,-98.427,40.604,HASTINGS,NE
872,94950,18.5,28.5,328.6,-98.038,43.777,MITCHELL,SD
873,94957,26.3,33.4,385.3,-95.592,40.079,FALLS CITY,NE
874,94958,19.4,26.8,375.5,-98.952,41.624,ORD,NE
875,94960,18.6,27.0,356.3,-93.351,45.063,MINNEAPOLIS,MN
876,94961,13.1,20.4,373.0,-94.610,48.728,BAUDETTE,MN
877,94963,19.5,27.1,371.8,-93.470,44.832,MINNEAPOLIS,MN
878,94967,14.7,20.7,399.5,-95.068,46.901,PARK RAPIDS,MN
879,94971,20.3,26.0,408.7,-94.746,43.408,ESTHERVILLE,IA
880,94973,17.4,22.2,426.0,-91.444,46.026,HAYWARD,WI
881,94978,21.3,27.4,401.3,-96.178,41.764,TEKAMAH,NE
882,94982,25.7,33.7,368.7,-90.591,41.614,DAVENPORT,IA
883,94985,19.9,25.2,416.8,-90.189,44.637,MARSHFIELD,WI
884,94988,23.8,30.0,400.7,-92.918,42.113,MARSHALLTOWN,IA
885,94989,24.5,30.2,411.2,-93.622,41.992,AMES,IA
886,94990,19.1,31.2,295.9,-99.842,43.390,WINNER,SD
887,94991,25.8,32.8,386.6,-93.902,40.633,LAMONI,IA
888,94992,17.3,24.9,369.9,-90.344,47.747,GRAND MARAIS,MN
889,94993,16.5,26.2,332.3,-96.991,45.669,SISSETON,SD
890,94994,23.6,30.8,381.6,-90.678,43.156,BOSCOBEL,WI
