,wban,dewpt,tavg,wp,long,lat,stname,ststate
0,03013,19.7,44.1,153.6,-102.688,38.070,LAMAR,CO
1,03017,19.9,43.5,160.9,-104.658,39.833,DENVER,CO
2,03024,26.9,54.4,135.7,-101.394,35.700,BORGER,TX
3,03026,21.2,43.6,173.9,-102.284,39.245,BURLINGTON,CO
4,03027,15.3,44.1,114.1,-105.663,35.003,CLINES CORNERS,NM
5,03028,19.7,47.1,128.9,-102.614,37.283,SPRINGFIELD,CO
6,03029,15.2,38.6,157.9,-109.061,35.658,WINDOW ROCK,AZ
7,03030,25.6,50.6,154.8,-101.505,36.682,GUYMON,OK
8,03102,42.2,62.4,216.4,-117.600,34.056,ONTARIO,CA
9,03103,20.4,39.7,204.7,-111.672,35.140,FLAGSTAFF,AZ
10,03104,38.4,63.1,170.2,-116.160,33.628,PALM SPRINGS,CA
11,03124,27.5,59.4,104.9,-110.344,31.588,FORT HUACHUCA/SIERRA VISTA,AZ
12,03131,48.6,62.0,302.7,-117.139,32.816,SAN DIEGO,CA
13,03144,38.4,66.0,146.8,-115.579,32.834,IMPERIAL,CA
14,03145,34.7,68.1,103.0,-114.617,32.650,YUMA,AZ
15,03159,27.9,53.5,151.7,-118.219,34.741,LANCASTER,CA
16,03160,24.9,54.3,119.7,-116.028,36.621,MERCURY,NV
17,03162,22.7,49.4,137.5,-111.448,36.926,PAGE,AZ
18,03164,30.8,55.0,167.1,-116.467,32.617,CAMPO,CA
19,03166,48.1,64.9,259.6,-117.979,33.872,FULLERTON,CA
20,03167,47.8,62.8,281.1,-118.334,33.923,HAWTHORNE,CA
21,03170,22.2,41.1,210.9,-116.006,39.601,EUREKA,NV
22,03171,41.9,62.7,210.3,-117.439,33.952,RIVERSIDE,CA
23,03177,48.5,61.4,308.9,-117.279,33.128,CARLSBAD,CA
24,03178,48.1,59.2,334.2,-116.979,32.572,SAN DIEGO,CA
25,03179,44.1,60.0,267.0,-117.636,33.975,CHINO,CA
26,03184,29.2,65.8,79.0,-112.082,33.688,PHOENIX,AZ
27,03192,32.8,65.5,105.5,-111.911,33.623,SCOTTSDALE,AZ
28,03195,13.4,38.2,143.7,-112.155,35.946,GRAND CANYON,AZ
29,03196,28.4,58.8,116.0,-110.846,31.421,NOGALES,AZ
30,03749,26.2,41.9,252.8,-77.468,39.645,CAMP DAVID,MD
31,03802,27.4,40.4,290.4,-80.229,39.296,CLARKSBURG,WV
32,03804,28.0,41.3,286.7,-81.439,39.345,PARKERSBURG,WV
33,03810,32.3,47.5,264.5,-81.390,35.741,HICKORY,NC
34,03811,36.6,47.5,328.6,-88.917,35.593,JACKSON,TN
35,03812,32.2,45.1,295.9,-82.538,35.432,ASHEVILLE,NC
36,03813,40.3,52.4,313.8,-83.654,32.688,MACON,GA
37,03816,34.2,45.7,317.5,-88.774,37.056,PADUCAH,KY
38,03818,46.0,57.0,334.2,-85.184,30.836,MARIANNA,FL
39,03820,39.0,50.9,315.7,-81.965,33.370,AUGUSTA,GA
40,03822,44.0,55.0,332.9,-81.202,32.119,SAVANNAH,GA
41,03847,32.1,44.8,298.4,-85.085,35.951,CROSSVILLE,TN
42,03849,30.9,42.9,307.7,-84.077,37.087,LONDON,KY
43,03853,49.8,60.6,339.7,-81.417,30.400,MAYPORT,FL
44,03855,49.1,56.7,390.3,-87.317,30.350,PENSACOLA,FL
45,03856,36.5,49.5,297.8,-86.786,34.644,HUNTSVILLE,AL
46,03859,26.1,43.1,236.8,-81.208,37.296,BLUEFIELD,WV
47,03860,30.2,43.1,294.1,-82.555,38.382,HUNTINGTON,WV
48,03866,41.2,51.6,339.7,-88.567,32.550,MERIDIAN,MS
49,03868,31.0,42.5,315.0,-87.309,39.452,TERRE HAUTE,IN
50,03870,34.6,50.7,255.9,-82.219,34.899,GREER,SC
51,03872,26.6,40.6,275.6,-81.125,37.795,BECKLEY,WV
52,03878,41.7,52.2,338.5,-86.012,31.861,TROY,AL
53,03887,34.2,41.8,381.0,-88.866,39.984,DECATUR,IL
54,03888,38.1,50.3,310.7,-84.521,33.779,ATLANTA,GA
55,03889,29.7,45.3,257.1,-83.314,37.591,JACKSON,KY
56,03893,30.3,40.8,329.8,-86.617,39.144,BLOOMINGTON,IN
57,03894,34.0,46.2,307.0,-87.415,36.622,CLARKSVILLE,TN
58,03901,45.0,57.3,314.4,-94.711,32.385,LONGVIEW,TX
59,03902,44.4,59.4,278.1,-97.822,31.070,FORT HOOD/KILLEEN,TX
60,03904,48.1,62.9,283.6,-96.364,30.588,COLLEGE STATION,TX
61,03919,31.6,47.7,252.8,-97.661,38.813,SALINA,KS
62,03927,40.9,59.7,230.0,-97.041,32.896,DALLAS-FORT WORTH,TX
63,03928,34.0,49.9,257.7,-97.429,37.647,WICHITA,KS
64,03931,45.3,58.2,306.4,-93.192,31.045,FORT POLK,LA
65,03932,35.5,53.5,234.3,-99.200,35.340,CLINTON,OK
66,03933,44.1,62.0,242.9,-97.713,31.134,FORT HOOD (KILLEEN),TX
67,03935,34.9,44.9,341.6,-89.571,37.225,CAPE GIRARDEAU,MO
68,03936,32.2,46.8,272.5,-96.678,39.135,MANHATTAN,KS
69,03937,50.2,60.9,341.6,-93.228,30.125,LAKE CHARLES,LA
70,03940,42.5,52.8,342.2,-90.078,32.320,JACKSON,MS
71,03945,32.9,45.8,296.6,-92.218,38.817,COLUMBIA,MO
72,03947,31.9,47.2,263.3,-94.718,39.299,KANSAS CITY,MO
73,03950,37.7,54.5,250.3,-98.416,34.568,LAWTON,OK
74,03953,37.2,48.9,316.9,-90.646,35.831,JONESBORO,AR
75,03954,35.6,53.9,230.6,-97.647,35.534,OKLAHOMA CITY,OK
76,03957,32.3,49.7,238.0,-98.553,37.284,MEDICINE LODGE,KS
77,03959,35.2,48.6,291.0,-96.011,36.762,BARTLESVILLE,OK
78,03960,33.1,44.0,326.1,-90.157,38.571,CAHOKIA/ST.LOUIS,IL
79,03962,38.9,52.1,297.2,-93.096,34.478,HOT SPRINGS,AR
80,03963,32.0,46.5,273.8,-92.156,38.591,JEFFERSON CITY,MO
81,03965,35.0,53.0,233.7,-97.086,36.160,STILLWATER,OK
82,03966,32.2,44.0,311.4,-90.656,38.657,ST LOUIS,MO
83,03967,32.7,46.8,279.9,-94.739,38.850,OLATHE,KS
84,03971,41.6,59.5,241.1,-96.868,32.681,DALLAS,TX
85,03974,33.7,49.1,263.3,-97.219,37.750,WICHITA,KS
86,03975,35.3,47.0,315.7,-90.325,36.773,POPLAR BLUFF,MO
87,03981,36.1,56.7,206.6,-98.984,34.352,FREDERICK,OK
88,03991,39.5,56.5,249.1,-97.199,33.206,DENTON,TX
89,03994,34.5,47.6,294.7,-93.183,38.704,SEDALIA,MO
90,03996,41.5,51.4,347.7,-91.030,32.348,TALLULAH/VICKSBURG,MS
91,03997,32.0,45.7,284.2,-95.212,39.008,LAWRENCE,KS
92,03998,33.9,48.6,272.5,-95.504,37.328,PARSONS,KS
93,03999,43.7,55.2,324.9,-98.235,30.741,BURNET,TX
94,04110,30.4,41.7,317.5,-114.456,42.727,JEROME,ID
95,04111,22.0,37.0,257.7,-111.031,41.273,EVANSTON,WY
96,04112,23.2,28.8,412.4,-114.927,44.171,STANLEY,ID
97,04113,38.0,42.9,433.4,-119.261,45.826,HERMISTON,OR
98,04114,23.9,34.6,321.8,-114.215,41.523,CHALLIS,ID
99,04134,29.2,42.5,287.3,-113.351,40.161,DUGWAY PROVING GROUND,UT
100,04201,42.4,46.1,458.7,-122.861,45.773,SCAPPOOSE,OR
101,04724,28.5,38.1,342.8,-78.945,43.107,NIAGARA FALLS,NY
102,04725,26.2,36.1,336.6,-75.981,42.208,BINGHAMTON,NY
103,04726,25.1,35.9,321.2,-78.834,40.301,JOHNSTOWN,PA
104,04751,25.1,37.3,299.6,-78.640,41.803,BRADFORD,PA
105,04780,26.8,39.2,298.4,-71.756,42.552,FITCHBURG,MA
106,04781,31.3,42.1,326.1,-73.102,40.794,ISLIP,NY
107,04787,25.7,36.6,320.0,-78.899,41.178,DU BOIS,PA
108,04789,27.7,38.5,323.1,-74.265,41.509,MONTGOMERY,NY
109,04803,24.8,31.5,391.5,-89.465,45.631,RHINELANDER,WI
110,04804,30.0,40.7,326.8,-83.078,40.078,COLUMBUS,OH
111,04808,30.5,37.5,389.6,-88.481,41.770,CHICAGO/AURORA,IL
112,04826,26.2,35.3,349.6,-89.837,44.359,WISCONSIN RAPIDS,WI
113,04836,23.3,29.6,398.3,-68.307,47.286,FRENCHVILLE,ME
114,04838,30.2,39.7,345.9,-87.905,42.121,CHICAGO/PROSPECT HGTS/WHEELI,IL
115,04839,30.4,41.2,325.5,-86.097,42.746,HOLLAND,MI
116,04840,27.9,36.7,356.3,-88.486,43.770,FOND DU LAC,WI
117,04841,30.0,38.3,366.2,-87.851,43.769,SHEBOYGAN,WI
118,04842,29.0,37.5,361.9,-81.887,40.875,WOOSTER,OH
119,04843,28.0,38.9,321.8,-80.215,41.626,MEADVILLE,PA
120,04845,29.0,38.8,340.3,-87.938,42.595,KENOSHA,WI
121,04846,30.1,40.2,336.0,-87.006,41.453,VALPARAISO,IN
122,04847,29.0,38.7,341.6,-84.079,41.868,ADRIAN,MI
123,04848,30.1,39.9,340.9,-83.476,41.563,TOLEDO,OH
124,04849,30.0,39.9,339.1,-82.179,41.179,LORAIN/ELYRIA,OH
125,04850,29.4,40.7,316.9,-84.027,40.708,LIMA,OH
126,04852,28.3,39.4,318.7,-81.420,40.470,NEW PHILADELPHIA,OH
127,04853,31.1,39.4,366.8,-81.684,41.518,CLEVELAND,OH
128,04854,28.2,35.2,388.4,-84.701,45.013,GAYLORD,MI
129,04855,29.3,38.6,348.3,-83.064,40.616,MARION,OH
130,04857,27.9,38.5,326.8,-80.696,41.778,ASHTABULA,OH
131,04858,28.3,39.5,317.5,-82.463,40.023,NEWARK,OH
133,12812,55.4,67.1,331.1,-81.991,26.917,PUNTA GORDA,FL
134,12815,53.7,64.7,339.7,-81.325,28.434,ORLANDO,FL
135,12816,49.0,59.8,339.1,-82.272,29.690,GAINESVILLE,FL
136,12818,51.8,61.5,357.6,-82.454,28.474,BROOKSVILLE,FL
137,12819,52.9,63.4,346.5,-81.810,28.821,LEESBURG,FL
138,12832,49.8,59.6,355.1,-85.033,29.733,APALACHICOLA,FL
139,12833,49.0,59.6,342.2,-83.105,29.550,CROSS CITY,FL
140,12834,54.0,62.2,382.9,-81.060,29.177,DAYTONA BEACH,FL
141,12836,62.7,70.1,400.7,-81.754,24.553,KEY WEST,FL
142,12838,56.8,65.3,379.8,-80.646,28.103,MELBOURNE,FL
143,12839,58.3,71.5,312.6,-80.300,25.824,MIAMI,FL
144,12841,52.8,65.3,318.1,-81.333,28.545,ORLANDO,FL
145,12842,53.8,66.3,318.7,-82.540,27.961,TAMPA,FL
146,12843,57.4,66.0,378.5,-80.418,27.656,VERO BEACH,FL
147,12844,58.2,70.4,326.1,-80.099,26.685,WEST PALM BEACH,FL
148,12849,58.4,71.3,316.9,-80.154,26.072,FORT LAUDERDALE,FL
149,12854,52.4,63.9,331.7,-81.244,28.780,ORLANDO,FL
150,12871,55.1,66.0,342.2,-82.559,27.401,SARASOTA/BRADENTON,FL
151,12873,55.6,66.5,342.8,-82.688,27.911,ST PETERSBURG/CLEARWATER,FL
152,12876,53.0,67.5,291.6,-81.754,28.062,WINTER HAVEN,FL
153,12882,58.5,70.2,333.5,-80.280,25.907,MIAMI,FL
154,12884,55.2,62.3,402.0,-89.408,29.350,BOOTHVILLE,LA
155,12885,58.6,70.6,329.2,-80.171,26.197,FORT LAUDERDALE,FL
156,12888,59.1,69.5,352.0,-80.433,25.648,MIAMI,FL
157,12894,55.3,67.5,323.7,-81.755,26.536,FORT MYERS,FL
158,12895,57.4,66.1,376.7,-80.377,27.498,FORT PIERCE,FL
159,12896,59.5,72.7,313.8,-81.052,24.726,MARATHON,FL
160,12897,58.4,67.9,365.0,-81.775,26.153,NAPLES,FL
161,12904,58.2,70.6,323.7,-97.654,26.228,HARLINGEN,TX
162,12912,51.7,64.6,311.4,-96.930,28.863,VICTORIA,TX
163,12916,49.7,60.5,339.7,-90.251,29.993,NEW ORLEANS,LA
164,12917,50.8,62.0,334.8,-94.021,29.951,BEAUMONT/PORT ARTHUR,TX
165,12918,51.2,64.9,300.9,-95.279,29.645,HOUSTON,TX
166,12919,61.2,72.4,342.2,-97.426,25.906,BROWNSVILLE,TX
167,12921,50.4,63.3,310.7,-98.464,29.533,SAN ANTONIO,TX
168,12923,57.4,66.4,372.4,-94.860,29.265,GALVESTON,TX
169,12924,55.7,69.4,304.0,-97.513,27.773,CORPUS CHRISTI,TX
170,12926,59.5,69.5,358.2,-97.283,27.700,CORPUS CHRISTI,TX
171,12928,56.1,68.3,324.3,-97.817,27.500,KINGSVILLE,TX
172,12932,53.9,68.2,294.7,-98.027,27.741,ALICE,TX
173,12935,54.6,66.3,330.5,-96.251,28.728,PALACIOS,TX
174,12947,50.6,67.4,261.4,-99.220,28.458,COTULLA,TX
175,12957,61.7,72.1,353.9,-97.346,26.166,PORT ISABEL,TX
176,12959,57.5,71.4,302.7,-98.238,26.175,MC ALLEN,TX
177,12960,50.4,62.9,316.3,-95.364,29.993,HOUSTON,TX
178,12962,47.9,63.4,275.0,-99.174,29.359,HONDO,TX
179,12968,52.3,61.9,360.0,-91.526,29.562,SALT POINT,LA
180,12970,49.5,63.4,296.6,-98.471,29.337,SAN ANTONIO,TX
181,12971,47.5,62.4,281.8,-98.045,29.709,NEW BRAUNFELS,TX
182,12972,57.7,68.2,349.6,-97.046,28.084,ROCKPORT,TX
183,12975,50.0,63.1,307.7,-95.240,29.521,HOUSTON,TX
184,12976,52.5,63.0,346.5,-95.462,29.110,ANGLETON/LAKE JACKSON,TX
185,12977,51.2,63.8,315.0,-95.656,29.622,HOUSTON,TX
186,13721,34.1,45.6,317.5,-76.400,38.283,PATUXENT RIVER,MD
187,13722,33.9,47.6,286.1,-78.786,35.871,RALEIGH/DURHAM,NC
188,13723,31.2,46.4,263.9,-79.944,36.098,GREENSBORO,NC
189,13728,31.0,45.3,275.6,-79.336,36.573,DANVILLE,VA
190,13729,25.3,37.3,302.7,-79.853,38.885,ELKINS,WV
191,13733,29.9,43.1,289.8,-79.207,37.338,LYNCHBURG,VA
192,13734,27.8,40.9,289.2,-77.984,39.402,MARTINSBURG,WV
193,13735,31.6,41.0,349.0,-75.078,39.366,MILLVILLE,NJ
194,13736,28.5,41.4,292.2,-79.916,39.643,MORGANTOWN,WV
195,13737,37.3,48.6,323.1,-76.192,36.904,NORFOLK,VA
196,13739,30.4,44.2,281.8,-75.231,39.868,PHILADELPHIA,PA
197,13740,32.6,46.4,283.6,-77.323,37.511,RICHMOND,VA
198,13741,28.4,44.9,244.8,-79.974,37.317,ROANOKE,VA
199,13743,31.0,46.6,258.3,-77.034,38.865,WASHINGTON,DC
200,13744,37.8,52.0,283.0,-79.731,34.188,FLORENCE,SC
201,13748,40.6,50.6,345.3,-77.906,34.268,WILMINGTON,NC
202,13750,37.4,50.5,297.2,-76.283,36.933,NORFOLK,VA
203,13752,34.7,47.1,305.2,-76.483,38.991,ANNAPOLIS,MD
204,13754,40.1,50.5,339.1,-76.883,34.900,CHERRY POINT,NC
205,13762,35.1,50.1,270.1,-76.136,36.695,FENTRESS,VA
206,13764,34.0,44.7,329.8,-75.359,38.689,GEORGETOWN,DE
207,13769,38.1,48.2,342.2,-76.033,36.817,OCEANA,VA
208,13776,38.2,49.0,331.1,-79.059,34.610,LUMBERTON,NC
209,13781,31.0,42.4,316.9,-75.601,39.673,WILMINGTON,DE
210,13786,39.2,50.7,321.8,-76.175,36.261,ELIZABETH CITY,NC
211,13809,32.6,42.9,334.8,-87.606,38.764,LAWRENCEVILLE,IL
212,13810,32.2,44.1,310.1,-85.664,38.228,LOUISVILLE,KY
213,13833,43.8,54.7,334.2,-89.253,31.265,HATTIESBURG,MS
214,13837,38.0,54.2,257.7,-82.039,33.467,AUGUSTA,GA
215,13838,47.5,57.4,352.0,-88.068,30.626,MOBILE,AL
216,13839,43.7,55.9,315.0,-85.450,31.321,DOTHAN,AL
217,13841,30.0,40.6,328.0,-83.822,39.420,WILMINGTON,OH
218,13865,42.2,51.7,354.5,-88.751,32.333,MERIDIAN,MS
219,13866,29.1,43.0,279.3,-81.591,38.379,CHARLESTON,WV
220,13869,42.7,55.6,304.6,-84.194,31.536,ALBANY,GA
221,13870,44.5,54.7,345.3,-82.507,31.536,ALMA,GA
222,13871,38.8,50.2,323.1,-85.858,33.588,ANNISTON,AL
223,13873,37.8,51.4,291.0,-83.327,33.948,ATHENS,GA
224,13874,37.5,52.8,268.2,-84.427,33.640,ATLANTA,GA
225,13876,39.3,51.5,311.4,-86.754,33.564,BIRMINGHAM,AL
226,13877,31.1,43.5,302.1,-82.399,36.480,BRISTOL/JHNSN CTY/KNGSPRT,TN
227,13878,48.3,58.7,344.6,-81.391,31.252,BRUNSWICK,GA
228,13881,33.7,48.0,278.1,-80.944,35.214,CHARLOTTE,NC
229,13882,37.4,49.5,311.4,-85.200,35.033,CHATTANOOGA,TN
230,13883,37.0,52.0,271.9,-81.118,33.942,COLUMBIA,SC
231,13884,45.2,55.6,342.8,-86.523,30.780,CRESTVIEW,FL
232,13886,33.6,51.6,232.5,-82.346,34.846,GREENVILLE,SC
233,13889,48.3,55.7,392.7,-81.693,30.494,JACKSONVILLE,FL
234,13891,33.7,46.7,295.3,-83.986,35.818,KNOXVILLE,TN
235,13893,37.9,51.7,287.9,-89.985,35.061,MEMPHIS,TN
236,13894,45.3,56.6,329.2,-88.246,30.688,MOBILE,AL
237,13895,41.8,54.0,313.8,-86.394,32.301,MONTGOMERY,AL
238,13896,36.2,49.9,287.9,-87.610,34.745,MUSCLE SHOALS,AL
239,13897,34.4,47.7,292.2,-86.689,36.119,NASHVILLE,TN
240,13899,47.9,59.5,326.8,-87.188,30.473,PENSACOLA,FL
241,13904,46.4,61.0,284.8,-97.681,30.179,AUSTIN/BERGSTROM,TX
242,13920,32.7,46.5,283.6,-95.664,38.950,TOPEKA,KS
243,13927,43.0,54.2,329.2,-90.223,32.335,JACKSON,MS
244,13932,35.8,51.4,262.7,-97.037,37.168,WINFIELD/ARKANSAS CITY,KS
245,13935,44.1,56.1,318.1,-92.296,31.395,ALEXANDRIA,LA
246,13939,40.7,51.7,330.5,-90.986,33.483,GREENVILLE,MS
247,13942,42.5,54.3,320.0,-92.038,32.511,MONROE,LA
248,13957,44.5,56.8,314.4,-93.824,32.447,SHREVEPORT,LA
249,13958,46.4,64.2,246.6,-97.767,30.317,AUSTIN/CITY,TX
250,13959,42.9,58.8,265.7,-97.229,31.611,WACO,TX
251,13960,41.5,59.9,234.9,-96.851,32.847,DALLAS,TX
252,13961,42.4,59.0,256.5,-97.361,32.819,FORT WORTH,TX
253,13962,40.9,59.1,236.8,-99.682,32.411,ABILENE,TX
254,13963,38.9,51.6,304.0,-92.233,34.747,LITTLE ROCK,AR
255,13964,37.7,53.1,267.0,-94.365,35.334,FORT SMITH,AR
256,13966,38.5,56.9,232.5,-98.493,33.979,WICHITA FALLS,TX
257,13967,37.0,53.7,250.3,-97.600,35.389,OKLAHOMA CITY,OK
258,13968,36.5,52.6,257.1,-95.886,36.198,TULSA,OK
259,13969,33.6,52.4,223.2,-97.100,36.731,PONCA CITY,OK
260,13970,46.8,57.7,336.0,-91.147,30.537,BATON ROUGE,LA
261,13971,34.7,49.7,269.4,-93.155,36.261,HARRISON,AR
262,13972,43.5,58.6,276.2,-95.402,32.354,TYLER,TX
263,13973,42.8,61.1,237.4,-99.766,30.511,JUNCTION,TX
264,13975,31.0,51.0,207.8,-99.775,36.297,GAGE,OK
265,13976,48.2,60.0,324.3,-91.988,30.205,LAFAYETTE,LA
266,13977,42.9,55.0,315.7,-94.008,33.454,TEXARKANA,AR
267,13978,40.3,51.0,334.8,-90.084,33.496,GREENWOOD,MS
268,13981,34.3,48.4,281.1,-95.484,37.670,CHANUTE,KS
269,13985,27.5,47.2,207.2,-99.970,37.773,DODGE CITY,KS
270,13986,31.8,47.8,254.0,-97.861,38.068,HUTCHINSON,KS
271,13987,34.9,49.6,273.8,-94.498,37.149,JOPLIN,MO
272,13988,32.9,49.0,254.0,-94.593,39.123,KANSAS CITY,MO
273,13989,32.7,47.7,267.6,-96.190,38.331,EMPORIA,KS
274,13993,31.4,44.7,289.2,-94.907,39.774,ST JOSEPH,MO
275,13994,32.6,46.0,289.2,-90.374,38.753,ST LOUIS,MO
276,13995,34.4,47.4,295.9,-93.390,37.240,SPRINGFIELD,MO
277,13996,32.5,47.8,263.9,-95.626,39.073,TOPEKA,KS
278,13997,32.1,44.9,297.2,-91.769,38.128,ROLLA/VICHY,MO
279,14605,25.9,35.6,339.7,-69.797,44.321,AUGUSTA,ME
280,14606,26.1,33.6,377.9,-68.824,44.808,BANGOR,ME
281,14607,23.9,31.3,377.9,-68.033,46.867,CARIBOU,ME
282,14609,24.2,31.5,380.4,-67.792,46.123,HOULTON,ME
283,14610,24.8,33.6,353.9,-68.686,45.648,MILLINOCKET,ME
284,14702,28.3,38.5,332.9,-71.289,42.470,BEDFORD,MA
285,14707,31.7,42.5,326.1,-72.049,41.328,GROTON NEW LONDON,CT
286,14710,26.1,39.4,284.8,-71.438,42.933,MANCHESTER,NH
287,14711,29.2,40.7,313.8,-76.763,40.194,HARRISBURG,PA
288,14719,31.5,40.6,353.3,-72.632,40.844,WESTHAMPTON BEACH,NY
289,14732,32.1,45.1,294.1,-73.881,40.779,NEW YORK,NY
290,14733,28.9,39.3,330.5,-78.736,42.941,BUFFALO,NY
291,14734,30.5,43.3,295.9,-74.169,40.716,NEWARK,NJ
292,14735,27.2,38.1,321.2,-73.803,42.748,ALBANY,NY
293,14737,28.6,39.6,320.6,-75.449,40.651,ALLENTOWN,PA
294,14739,30.6,42.1,315.0,-71.011,42.361,BOSTON,MA
295,14740,27.6,40.0,299.0,-72.683,41.938,WINDSOR LOCKS,CT
296,14742,25.2,37.0,305.8,-73.150,44.468,BURLINGTON,VT
297,14745,25.5,36.0,326.1,-71.501,43.195,CONCORD,NH
298,14747,28.8,39.2,330.5,-79.272,42.493,DUNKIRK,NY
299,14748,26.7,36.2,343.4,-76.892,42.159,ELMIRA/CORNING,NY
300,14750,25.9,35.6,339.7,-73.610,43.341,GLENS FALLS,NY
301,14751,28.8,41.2,300.3,-76.851,40.217,HARRISBURG,PA
302,14752,28.4,40.5,304.0,-72.651,41.736,HARTFORD,CT
303,14756,37.5,45.2,381.6,-70.061,41.253,NANTUCKET,MA
304,14757,27.4,39.3,306.4,-73.884,41.627,POUGHKEEPSIE,NY
305,14758,30.4,43.0,298.4,-72.887,41.264,NEW HAVEN,CT
306,14762,26.4,40.8,270.1,-79.922,40.355,PITTSBURGH,PA
307,14763,26.1,35.9,337.9,-73.289,42.427,PITTSFIELD,MA
308,14764,27.5,38.0,328.0,-70.304,43.642,PORTLAND,ME
309,14765,30.9,42.0,321.2,-71.433,41.722,PROVIDENCE,RI
310,14768,29.2,40.7,313.8,-77.677,43.117,ROCHESTER,NY
311,14770,28.7,38.9,333.5,-76.864,40.821,SELINSGROVE,PA
312,14771,29.3,39.4,335.4,-76.103,43.109,SYRACUSE,NY
313,14775,26.5,39.0,296.6,-72.716,42.158,WESTFIELD/SPRINGFIELD,MA
314,14777,26.7,39.2,296.6,-75.727,41.339,WILKES-BARRE/SCRANTON,PA
315,14778,28.0,39.6,311.4,-76.922,41.243,WILLIAMSPORT,PA
316,14787,32.5,42.2,344.6,-71.284,41.530,NEWPORT,RI
317,14792,29.6,41.5,308.3,-74.814,40.277,TRENTON,NJ
318,14794,31.8,41.3,347.1,-71.799,41.350,WESTERLY,RI
319,14813,28.3,38.3,336.6,-81.464,41.038,AKRON,OH
320,14815,28.2,38.7,328.6,-85.251,42.308,BATTLE CREEK,MI
321,14819,29.7,42.2,299.0,-87.752,41.786,CHICAGO,IL
322,14820,30.3,40.3,337.9,-81.853,41.405,CLEVELAND,OH
323,14821,29.9,42.1,304.0,-82.881,39.991,COLUMBUS,OH
324,14822,28.9,39.8,322.4,-83.010,42.409,DETROIT,MI
325,14825,30.5,39.9,347.7,-83.669,41.014,FINDLAY,OH
326,14826,28.8,38.6,340.3,-83.749,42.967,FLINT,MI
327,14827,30.1,39.6,345.9,-85.206,41.006,FORT WAYNE,IN
328,14829,29.2,40.1,323.1,-85.792,41.527,GOSHEN,IN
329,14833,28.0,38.5,328.0,-84.459,42.260,JACKSON,MI
330,14835,29.8,39.7,339.1,-86.937,40.412,LAFAYETTE,IN
331,14836,28.4,38.6,333.5,-84.579,42.780,LANSING,MI
332,14837,29.0,38.1,352.0,-89.345,43.141,MADISON,WI
333,14839,30.0,39.0,353.9,-87.897,42.947,MILWAUKEE,WI
334,14841,28.3,36.2,371.8,-84.796,45.571,PELLSTON,MI
335,14842,31.3,41.0,343.4,-89.684,40.668,PEORIA,IL
336,14845,29.2,38.7,345.3,-84.080,43.533,SAGINAW,MI
337,14848,29.3,40.1,324.3,-86.333,41.707,SOUTH BEND,IN
338,14850,29.7,39.3,344.0,-85.583,44.741,TRAVERSE CITY,MI
339,14852,27.9,38.3,329.8,-80.674,41.254,YOUNGSTOWN/WARREN,OH
340,14853,29.4,41.1,310.7,-83.230,42.237,DETROIT,MI
341,14858,26.2,32.5,400.1,-88.506,47.169,HANCOCK,MI
342,14860,29.6,40.4,324.9,-80.183,42.080,ERIE,PA
343,14880,30.3,38.5,368.1,-87.868,42.422,CHICAGO/WAUKEGAN,IL
344,14891,29.7,39.5,340.9,-82.518,40.820,MANSFIELD,OH
345,14894,27.2,40.1,291.6,-80.647,40.176,WHEELING,WV
346,14895,28.4,39.5,319.4,-81.443,40.918,AKRON,OH
347,14897,26.5,34.5,369.3,-89.627,44.929,WAUSAU,WI
348,14898,29.0,36.8,374.2,-88.120,44.513,GREEN BAY,WI
349,14910,24.4,31.7,380.4,-95.393,45.883,ALEXANDRIA,MN
350,14914,23.7,30.4,390.9,-96.811,46.925,FARGO,ND
351,14916,22.2,26.8,432.2,-97.176,47.949,GRAND FORKS,ND
352,14919,23.0,28.5,414.3,-98.678,46.930,JAMESTOWN,ND
353,14920,28.1,38.0,337.9,-91.256,43.754,LA CROSSE,WI
354,14921,29.1,37.7,360.0,-90.181,43.212,LONE ROCK,WI
355,14922,26.8,37.1,330.5,-93.229,44.883,MINNEAPOLIS,MN
356,14923,30.6,40.0,347.7,-90.523,41.465,MOLINE,IL
357,14925,27.0,38.4,313.2,-92.492,43.904,ROCHESTER,MN
358,14926,24.9,33.0,366.2,-94.052,45.545,ST CLOUD,MN
359,14927,27.1,37.1,335.4,-93.048,44.930,ST PAUL,MN
360,14929,23.2,30.9,372.4,-98.421,45.450,ABERDEEN,SD
361,14931,32.0,41.6,345.9,-91.125,40.783,BURLINGTON,IA
362,14933,30.3,43.5,289.8,-93.666,41.538,DES MOINES,IA
363,14935,28.1,42.1,276.8,-98.313,40.958,GRAND ISLAND,NE
364,14937,31.0,40.2,351.4,-91.543,41.633,IOWA CITY,IA
365,14938,31.4,41.7,334.2,-92.543,40.097,KIRKSVILLE,MO
366,14939,29.0,41.4,300.3,-96.764,40.831,LINCOLN,NE
367,14940,27.1,36.9,338.5,-93.331,43.158,MASON CITY,IA
368,14941,26.4,38.7,299.6,-97.437,41.981,NORFOLK,NE
369,14942,30.4,42.9,299.6,-95.899,41.310,OMAHA,NE
370,14943,28.1,38.4,331.7,-96.379,42.391,SIOUX CITY,IA
371,14944,26.3,35.9,341.6,-96.754,43.577,SIOUX FALLS,SD
372,14946,24.5,31.9,378.5,-97.154,44.931,WATERTOWN,SD
373,14950,30.5,41.1,328.6,-92.448,41.107,OTTUMWA,IA
374,14972,27.4,37.5,334.2,-95.202,43.164,SPENCER,IA
375,14990,30.4,37.4,389.6,-91.709,41.884,CEDAR RAPIDS,IA
376,14991,26.3,36.0,339.7,-91.485,44.865,EAU CLAIRE,WI
377,14992,26.7,36.3,341.6,-95.082,44.547,REDWOOD FALLS,MN
378,21504,64.1,73.3,373.0,-155.051,19.723,HILO,HI
379,21510,63.6,77.8,304.0,-156.049,19.736,KAILUA/KONA,HI
380,22010,48.1,65.5,252.8,-100.922,29.367,DEL RIO,TX
381,22516,65.7,74.7,377.3,-156.433,20.902,KAHULUI,HI
382,22519,66.1,77.4,344.0,-157.768,21.451,KANEOHE,HI
383,22521,64.2,75.7,340.3,-157.943,21.328,HONOLULU,HI
384,22534,62.1,75.1,318.1,-157.099,21.157,KAUNAKAKAI,HI
385,22536,64.7,76.6,334.8,-159.341,21.979,LIHUE,HI
386,22551,63.1,74.5,340.9,-158.067,21.317,KAPOLEI,HI
387,23007,33.0,56.5,175.7,-100.288,34.434,CHILDRESS,TX
388,23009,25.8,53.7,131.4,-104.541,33.308,ROSWELL,NM
389,23023,37.7,58.0,211.5,-102.208,31.932,MIDLAND,TX
390,23034,42.7,59.9,249.7,-100.494,31.351,SAN ANGELO,TX
391,23040,34.4,56.8,186.8,-103.201,31.780,WINK,TX
392,23042,30.3,55.1,160.9,-101.821,33.668,LUBBOCK,TX
393,23044,25.5,57.8,100.5,-106.376,31.811,EL PASO,TX
394,23047,26.9,52.6,149.9,-101.706,35.219,AMARILLO,TX
395,23048,20.7,53.3,93.8,-103.603,35.182,TUCUMCARI,NM
396,23049,15.1,42.4,125.2,-106.089,35.617,SANTA FE,NM
397,23050,18.5,48.4,109.2,-106.616,35.042,ALBUQUERQUE,NM
398,23052,12.6,42.4,104.2,-104.502,36.741,RATON,NM
399,23054,11.9,44.3,86.4,-105.143,35.654,LAS VEGAS,NM
400,23055,26.1,56.3,115.3,-104.809,31.831,GUADALUPE PASS,TX
401,23064,26.1,46.5,198.6,-100.725,37.927,GARDEN CITY,KS
402,23065,21.1,44.0,169.0,-101.693,39.368,GOODLAND,KS
403,23066,23.3,42.4,209.6,-108.538,39.134,GRAND JUNCTION,CO
404,23067,17.7,46.0,120.3,-103.527,38.051,LA JUNTA,CO
405,23070,11.0,45.4,73.4,-104.341,37.259,TRINIDAD,CO
406,23078,22.2,53.5,103.6,-107.721,32.262,DEMING,NM
407,23081,16.5,39.0,167.7,-108.789,35.511,GALLUP,NM
408,23090,18.0,43.2,144.9,-108.229,36.744,FARMINGTON,NM
409,23091,36.7,60.8,173.9,-102.912,30.915,FORT STOCKTON,TX
410,23110,42.2,54.3,315.0,-119.950,36.333,LEMOORE,CA
411,23129,49.4,63.3,296.6,-118.163,33.828,LONG BEACH,CA
412,23130,41.1,61.5,213.3,-118.489,34.210,VAN NUYS,CA
413,23136,47.0,60.4,300.9,-119.083,34.217,CAMARILLO,CA
414,23152,42.1,62.1,218.3,-118.359,34.201,BURBANK,CA
415,23153,21.2,43.9,170.8,-117.087,38.060,TONOPAH,NV
416,23154,21.6,39.8,218.3,-114.845,39.295,ELY,NV
417,23155,43.7,58.6,278.7,-119.056,35.434,BAKERSFIELD,CA
418,23157,19.0,45.6,134.4,-118.363,37.373,BISHOP,CA
419,23158,30.0,64.5,91.3,-114.717,33.619,BLYTHE,CA
420,23159,18.4,33.9,247.9,-112.146,37.706,BRYCE CANYON,UT
421,23160,29.0,64.8,83.3,-110.955,32.131,TUCSON,AZ
422,23161,27.5,59.1,107.3,-116.787,34.854,DAGGETT,CA
423,23169,27.7,60.1,102.4,-115.155,36.079,LAS VEGAS,NV
424,23174,50.0,62.6,314.4,-118.406,33.938,LOS ANGELES,CA
425,23176,25.2,41.1,249.1,-113.028,38.443,MILFORD,UT
426,23179,29.1,65.4,80.2,-114.623,34.766,NEEDLES,CA
427,23182,30.5,54.8,165.9,-118.084,34.629,PALMDALE,CA
428,23183,31.8,68.4,81.4,-111.990,33.443,PHOENIX,AZ
429,23184,23.0,49.5,139.4,-112.421,34.652,PRESCOTT,AZ
430,23187,27.7,52.5,158.5,-118.724,34.744,SANDBERG,CA
431,23188,50.3,62.3,323.1,-117.169,32.735,SAN DIEGO,CA
432,23190,48.6,58.6,351.4,-119.844,34.426,SANTA BARBARA,CA
433,23191,42.4,60.6,238.0,-118.416,33.405,AVALON,CA
434,23194,20.7,46.8,140.6,-110.722,35.022,WINSLOW,AZ
435,23199,34.8,66.1,116.6,-115.667,32.817,EL CENTRO,CA
436,23213,46.9,54.3,392.1,-122.812,38.509,SANTA ROSA,CA
437,23225,30.0,46.3,249.1,-120.708,39.292,EMIGRANT GAP,CA
438,23230,48.8,57.8,366.8,-122.221,37.755,OAKLAND,CA
439,23232,46.2,55.4,361.9,-121.493,38.513,SACRAMENTO,CA
440,23233,45.8,61.0,276.8,-121.605,36.663,SALINAS,CA
441,23234,48.1,58.2,349.0,-122.398,37.620,SAN FRANCISCO,CA
442,23244,47.9,57.6,355.1,-122.048,37.415,MOUNTAIN VIEW,CA
443,23254,46.7,55.3,371.8,-122.052,37.992,CONCORD,CA
444,23257,46.0,55.8,352.7,-120.513,37.285,MERCED,CA
445,23258,46.0,55.8,352.7,-120.953,37.626,MODESTO,CA
446,23259,46.4,56.6,346.5,-121.845,36.588,MONTEREY,CA
447,23273,46.3,59.1,308.9,-120.465,34.916,SANTA MARIA,CA
448,23275,46.2,53.9,386.6,-123.201,39.126,UKIAH,CA
449,23277,46.4,56.7,345.3,-121.789,36.936,WATSONVILLE,CA
450,23285,45.8,55.9,347.7,-121.817,37.694,LIVERMORE,CA
451,23293,47.7,57.4,355.1,-121.928,37.362,SAN JOSE,CA
452,24011,22.4,28.6,400.1,-100.748,46.774,BISMARCK,ND
453,24012,23.3,31.9,356.3,-102.802,46.797,DICKINSON,ND
454,24013,21.2,27.1,405.0,-101.281,48.259,MINOT,ND
455,24015,22.9,43.4,194.2,-103.232,40.172,AKRON,CO
456,24017,25.6,37.8,300.3,-103.095,42.838,CHADRON,NE
457,24018,17.7,40.2,169.0,-104.807,41.158,CHEYENNE,WY
458,24021,21.1,37.8,235.5,-108.733,42.817,LANDER,WY
459,24022,17.8,38.0,192.4,-105.674,41.313,LARAMIE,WY
460,24023,24.5,38.6,272.5,-100.668,41.122,NORTH PLATTE,NE
461,24024,25.8,36.6,321.8,-101.601,44.051,PHILIP,SD
462,24025,25.4,34.2,354.5,-100.286,44.383,PIERRE,SD
463,24027,21.8,37.1,253.4,-109.065,41.594,ROCK SPRINGS,WY
464,24028,24.8,41.4,240.5,-103.595,41.874,SCOTTSBLUFF,NE
465,24029,24.8,34.4,340.3,-106.976,44.774,SHERIDAN,WY
466,24030,23.2,40.2,233.7,-102.985,41.101,SIDNEY,NE
467,24032,25.5,37.1,308.9,-100.551,42.859,VALENTINE,NE
468,24033,25.8,40.2,269.4,-108.543,45.808,BILLINGS,MT
469,24036,24.4,35.1,322.4,-109.467,47.049,LEWISTOWN,MT
470,24037,26.2,35.4,348.3,-105.886,46.428,MILES CITY,MT
471,24044,23.7,38.4,263.3,-102.800,42.057,ALLIANCE,NE
472,24046,20.8,36.6,246.0,-107.521,40.495,CRAIG,CO
473,24048,22.5,33.9,309.5,-108.082,44.517,GREYBULL,WY
474,24057,20.3,38.0,222.6,-107.200,41.806,RAWLINS,WY
475,24061,21.0,35.8,259.6,-108.459,43.064,RIVERTON,WY
476,24089,21.1,39.4,216.4,-106.473,42.898,CASPER,WY
477,24090,25.5,37.2,307.7,-103.054,44.046,RAPID CITY,SD
478,24091,23.9,41.5,227.5,-101.620,40.510,IMPERIAL,NE
479,24110,33.8,40.0,406.3,-119.319,47.208,MOSES LAKE,WA
480,24112,25.1,36.6,310.1,-111.187,47.504,GREAT FALLS,MT
481,24121,24.8,39.7,262.0,-115.792,40.825,ELKO,NV
482,24126,29.4,44.1,268.8,-112.011,41.196,OGDEN,UT
483,24127,31.4,45.5,278.7,-111.968,40.787,SALT LAKE CITY,UT
484,24128,25.5,40.4,262.7,-117.807,40.902,WINNEMUCCA,NV
485,24130,29.9,37.0,387.2,-117.810,44.838,BAKER CITY,OR
486,24131,32.7,44.6,310.7,-116.220,43.565,BOISE,ID
487,24132,23.7,32.6,351.4,-111.152,45.794,BOZEMAN,MT
488,24133,31.0,41.4,332.3,-113.772,42.543,BURLEY,ID
489,24135,20.6,29.1,356.3,-112.513,45.953,BUTTE,MT
490,24137,24.0,32.5,358.2,-112.376,48.608,CUT BANK,MT
491,24138,23.1,34.5,310.1,-112.552,45.255,DILLON,MT
492,24141,34.5,39.3,434.0,-119.514,47.304,EPHRATA,WA
493,24143,25.2,38.4,285.5,-111.382,47.473,GREAT FALLS,MT
494,24144,24.3,34.7,326.8,-111.964,46.606,HELENA,MT
495,24145,29.1,37.7,360.0,-112.067,43.516,IDAHO FALLS,ID
496,24146,29.9,34.9,427.9,-114.264,48.304,KALISPELL,MT
497,24149,37.7,45.3,383.5,-117.014,46.375,LEWISTON,ID
498,24150,23.8,39.9,245.4,-110.448,45.699,LIVINGSTON,MT
499,24152,32.1,37.4,422.9,-118.425,45.511,MEACHAM,OR
500,24153,29.4,36.4,389.0,-114.093,46.921,MISSOULA,MT
501,24154,26.9,29.3,482.1,-115.645,47.457,MULLAN PASS,ID
502,24155,37.5,42.8,425.4,-118.834,45.698,PENDLETON,OR
503,24156,29.8,39.7,339.1,-112.571,42.920,POCATELLO,ID
504,24157,35.2,39.2,450.0,-117.528,47.621,SPOKANE,WA
505,24160,38.3,44.9,401.3,-118.287,46.095,WALLA WALLA,WA
506,24162,33.0,41.2,369.9,-117.013,44.021,ONTARIO,OR
507,24163,37.7,43.1,423.5,-119.118,46.265,PASCO,WA
508,24164,19.3,30.2,315.0,-110.108,42.584,BIG PINEY,WY
509,24172,24.5,40.7,244.8,-118.565,40.066,LOVELOCK,NV
510,24215,34.4,43.6,353.9,-122.333,41.333,MOUNT SHASTA,CA
511,24216,44.5,55.1,339.1,-122.254,40.152,RED BLUFF,CA
512,24217,39.4,46.3,396.4,-122.537,48.794,BELLINGHAM,WA
513,24219,39.3,45.7,405.7,-121.167,45.619,THE DALLES,OR
514,24220,33.0,41.0,373.6,-120.530,47.034,ELLENSBURG,WA
515,24221,45.0,48.0,474.1,-123.214,44.133,EUGENE,OR
516,24222,40.6,46.2,421.1,-122.280,47.908,EVERETT,WA
517,24225,41.1,47.4,408.1,-122.871,42.389,MEDFORD,OR
518,24227,42.2,44.4,490.1,-122.903,46.973,OLYMPIA,WA
519,24229,43.6,48.7,432.2,-122.600,45.591,PORTLAND,OR
520,24230,32.1,40.4,367.4,-121.150,44.254,REDMOND,OR
521,24231,44.2,50.4,411.8,-123.355,43.239,ROSEBURG,OR
522,24232,44.9,47.7,478.4,-122.995,44.908,SALEM,OR
523,24233,40.6,46.9,408.1,-122.314,47.461,SEATTLE,WA
524,24234,41.6,47.1,423.5,-122.301,47.530,SEATTLE,WA
525,24235,36.8,41.1,444.5,-123.381,42.617,SEXTON SUMMIT,OR
526,24242,42.4,48.6,410.6,-122.400,45.549,PORTLAND,OR
527,24243,34.7,41.4,397.6,-120.534,46.564,YAKIMA,WA
528,24255,40.2,45.8,421.1,-122.650,48.350,WHIDBEY ISLAND,WA
529,24257,43.9,53.6,352.7,-122.313,40.515,REDDING,CA
530,24259,35.1,43.8,362.5,-122.468,41.781,MONTAGUE,CA
531,24283,47.8,52.4,443.3,-124.109,40.978,ARCATA/EUREKA,CA
532,24286,47.8,53.0,431.5,-124.237,41.780,CRESCENT CITY,CA
533,25308,37.1,41.4,445.1,-131.570,55.043,ANNETTE,AK
534,25309,24.6,29.8,421.1,-134.575,58.355,JUNEAU,AK
535,25323,17.1,25.0,364.4,-135.520,59.245,HAINES,AK
536,25325,36.4,39.9,461.1,-131.712,55.357,KETCHIKAN,AK
537,25331,7.8,15.8,355.7,-149.092,61.596,PALMER,AK
538,25333,33.2,40.2,391.5,-135.360,57.048,SITKA,AK
539,25335,14.2,27.5,273.8,-135.313,59.460,SKAGWAY,AK
540,25339,24.4,31.0,393.3,-139.628,59.510,YAKUTAT,AK
541,25367,35.3,39.2,452.5,-133.075,55.580,KLAWOCK,AK
542,25501,27.7,34.4,393.3,-152.492,57.750,KODIAK,AK
543,25503,8.9,15.2,389.6,-156.654,58.684,KING SALMON,AK
544,25506,10.3,16.8,386.6,-154.915,59.753,ILIAMNA,AK
545,25507,17.4,25.6,359.4,-151.477,59.647,HOMER,AK
546,25516,21.5,27.4,405.7,-151.702,59.443,SELDOVIA,AK
547,25624,26.4,30.7,440.2,-162.722,55.207,COLD BAY,AK
548,25628,26.1,32.3,402.0,-169.565,56.600,ST. GEORGE ISLAND,AK
549,26409,9.1,15.8,381.6,-149.855,61.217,ANCHORAGE,AK
550,26410,20.1,24.6,433.4,-145.451,60.489,CORDOVA,AK
551,26411,-13.4,-8.8,413.7,-147.855,64.817,FAIRBANKS,AK
552,26415,-8.7,-6.5,477.2,-145.718,63.995,DELTA JUNCTION/FT GREELY,AK
553,26435,-12.5,-6.6,384.1,-149.072,64.550,NENANA,AK
554,26438,17.8,28.1,323.1,-149.417,60.128,SEWARD,AK
555,26451,9.1,18.5,331.7,-149.993,61.175,ANCHORAGE,AK
556,26491,9.6,17.7,355.1,-149.961,61.179,ANCHORAGE,AK
557,26492,12.4,-7.0,539.4,-148.839,60.785,PORTAGE GLACIER,AK
558,26502,-8.6,-0.8,347.1,-158.742,64.327,KALTAG,AK
559,26510,-8.2,-1.2,363.7,-155.603,62.953,MC GRATH,AK
560,26523,9.1,15.8,381.6,-151.239,60.580,KENAI,AK
561,26528,5.4,18.5,268.2,-150.092,62.322,TALKEETNA,AK
562,26529,-12.6,-6.4,377.3,-152.107,65.174,TANANA,AK
563,26533,-14.5,-9.4,401.3,-151.509,66.916,BETTLES,AK
564,26615,5.0,11.4,385.3,-161.826,60.786,BETHEL,AK
565,26616,-1.6,4.5,387.2,-162.597,66.885,KOTZEBUE,AK
566,26617,5.6,14.5,337.2,-165.443,64.513,NOME,AK
567,26642,-0.2,4.9,410.0,-164.548,67.732,KIVALINA,AK
568,26643,-2.4,1.7,431.5,-162.764,66.069,DEERING,AK
569,27406,-3.0,-0.6,473.5,-148.477,70.192,DEADHORSE,AK
570,27502,2.8,5.9,458.1,-156.763,71.287,BARROW,AK
571,27515,-3.3,-2.2,508.6,-151.002,70.212,NUIQSUT,AK
572,53119,44.7,54.3,354.5,-119.629,36.319,HANFORD,CA
573,53120,40.6,56.8,260.2,-116.917,33.033,RAMONA,CA
574,53121,48.1,58.3,347.7,-117.349,33.219,OCEANSIDE,CA
575,53123,28.2,58.5,116.6,-115.196,36.212,LAS VEGAS,NV
576,53802,33.3,41.8,365.0,-88.280,39.478,MATTOON/CHARLESTON,IL
577,53819,38.0,49.3,323.7,-84.567,33.355,ATLANTA,GA
578,53820,43.4,53.9,339.7,-87.044,31.416,EVERGREEN,AL
579,53838,35.9,50.7,273.1,-83.830,34.272,GAINESVILLE,GA
580,53841,30.9,41.9,322.4,-84.903,38.185,FRANKFORT,KY
581,53842,30.6,40.9,333.5,-86.296,39.825,INDIANAPOLIS,IN
582,53843,43.6,57.5,291.6,-86.394,31.309,ANDALUSIA (FT RUCKER),AL
583,53844,28.0,39.3,315.7,-82.657,39.756,LANCASTER,OH
584,53847,45.8,56.3,341.6,-87.023,30.704,MILTON,FL
585,53850,35.9,53.4,239.8,-82.886,34.672,CLEMSON,SC
586,53852,37.1,47.7,333.5,-86.945,34.653,DECATUR,AL
587,53853,49.0,60.3,332.3,-86.472,30.400,DESTIN,FL
588,53854,39.2,52.5,295.9,-80.858,33.462,ORANGEBURG,SC
589,53855,29.0,39.7,325.5,-84.525,39.364,HAMILTON,OH
590,53858,46.3,55.6,360.7,-88.532,30.464,PASCAGOULA,MS
591,53859,30.6,41.0,331.7,-84.226,39.594,DAYTON,OH
592,53860,49.4,60.2,339.7,-81.515,30.336,JACKSONVILLE,FL
593,53861,43.8,55.1,328.0,-85.751,31.356,FORT RUCKER/OZARK,AL
594,53862,47.5,57.7,347.1,-83.574,30.072,PERRY-FOLEY,FL
595,53863,38.0,50.3,308.9,-84.302,33.875,ATLANTA,GA
596,53864,40.8,52.4,321.2,-86.782,33.178,ALABASTER,AL
597,53865,48.3,56.3,382.9,-89.821,30.345,SLIDELL,LA
598,53866,30.9,41.8,324.3,-85.803,39.578,SHELBYVILLE,IN
599,53867,38.3,52.8,279.3,-80.996,33.971,COLUMBIA,SC
600,53868,33.1,47.0,282.4,-84.233,36.023,OAK RIDGE,TN
601,53869,37.0,48.2,324.3,-89.831,35.940,BLYTHEVILLE,AR
602,53870,34.5,48.8,278.7,-81.156,35.197,GASTONIA,NC
603,53871,35.1,48.4,292.9,-81.058,34.987,ROCK HILL,SC
604,53872,34.6,48.9,278.7,-80.621,35.017,MONROE,NC
605,53873,37.8,48.6,331.1,-84.849,34.123,CARTERSVILLE,GA
606,53874,36.4,50.3,285.5,-82.159,34.249,GREENWOOD,SC
607,53879,32.6,47.8,265.1,-94.371,38.960,LEE'S SUMMIT,MO
608,53901,32.9,45.7,297.8,-91.903,36.878,WEST PLAINS,MO
609,53902,48.8,59.2,345.3,-95.414,30.352,CONROE,TX
610,53903,48.2,60.2,321.2,-95.587,30.747,HUNTSVILLE,TX
611,53904,33.1,43.6,332.3,-90.428,38.929,ST CHARLES,MO
612,53905,44.2,55.9,322.4,-93.744,32.540,SHREVEPORT,LA
613,53907,41.8,57.7,264.5,-97.094,32.664,ARLINGTON,TX
614,53908,35.0,52.1,244.2,-95.984,36.039,TULSA,OK
615,53909,40.3,56.9,254.6,-97.318,32.973,FORT WORTH,TX
616,53910,50.9,60.8,354.5,-95.553,30.062,HOUSTON,TX
617,53911,41.3,57.9,255.9,-96.267,32.710,TERRELL,TX
618,53912,43.9,59.7,267.6,-96.398,32.027,CORSICANA,TX
619,53913,36.0,55.2,221.4,-97.416,35.850,GUTHRIE,OK
620,53914,39.9,56.4,255.9,-96.590,33.180,MC KINNEY,TX
621,53915,49.0,61.0,321.8,-91.884,30.038,NEW IBERIA,LA
622,53916,32.3,44.8,301.5,-93.579,39.823,CHILLICOTHE,MO
623,53917,51.4,61.2,356.3,-90.028,30.043,NEW ORLEANS,LA
624,53918,34.6,48.2,287.9,-92.470,36.369,MOUNTAIN HOME,AR
625,53919,41.2,52.5,326.1,-91.751,33.638,MONTICELLO,AR
626,53920,38.4,50.6,310.7,-93.095,35.258,RUSSELLVILLE,AR
627,53922,36.1,49.1,297.8,-94.307,36.282,FAYETTEVILLE/SPRINGDALE,AR
628,53925,39.6,52.0,308.9,-94.399,34.047,DE QUEEN,AR
629,53959,38.4,48.5,342.2,-90.234,35.135,WEST MEMPHIS,AR
630,53988,46.0,58.1,318.1,-92.967,31.150,FORT POLK,LA
631,54704,29.4,39.7,332.3,-71.174,42.191,NORWOOD,MA
632,54728,22.1,32.0,333.5,-71.545,44.368,WHITEFIELD,NH
633,54733,29.5,40.6,320.0,-70.918,42.584,BEVERLY,MA
634,54734,28.3,38.5,332.9,-73.483,41.371,DANBURY,CT
635,54737,28.3,40.2,307.0,-76.294,40.120,LANCASTER,PA
636,54740,23.3,36.2,287.9,-72.518,43.344,SPRINGFIELD,VT
637,54742,23.7,33.0,344.6,-72.019,44.419,SAINT JOHNSBURY,VT
638,54756,26.2,36.3,332.9,-72.291,42.570,ORANGE,MA
639,54757,25.4,36.3,320.0,-77.992,42.109,WELLSVILLE,NY
640,54767,27.8,39.6,308.3,-72.184,41.742,WILLIMANTIC,CT
641,54768,23.8,37.2,281.1,-73.171,42.696,NORTH ADAMS,MA
642,54769,32.3,41.0,360.7,-70.729,41.910,PLYMOUTH,MA
643,54770,24.5,35.5,317.5,-72.004,42.805,JAFFREY,NH
644,54771,23.9,32.8,351.4,-72.614,44.534,MORRISVILLE,VT
645,54772,24.1,34.3,329.8,-70.948,43.991,FRYEBURG,ME
646,54773,29.0,38.0,353.3,-76.385,43.350,FULTON,NY
647,54777,30.8,31.9,512.9,-71.021,41.876,TAUNTON,MA
648,54778,28.2,38.2,336.6,-77.056,42.643,PENN YAN,NY
649,54781,25.3,36.7,312.0,-73.247,42.891,BENNINGTON,VT
650,54782,29.3,40.7,315.0,-75.557,40.238,POTTSTOWN,PA
651,54786,28.5,40.8,301.5,-75.123,40.330,DOYLESTOWN,PA
652,54787,31.6,42.3,328.0,-73.417,40.734,FARMINGDALE,NY
653,54788,28.9,39.3,330.5,-72.828,41.510,MERIDEN,CT
654,54789,25.1,35.7,324.3,-75.379,41.139,MOUNT POCONO,PA
655,54790,32.2,42.4,336.0,-72.869,40.822,SHIRLEY,NY
656,54791,26.6,38.2,310.1,-70.922,43.278,ROCHESTER,NH
657,54792,26.5,36.7,331.7,-78.412,41.047,CLEARFIELD,PA
658,54793,26.7,38.9,300.9,-74.623,41.200,SUSSEX,NJ
659,54813,28.2,36.7,361.3,-86.651,46.429,MUNISING,MI
660,63870,45.7,56.2,341.6,-86.312,31.043,FLORALA,AL
661,63872,43.1,56.3,300.9,-85.129,31.951,EUFAULA,AL
662,64775,28.0,37.1,350.8,-75.412,43.234,ROME,NY
663,64776,25.6,34.7,349.6,-73.468,44.651,PLATTSBURG,NY
664,73805,47.4,57.5,349.0,-85.788,30.349,PANAMA CITY,FL
665,92805,59.4,69.5,357.0,-80.108,26.250,POMPANO BEACH,FL
666,92806,58.0,67.6,363.7,-82.628,27.765,ST PETERSBURG,FL
667,92809,57.9,70.4,321.8,-80.241,25.999,HOLLYWOOD,FL
668,93005,17.6,38.0,189.9,-107.760,37.143,DURANGO,CO
669,93009,9.1,29.5,180.7,-106.316,39.228,LEADVILLE,CO
670,93010,19.2,37.9,210.3,-103.716,39.189,LIMON,CO
671,93013,20.3,42.2,177.6,-107.898,38.505,MONTROSE,CO
672,93026,25.8,56.5,111.6,-109.604,31.469,DOUGLAS BISBEE,AZ
673,93027,19.1,44.6,143.7,-109.379,34.518,ST JOHNS,AZ
674,93033,28.9,54.9,149.9,-104.263,32.338,CARLSBAD,NM
675,93037,14.1,43.5,108.6,-104.711,38.812,COLORADO SPRINGS,CO
676,93042,22.1,48.5,139.4,-102.547,36.023,DALHART,TX
677,93045,20.2,53.4,89.4,-107.268,33.237,TRUTH OR CONSEQUENCES,NM
678,93058,14.5,43.2,114.1,-104.498,38.290,PUEBLO,CO
679,93067,19.4,43.8,153.6,-104.849,39.570,DENVER,CO
680,93069,17.6,39.8,172.0,-108.628,37.303,CORTEZ,CO
681,93073,16.1,35.1,203.5,-106.868,39.223,ASPEN,CO
682,93075,19.2,41.6,171.4,-109.754,38.755,MOAB,UT
683,93084,23.1,58.0,82.7,-109.635,32.855,SAFFORD,AZ
684,93102,24.6,44.2,205.3,-118.700,39.417,FALLON,NV
685,93104,24.5,54.9,112.3,-117.683,35.683,CHINA LAKE,CA
686,93107,45.8,61.5,270.7,-117.150,32.867,MIRAMAR,CA
687,93110,48.5,58.1,357.0,-119.206,34.201,OXNARD,CA
688,93112,51.4,63.7,319.4,-117.200,32.700,SAN DIEGO,CA
689,93129,23.5,42.1,215.2,-113.097,37.702,CEDAR CITY,UT
690,93134,46.9,63.3,263.3,-118.296,34.028,LOS ANGELES,CA
691,93138,33.4,67.5,97.5,-116.505,33.828,PALM SPRINGS,CA
692,93141,16.7,40.7,154.2,-110.750,39.545,PRICE,UT
693,93167,22.9,54.0,105.5,-113.937,35.259,KINGMAN,AZ
694,93184,49.8,64.2,290.4,-117.866,33.680,SANTA ANA,CA
695,93193,46.1,58.3,316.9,-119.719,36.780,FRESNO,CA
696,93197,46.2,61.7,273.1,-118.451,34.016,SANTA MONICA,CA
697,93205,47.0,55.1,380.4,-121.570,39.098,MARYSVILLE,CA
698,93206,44.1,59.5,273.1,-120.641,35.237,SAN LUIS OBISPO,CA
699,93209,42.0,54.4,310.7,-120.627,35.673,PASO ROBLES,CA
700,93210,47.6,54.9,393.9,-121.618,39.490,OROVILLE,CA
701,93225,47.8,55.3,390.9,-121.590,38.696,SACRAMENTO,CA
702,93227,47.1,54.2,397.6,-122.280,38.213,NAPA,CA
703,93228,47.9,57.5,357.0,-122.121,37.659,HAYWARD,CA
704,93230,26.2,38.8,294.7,-119.995,38.894,SOUTH LAKE TAHOE,CA
705,93241,46.4,54.5,379.8,-121.961,38.377,VACAVILLE,CA
706,93242,45.4,55.1,353.3,-120.111,36.988,MADERA,CA
707,93706,29.5,41.3,309.5,-77.730,39.708,HAGERSTOWN,MD
708,93718,41.7,51.0,357.6,-78.721,33.816,NORTH MYRTLE BEACH,SC
709,93719,40.3,45.9,421.1,-77.047,35.068,NEW BERN,NC
710,93720,34.3,46.4,308.9,-75.510,38.341,SALISBURY,MD
711,93721,30.6,42.9,302.7,-76.684,39.172,BALTIMORE,MD
712,93727,39.0,50.4,323.1,-77.433,34.700,NEW RIVER,NC
713,93729,44.5,52.3,384.1,-75.623,35.232,CAPE HATTERAS,NC
714,93730,32.2,42.2,339.1,-74.457,39.458,ATLANTIC CITY,NJ
715,93736,29.0,44.0,264.5,-78.453,38.139,CHARLOTTESVILLE,VA
716,93738,29.9,42.5,297.8,-77.448,38.935,WASHINGTON,DC
717,93739,34.6,47.4,299.0,-75.496,37.941,WALLOPS ISLAND,VA
718,93740,36.5,49.2,302.1,-78.880,34.991,FAYETTEVILLE,NC
719,93741,35.0,47.8,299.6,-76.493,37.132,NEWPORT NEWS,VA
720,93743,40.9,49.4,369.9,-77.030,34.691,SWANSBORO,NC
721,93759,35.0,46.6,316.9,-77.893,35.855,ROCKY MOUNT,NC
722,93762,28.0,43.1,262.0,-77.43333,39.73333,SITE R,PA
723,93765,43.1,50.4,391.5,-76.661,34.734,BEAUFORT,NC
724,93773,34.3,45.4,323.7,-77.007,36.984,WAKEFIELD,VA
725,93775,33.2,44.6,318.1,-77.434,37.708,RICHMOND/ASHLAND,VA
726,93778,27.9,39.6,309.5,-76.874,39.918,YORK,PA
727,93780,30.3,41.5,319.4,-74.841,39.941,MOUNT HOLLY,NJ
728,93782,36.1,47.9,315.0,-79.366,34.792,MAXTON,NC
729,93783,33.0,45.8,297.8,-79.477,36.047,BURLINGTON,NC
730,93784,30.7,48.8,228.1,-76.610,39.281,BALTIMORE,MD
731,93785,32.9,42.9,339.7,-79.064,35.933,CHAPEL HILL,NC
732,93786,37.1,44.5,386.6,-75.124,38.308,OCEAN CITY,MD
733,93801,37.2,49.0,315.7,-85.161,34.348,ROME,GA
734,93805,44.8,58.1,300.9,-84.353,30.393,TALLAHASSEE,FL
735,93806,41.4,52.2,333.5,-87.616,33.212,TUSCALOOSA,AL
736,93807,31.2,46.4,263.9,-80.222,36.134,WINSTON SALEM,NC
737,93808,33.0,46.2,292.2,-86.436,36.981,BOWLING GREEN,KY
738,93810,33.4,44.2,328.0,-89.250,37.780,CARBONDALE/MURPHYBORO,IL
739,93812,30.7,41.3,328.6,-84.419,39.103,CINCINNATI,OH
740,93814,29.9,42.1,304.0,-84.672,39.043,COVINGTON,KY
741,93815,30.1,40.9,324.9,-84.219,39.906,DAYTON,OH
742,93817,32.7,44.2,316.3,-87.537,38.043,EVANSVILLE,IN
743,93819,31.2,41.4,335.4,-86.272,39.710,INDIANAPOLIS,IN
744,93820,31.6,42.8,320.0,-84.606,38.041,LEXINGTON,KY
745,93821,32.2,46.0,283.0,-85.730,38.177,LOUISVILLE,KY
746,93822,32.8,44.3,316.3,-89.684,39.845,SPRINGFIELD,IL
747,93824,28.4,39.7,316.3,-81.892,39.944,ZANESVILLE,OH
748,93831,43.5,54.4,333.5,-80.717,32.483,BEAUFORT,SC
749,93837,48.9,61.4,315.0,-81.683,30.233,JACKSONVILLE,FL
750,93841,47.4,57.4,350.2,-87.022,30.724,MILTON,FL
751,93842,40.7,55.7,275.0,-84.942,32.516,COLUMBUS,GA
752,93845,45.8,59.3,299.0,-83.277,30.783,VALDOSTA,GA
753,93846,37.1,50.6,291.6,-82.709,34.495,ANDERSON,SC
754,93862,37.8,49.9,312.0,-88.771,34.261,TUPELO,MS
755,93874,47.6,56.6,366.2,-89.070,30.407,GULFPORT,MS
756,93909,32.6,46.2,286.1,-94.890,38.831,OLATHE,KS
757,93915,43.6,56.4,306.4,-92.559,31.335,ALEXANDRIA,LA
758,93919,44.9,55.4,340.9,-90.472,31.178,MCCOMB,MS
759,93950,37.5,54.2,250.9,-95.783,34.899,MC ALESTER,OK
760,93953,37.2,51.8,276.8,-95.361,35.657,MUSKOGEE,OK
761,93967,35.7,50.7,270.7,-95.566,37.091,COFFEYVILLE,KS
762,93985,39.9,58.1,236.2,-98.061,32.782,MINERAL WELLS,TX
763,93986,36.5,54.6,233.7,-99.051,35.008,HOBART,OK
764,93987,46.3,59.6,302.1,-94.750,31.234,LUFKIN,TX
765,93988,41.1,51.2,344.0,-91.935,34.175,PINE BLUFF,AR
766,93989,32.0,42.6,329.8,-91.194,39.943,QUINCY,IL
767,93990,26.3,44.1,227.5,-99.830,39.376,HILL CITY,KS
768,93992,42.0,52.7,336.0,-92.813,33.221,EL DORADO,AR
769,93993,34.9,48.0,295.3,-94.170,36.005,FAYETTEVILLE,AR
770,93997,29.3,46.2,241.1,-98.828,38.872,RUSSELL,KS
771,94008,22.2,27.2,424.2,-106.621,48.214,GLASGOW,MT
772,94012,23.9,25.9,490.7,-109.780,48.559,HAVRE,MT
773,94014,21.5,25.5,444.5,-103.642,48.195,WILLISTON,ND
774,94017,21.6,26.6,423.5,-105.574,48.094,WOLF POINT,MT
775,94023,25.2,37.5,298.4,-105.542,44.339,GILLETTE,WY
776,94030,24.4,38.6,270.7,-109.509,40.441,VERNAL,UT
777,94032,20.5,35.5,256.5,-103.628,43.731,CUSTER,SD
778,94037,24.3,35.2,318.7,-103.546,45.604,BUFFALO,SD
779,94038,22.4,31.8,341.6,-102.655,46.014,HETTINGER,ND
780,94039,24.8,36.8,302.7,-102.518,43.021,PINE RIDGE,SD
781,94040,24.5,41.6,233.7,-100.591,40.206,MC COOK,NE
782,94041,22.9,28.2,418.0,-101.439,47.663,GARRISON,ND
783,94050,20.7,37.9,228.8,-107.885,40.049,MEEKER,CO
784,94051,25.7,33.0,381.0,-106.948,47.326,JORDAN,MT
785,94052,24.8,31.8,385.9,-100.408,45.546,MOBRIDGE,SD
786,94053,24.1,40.9,236.8,-104.153,42.065,TORRINGTON,WY
787,94054,22.1,37.7,250.3,-106.721,44.381,BUFFALO,WY
788,94055,23.3,33.5,329.2,-104.250,46.358,BAKER,MT
789,94057,23.2,39.6,241.1,-105.386,42.797,DOUGLAS,WY
790,94107,28.3,37.2,354.5,-117.864,42.591,ROME,OR
791,94119,34.6,37.2,479.6,-117.421,47.969,DEER PARK,WA
792,94128,29.4,40.0,328.0,-111.853,41.787,LOGAN,UT
793,94129,35.3,40.8,420.5,-117.109,46.744,PULLMAN/MOSCOW,WA
794,94173,20.4,25.8,414.9,-110.421,44.544,YELLOWSTONE,WY
795,94176,34.7,41.0,405.0,-117.321,47.683,SPOKANE,WA
796,94178,29.7,43.8,276.8,-114.487,42.482,TWIN FALLS,ID
797,94182,28.1,32.7,435.2,-116.102,44.889,MCCALL,ID
798,94185,29.3,36.4,387.2,-118.954,43.592,BURNS,OR
799,94194,28.6,35.8,384.7,-111.881,43.834,REXBURG,ID
800,94197,33.6,38.5,431.5,-119.517,48.464,OMAK,WA
801,94225,44.3,47.4,471.6,-123.937,46.971,HOQUIAM,WA
802,94227,42.3,44.0,501.2,-123.148,47.238,SHELTON,WA
803,94236,32.5,39.3,394.6,-121.724,42.147,KLAMATH FALLS,OR
804,94239,33.4,41.1,378.5,-120.207,47.399,WENATCHEE,WA
805,94248,42.1,47.9,418.0,-122.214,47.493,RENTON,WA
806,94261,42.7,46.0,467.3,-122.949,45.541,PORTLAND,OR
807,94266,40.4,44.3,454.4,-123.498,48.120,PORT ANGELES,WA
808,94273,43.2,47.6,445.1,-123.134,45.195,MC MINNVILLE,OR
809,94274,41.7,46.7,432.8,-122.576,47.268,TACOMA,WA
810,94276,40.9,45.7,436.5,-123.023,48.522,FRIDAY HARBOR,WA
811,94281,44.5,47.7,469.8,-122.769,45.249,AURORA,OR
812,94298,42.5,48.0,423.5,-122.657,45.621,VANCOUVER,WA
813,94299,30.6,39.5,356.3,-120.567,41.483,ALTURAS,CA
814,94623,25.9,36.4,326.8,-69.712,43.964,WISCASSET,ME
815,94624,35.6,44.1,366.2,-69.993,41.688,CHATHAM,MA
816,94626,23.3,30.8,376.1,-69.595,45.462,GREENVILLE,ME
817,94700,21.7,30.6,349.6,-71.179,44.576,BERLIN,NH
818,94702,31.0,42.7,312.0,-73.146,41.175,BRIDGEPORT,CT
819,94704,29.0,39.2,333.5,-77.713,42.571,DANSVILLE,NY
820,94705,24.6,32.3,373.0,-72.579,44.203,BARRE/MONTPELIER,VT
821,94720,35.1,42.3,389.0,-70.280,41.669,HYANNIS,MA
822,94723,28.3,40.7,299.6,-71.124,42.717,LAWRENCE,MA
823,94724,35.0,42.5,383.5,-70.615,41.393,VINEYARD HAVEN,MA
824,94725,24.7,32.7,368.1,-74.846,44.936,MASSENA,NY
825,94726,32.5,41.3,359.4,-70.958,41.676,NEW BEDFORD,MA
826,94728,35.0,42.6,381.6,-73.967,40.783,NEW YORK,NY
827,94732,29.7,42.0,302.1,-75.011,40.082,PHILADELPHIA,PA
828,94740,22.1,29.1,384.7,-74.207,44.385,SARANAC LAKE,NY
829,94741,29.6,42.8,289.2,-74.061,40.850,TETERBORO,NJ
830,94745,29.0,41.0,305.8,-73.708,41.067,WHITE PLAINS,NY
831,94746,27.2,39.2,304.6,-71.876,42.267,WORCESTER,MA
832,94765,24.3,36.0,306.4,-72.305,43.626,LEBANON,NH
833,94789,31.0,43.6,299.0,-73.796,40.655,NEW YORK,NY
834,94790,27.7,36.2,361.3,-76.022,43.992,WATERTOWN,NY
835,94814,29.1,36.1,389.0,-84.691,44.368,HOUGHTON LAKE,MI
836,94815,29.8,39.3,345.9,-85.552,42.235,KALAMAZOO,MI
837,94817,29.1,38.3,350.2,-83.418,42.665,PONTIAC,MI
838,94818,30.2,38.8,361.3,-87.814,42.761,RACINE,WI
839,94822,30.2,39.2,354.5,-89.093,42.196,ROCKFORD,IL
840,94823,27.3,39.6,300.3,-80.231,40.501,PITTSBURGH,PA
841,94830,28.4,39.0,326.8,-83.801,41.589,TOLEDO,OH
842,94846,30.8,40.5,343.4,-87.914,41.986,CHICAGO,IL
843,94847,29.4,40.4,321.2,-83.349,42.215,DETROIT,MI
844,94849,28.7,35.9,384.7,-83.581,45.072,ALPENA,MI
845,94855,28.4,36.4,370.5,-88.557,43.984,OSHKOSH,WI
846,94860,29.6,40.5,323.1,-85.523,42.882,GRAND RAPIDS,MI
847,94870,32.1,41.2,353.9,-88.278,40.040,CHAMPAIGN/URBANA,IL
848,94871,31.6,40.5,357.0,-86.422,42.129,BENTON HARBOR,MI
849,94889,28.5,37.2,358.2,-83.744,42.223,ANN ARBOR,MI
850,94892,30.2,38.0,374.8,-88.246,41.914,CHICAGO/WEST CHICAGO,IL
851,94893,26.3,33.1,390.9,-88.114,45.818,IRON MOUNTAIN/KINGSFORD,MI
852,94895,29.0,40.6,312.0,-85.394,40.234,MUNCIE,IN
853,94908,29.7,38.0,366.2,-90.704,42.398,DUBUQUE,IA
854,94910,29.2,38.2,353.9,-92.401,42.554,WATERLOO,IA
855,94929,25.7,33.2,377.3,-90.919,46.549,ASHLAND,WI
856,94931,21.6,27.9,397.6,-92.839,47.387,HIBBING,MN
857,94938,23.2,33.1,334.2,-94.131,46.405,BRAINERD,MN
858,94943,25.2,37.3,301.5,-99.318,43.767,CHAMBERLAIN,SD
859,94946,24.7,37.1,296.6,-99.639,41.437,BROKEN BOW,NE
860,94949,27.7,41.5,279.3,-98.427,40.604,HASTINGS,NE
861,94950,25.6,28.0,482.1,-98.038,43.777,MITCHELL,SD
862,94957,31.7,44.7,294.1,-95.592,40.079,FALLS CITY,NE
863,94958,25.1,36.8,307.0,-98.952,41.624,ORD,NE
864,94960,26.2,35.7,342.8,-93.351,45.063,MINNEAPOLIS,MN
865,94961,21.1,26.0,425.4,-94.610,48.728,BAUDETTE,MN
866,94963,27.2,37.6,329.2,-93.470,44.832,MINNEAPOLIS,MN
867,94967,22.2,29.1,386.6,-95.068,46.901,PARK RAPIDS,MN
868,94971,27.4,37.3,337.2,-94.746,43.408,ESTHERVILLE,IA
869,94973,24.7,31.9,382.2,-91.444,46.026,HAYWARD,WI
870,94978,28.7,41.0,301.5,-96.178,41.764,TEKAMAH,NE
871,94982,30.4,39.4,354.5,-90.591,41.614,DAVENPORT,IA
872,94985,26.7,34.7,369.3,-90.189,44.637,MARSHFIELD,WI
873,94988,30.2,39.1,355.7,-92.918,42.113,MARSHALLTOWN,IA
874,94989,29.9,40.2,332.9,-93.622,41.992,AMES,IA
875,94990,26.9,38.9,304.0,-99.842,43.390,WINNER,SD
876,94991,31.0,42.8,310.7,-93.902,40.633,LAMONI,IA
877,94992,26.0,33.6,376.1,-90.344,47.747,GRAND MARAIS,MN
878,94993,25.4,32.5,384.7,-96.991,45.669,SISSETON,SD
879,94994,29.4,38.0,360.7,-90.678,43.156,BOSCOBEL,WI
