,wban,dewpt,tavg,wp,long,lat,stname,ststate
0,03013,40.1,66.8,155.4,-102.688,38.070,LAMAR,CO
1,03017,33.9,66.3,107.9,-104.658,39.833,DENVER,CO
2,03024,49.0,73.5,182.5,-101.394,35.700,BORGER,TX
3,03026,39.5,65.0,164.6,-102.284,39.245,BURLINGTON,CO
4,03028,40.4,66.5,160.3,-102.614,37.283,SPRINGFIELD,CO
5,03029,35.0,60.3,161.6,-109.061,35.658,WINDOW ROCK,AZ
6,03030,46.8,70.3,189.3,-101.505,36.682,GUYMON,OK
7,03031,53.0,75.2,207.2,-102.387,31.921,ODESSA,TX
8,03032,54.9,80.1,181.9,-102.213,30.048,DRYDEN,TX
9,03102,51.3,81.4,140.6,-117.600,34.056,ONTARIO,CA
10,03103,38.9,58.9,215.2,-111.672,35.140,FLAGSTAFF,AZ
11,03104,55.2,87.9,127.0,-116.160,33.628,PALM SPRINGS,CA
12,03124,48.7,73.9,176.4,-110.344,31.588,FORT HUACHUCA/SIERRA VISTA,AZ
13,03131,60.8,76.1,287.9,-117.139,32.816,SAN DIEGO,CA
14,03144,55.6,89.6,119.0,-115.579,32.834,IMPERIAL,CA
15,03145,57.8,90.0,132.6,-114.617,32.650,YUMA,AZ
16,03154,58.1,72.3,299.6,-117.350,33.300,CAMP PENDLETON,CA
17,03159,38.8,78.2,73.4,-118.219,34.741,LANCASTER,CA
18,03160,32.9,78.9,39.5,-116.028,36.621,MERCURY,NV
19,03162,39.1,75.8,87.6,-111.448,36.926,PAGE,AZ
20,03164,45.5,73.2,152.9,-116.467,32.617,CAMPO,CA
21,03166,59.1,80.5,220.7,-117.979,33.872,FULLERTON,CA
22,03167,59.7,74.0,299.6,-118.334,33.923,HAWTHORNE,CA
23,03170,32.0,62.7,117.8,-116.006,39.601,EUREKA,NV
24,03171,52.4,81.3,150.5,-117.439,33.952,RIVERSIDE,CA
25,03177,62.8,73.3,353.3,-117.279,33.128,CARLSBAD,CA
26,03178,62.0,73.7,336.0,-116.979,32.572,SAN DIEGO,CA
27,03179,54.6,78.5,193.0,-117.636,33.975,CHINO,CA
28,03184,52.3,85.3,122.1,-112.082,33.688,PHOENIX,AZ
29,03192,52.4,86.3,116.6,-111.911,33.623,SCOTTSDALE,AZ
30,03195,36.6,58.8,191.2,-112.155,35.946,GRAND CANYON,AZ
31,03196,52.7,74.4,211.5,-110.846,31.421,NOGALES,AZ
32,03749,53.2,64.9,329.2,-77.468,39.645,CAMP DAVID,MD
33,03802,55.0,64.4,364.4,-80.229,39.296,CLARKSBURG,WV
34,03804,55.3,65.2,357.0,-81.439,39.345,PARKERSBURG,WV
35,03810,59.9,69.8,360.0,-81.390,35.741,HICKORY,NC
36,03812,57.9,67.2,368.1,-82.538,35.432,ASHEVILLE,NC
37,03813,63.8,75.2,340.9,-83.654,32.688,MACON,GA
38,03816,59.0,69.1,356.3,-88.774,37.056,PADUCAH,KY
39,03818,66.5,77.3,351.4,-85.184,30.836,MARIANNA,FL
40,03820,64.7,73.8,375.5,-81.965,33.370,AUGUSTA,GA
41,03822,67.1,77.0,365.0,-81.202,32.119,SAVANNAH,GA
42,03847,57.0,67.0,357.0,-85.085,35.951,CROSSVILLE,TN
43,03849,58.0,66.1,386.6,-84.077,37.087,LONDON,KY
44,03853,68.3,80.1,338.5,-81.417,30.400,MAYPORT,FL
45,03855,70.0,76.7,415.5,-87.317,30.350,PENSACOLA,FL
46,03856,60.4,71.5,342.8,-86.786,34.644,HUNTSVILLE,AL
47,03859,54.2,65.6,334.2,-81.208,37.296,BLUEFIELD,WV
48,03860,56.6,66.7,355.1,-82.555,38.382,HUNTINGTON,WV
49,03866,64.5,73.8,371.8,-88.567,32.550,MERIDIAN,MS
50,03868,54.2,65.4,337.2,-87.309,39.452,TERRE HAUTE,IN
51,03870,61.4,72.0,350.8,-82.219,34.899,GREER,SC
52,03872,53.9,63.5,360.7,-81.125,37.795,BECKLEY,WV
53,03878,64.4,74.1,366.2,-86.012,31.861,TROY,AL
54,03887,54.1,65.6,332.9,-88.866,39.984,DECATUR,IL
55,03888,61.7,72.5,348.3,-84.521,33.779,ATLANTA,GA
56,03889,56.8,66.5,361.3,-83.314,37.591,JACKSON,KY
57,03893,55.9,64.4,379.2,-86.617,39.144,BLOOMINGTON,IN
58,03894,59.6,69.1,366.2,-87.415,36.622,CLARKSVILLE,TN
59,03901,65.2,77.7,327.4,-94.711,32.385,LONGVIEW,TX
60,03902,61.9,80.2,254.6,-97.822,31.070,FORT HOOD/KILLEEN,TX
61,03904,65.1,80.9,285.5,-96.364,30.588,COLLEGE STATION,TX
62,03919,51.2,68.9,252.2,-97.661,38.813,SALINA,KS
63,03927,58.8,80.0,222.0,-97.041,32.896,DALLAS-FORT WORTH,TX
64,03928,53.9,71.8,252.2,-97.429,37.647,WICHITA,KS
65,03931,66.2,77.8,340.3,-93.192,31.045,FORT POLK,LA
66,03932,54.1,75.1,219.5,-99.200,35.340,CLINTON,OK
67,03935,59.5,68.2,377.9,-89.571,37.225,CAPE GIRARDEAU,MO
68,03936,53.4,66.2,314.4,-96.678,39.135,MANHATTAN,KS
69,03937,69.8,79.6,368.1,-93.228,30.125,LAKE CHARLES,LA
70,03940,65.5,75.8,358.2,-90.078,32.320,JACKSON,MS
71,03945,55.9,67.9,327.4,-92.218,38.817,COLUMBIA,MO
72,03947,52.4,67.5,283.6,-94.718,39.299,KANSAS CITY,MO
73,03949,66.3,77.2,349.6,-93.283,31.400,FORT POLK,LA
74,03950,56.4,76.4,231.8,-98.416,34.568,LAWTON,OK
75,03953,61.2,73.4,328.6,-90.646,35.831,JONESBORO,AR
76,03954,56.4,75.1,245.4,-97.647,35.534,OKLAHOMA CITY,OK
77,03957,51.2,72.3,215.8,-98.553,37.284,MEDICINE LODGE,KS
78,03960,56.4,67.1,345.9,-90.157,38.571,CAHOKIA/ST.LOUIS,IL
79,03962,62.4,75.0,323.7,-93.096,34.478,HOT SPRINGS,AR
80,03963,54.6,68.1,305.8,-92.156,38.591,JEFFERSON CITY,MO
81,03965,54.2,75.5,217.0,-97.086,36.160,STILLWATER,OK
82,03966,56.5,66.7,353.3,-90.656,38.657,ST LOUIS,MO
83,03967,53.3,68.2,286.7,-94.739,38.850,OLATHE,KS
84,03971,59.1,80.7,218.3,-96.868,32.681,DALLAS,TX
85,03974,53.9,70.8,263.3,-97.219,37.750,WICHITA,KS
86,03981,55.3,77.2,212.1,-98.984,34.352,FREDERICK,OK
87,03991,58.6,77.4,246.6,-97.199,33.206,DENTON,TX
88,03994,55.6,69.1,306.4,-93.183,38.704,SEDALIA,MO
89,03996,65.9,74.9,377.3,-91.030,32.348,TALLULAH/VICKSBURG,MS
90,03997,53.4,66.7,307.7,-95.212,39.008,LAWRENCE,KS
91,03998,57.6,71.5,303.3,-95.504,37.328,PARSONS,KS
92,03999,59.3,78.5,242.9,-98.235,30.741,BURNET,TX
93,04109,45.3,61.7,261.4,-115.596,46.144,ELK CITY,ID
94,04110,35.0,64.4,129.5,-114.456,42.727,JEROME,ID
95,04111,27.2,59.5,102.4,-111.031,41.273,EVANSTON,WY
96,04112,24.0,50.4,141.2,-114.927,44.171,STANLEY,ID
97,04113,41.9,63.7,200.4,-119.261,45.826,HERMISTON,OR
98,04114,27.4,59.2,105.5,-114.215,41.523,CHALLIS,ID
99,04134,34.6,68.3,100.5,-113.351,40.161,DUGWAY PROVING GROUND,UT
100,04201,47.7,63.1,276.2,-122.861,45.773,SCAPPOOSE,OR
101,04724,51.0,61.7,342.2,-78.945,43.107,NIAGARA FALLS,NY
102,04725,50.6,59.3,373.0,-75.981,42.208,BINGHAMTON,NY
103,04726,51.3,59.6,379.8,-78.834,40.301,JOHNSTOWN,PA
104,04751,49.4,58.1,371.8,-78.640,41.803,BRADFORD,PA
105,04780,53.0,63.2,350.8,-71.756,42.552,FITCHBURG,MA
106,04781,57.7,66.3,378.5,-73.102,40.794,ISLIP,NY
107,04787,51.7,60.0,379.8,-78.899,41.178,DU BOIS,PA
108,04789,55.0,63.2,383.5,-74.265,41.509,MONTGOMERY,NY
109,04803,42.8,53.8,331.7,-89.465,45.631,RHINELANDER,WI
110,04804,53.1,64.1,339.1,-83.078,40.078,COLUMBUS,OH
111,04808,49.6,61.0,331.1,-88.481,41.770,CHICAGO/AURORA,IL
112,04826,45.0,58.1,303.3,-89.837,44.359,WISCONSIN RAPIDS,WI
113,04836,47.5,55.4,384.1,-68.307,47.286,FRENCHVILLE,ME
114,04838,50.4,63.1,313.2,-87.905,42.121,CHICAGO/PROSPECT HGTS/WHEELI,IL
115,04839,51.2,63.2,323.7,-86.097,42.746,HOLLAND,MI
116,04840,45.8,58.7,307.0,-88.486,43.770,FOND DU LAC,WI
117,04841,48.0,60.0,321.2,-87.851,43.769,SHEBOYGAN,WI
118,04842,52.4,60.3,387.2,-81.887,40.875,WOOSTER,OH
119,04843,52.5,61.6,367.4,-80.215,41.626,MEADVILLE,PA
120,04845,49.4,61.1,326.8,-87.938,42.595,KENOSHA,WI
121,04846,51.9,63.0,337.2,-87.006,41.453,VALPARAISO,IN
122,04847,50.6,58.6,384.1,-84.079,41.868,ADRIAN,MI
123,04848,52.6,63.0,347.7,-83.476,41.563,TOLEDO,OH
124,04849,52.7,61.8,368.1,-82.179,41.179,LORAIN/ELYRIA,OH
125,04850,51.9,63.3,332.9,-84.027,40.708,LIMA,OH
126,04851,52.4,63.2,341.6,-84.429,41.338,DEFIANCE,OH
127,04852,53.7,62.7,369.9,-81.420,40.470,NEW PHILADELPHIA,OH
128,04853,53.7,64.2,347.1,-81.684,41.518,CLEVELAND,OH
129,04854,46.3,55.9,355.7,-84.701,45.013,GAYLORD,MI
130,04855,52.9,61.5,376.1,-83.064,40.616,MARION,OH
131,04857,53.2,60.4,398.9,-80.696,41.778,ASHTABULA,OH
132,04858,54.3,62.9,376.7,-82.463,40.023,NEWARK,OH
134,12812,72.0,81.8,369.3,-81.991,26.917,PUNTA GORDA,FL
135,12815,71.8,80.9,379.2,-81.325,28.434,ORLANDO,FL
136,12816,69.6,79.4,367.4,-82.272,29.690,GAINESVILLE,FL
137,12818,70.8,79.8,380.4,-82.454,28.474,BROOKSVILLE,FL
138,12819,71.1,81.2,364.4,-81.810,28.821,LEESBURG,FL
139,12832,69.9,78.5,385.9,-85.033,29.733,APALACHICOLA,FL
140,12834,71.4,79.8,389.6,-81.060,29.177,DAYTONA BEACH,FL
141,12835,72.1,82.3,363.7,-81.864,26.586,FORT MYERS,FL
142,12836,74.5,82.2,402.0,-81.754,24.553,KEY WEST,FL
143,12838,72.3,80.4,394.6,-80.646,28.103,MELBOURNE,FL
144,12839,73.3,82.7,376.1,-80.300,25.824,MIAMI,FL
145,12841,70.2,81.3,349.6,-81.333,28.545,ORLANDO,FL
146,12842,70.6,81.8,348.3,-82.540,27.961,TAMPA,FL
147,12843,71.8,79.9,394.6,-80.418,27.656,VERO BEACH,FL
148,12844,72.6,81.9,376.7,-80.099,26.685,WEST PALM BEACH,FL
149,12849,73.7,82.3,387.8,-80.154,26.072,FORT LAUDERDALE,FL
150,12850,74.0,83.8,370.5,-81.683,24.583,KEY WEST,FL
151,12854,69.9,81.0,349.6,-81.244,28.780,ORLANDO,FL
152,12871,71.8,81.8,366.2,-82.559,27.401,SARASOTA/BRADENTON,FL
153,12873,71.8,81.6,369.3,-82.688,27.911,ST PETERSBURG/CLEARWATER,FL
154,12876,70.7,81.3,357.0,-81.754,28.062,WINTER HAVEN,FL
155,12882,73.7,81.9,393.9,-80.280,25.907,MIAMI,FL
156,12885,73.8,82.2,390.9,-80.171,26.197,FORT LAUDERDALE,FL
157,12894,71.4,81.3,367.4,-81.755,26.536,FORT MYERS,FL
158,12895,72.0,79.9,397.6,-80.377,27.498,FORT PIERCE,FL
159,12896,75.5,84.2,387.2,-81.052,24.726,MARATHON,FL
160,12897,73.2,82.3,380.4,-81.775,26.153,NAPLES,FL
161,12904,69.5,83.2,315.0,-97.654,26.228,HARLINGEN,TX
162,12912,68.8,80.7,337.9,-96.930,28.863,VICTORIA,TX
163,12916,70.0,80.6,356.3,-90.251,29.993,NEW ORLEANS,LA
164,12917,69.8,78.4,385.9,-94.021,29.951,BEAUMONT/PORT ARTHUR,TX
165,12918,69.0,79.4,358.8,-95.279,29.645,HOUSTON,TX
166,12919,71.7,83.2,345.3,-97.426,25.906,BROWNSVILLE,TX
167,12921,65.1,79.6,301.5,-98.464,29.533,SAN ANTONIO,TX
168,12923,72.9,82.1,378.5,-94.860,29.265,GALVESTON,TX
169,12924,69.7,83.9,308.9,-97.513,27.773,CORPUS CHRISTI,TX
170,12926,72.0,82.8,355.1,-97.283,27.700,CORPUS CHRISTI,TX
171,12928,70.5,82.7,334.8,-97.817,27.500,KINGSVILLE,TX
172,12932,68.3,83.4,296.6,-98.027,27.741,ALICE,TX
173,12935,70.9,81.8,352.7,-96.251,28.728,PALACIOS,TX
174,12947,64.7,82.2,265.7,-99.220,28.458,COTULLA,TX
175,12957,72.2,82.8,358.2,-97.346,26.166,PORT ISABEL,TX
176,12959,68.8,85.6,277.4,-98.238,26.175,MC ALLEN,TX
177,12960,69.0,79.7,354.5,-95.364,29.993,HOUSTON,TX
178,12970,63.9,79.8,283.6,-98.471,29.337,SAN ANTONIO,TX
179,12971,64.0,78.6,299.0,-98.045,29.709,NEW BRAUNFELS,TX
180,12972,71.6,81.4,368.7,-97.046,28.084,ROCKPORT,TX
181,12975,68.7,80.1,344.6,-95.240,29.521,HOUSTON,TX
182,12976,70.0,78.4,389.0,-95.462,29.110,ANGLETON/LAKE JACKSON,TX
183,12977,69.4,79.8,358.8,-95.656,29.622,HOUSTON,TX
184,13721,59.3,70.0,347.7,-76.400,38.283,PATUXENT RIVER,MD
185,13722,61.3,71.1,362.5,-78.786,35.871,RALEIGH/DURHAM,NC
186,13723,59.9,70.1,355.7,-79.944,36.098,GREENSBORO,NC
187,13728,58.9,70.2,339.1,-79.336,36.573,DANVILLE,VA
188,13729,53.1,61.9,373.0,-79.853,38.885,ELKINS,WV
189,13733,57.0,67.1,355.1,-79.207,37.338,LYNCHBURG,VA
190,13734,55.0,66.3,336.6,-77.984,39.402,MARTINSBURG,WV
191,13735,58.2,66.8,379.2,-75.078,39.366,MILLVILLE,NJ
192,13736,54.7,65.2,347.7,-79.916,39.643,MORGANTOWN,WV
193,13737,61.3,72.4,343.4,-76.192,36.904,NORFOLK,VA
194,13739,57.3,70.3,314.4,-75.231,39.868,PHILADELPHIA,PA
195,13740,60.0,70.3,354.5,-77.323,37.511,RICHMOND,VA
196,13741,56.5,68.3,330.5,-79.974,37.317,ROANOKE,VA
197,13743,58.0,72.2,299.6,-77.034,38.865,WASHINGTON,DC
198,13744,64.5,74.8,357.0,-79.731,34.188,FLORENCE,SC
199,13748,65.5,74.4,378.5,-77.906,34.268,WILMINGTON,NC
200,13750,61.6,73.9,327.4,-76.283,36.933,NORFOLK,VA
201,13752,60.4,71.9,337.2,-76.483,38.991,ANNAPOLIS,MD
202,13754,64.4,73.6,373.6,-76.883,34.900,CHERRY POINT,NC
203,13764,59.4,69.5,357.0,-75.359,38.689,GEORGETOWN,DE
204,13769,61.7,70.5,377.9,-76.033,36.817,OCEANA,VA
205,13776,63.9,73.4,368.7,-79.059,34.610,LUMBERTON,NC
206,13781,58.4,68.3,359.4,-75.601,39.673,WILMINGTON,DE
207,13786,62.8,74.6,334.8,-76.175,36.261,ELIZABETH CITY,NC
208,13809,56.4,67.0,347.7,-87.606,38.764,LAWRENCEVILLE,IL
209,13810,57.5,69.0,335.4,-85.664,38.228,LOUISVILLE,KY
210,13833,67.2,76.9,367.4,-89.253,31.265,HATTIESBURG,MS
211,13837,63.5,75.6,331.1,-82.039,33.467,AUGUSTA,GA
212,13838,68.7,78.7,364.4,-88.068,30.626,MOBILE,AL
213,13839,65.7,76.2,355.1,-85.450,31.321,DOTHAN,AL
214,13841,54.2,64.2,355.1,-83.822,39.420,WILMINGTON,OH
215,13865,65.5,73.8,387.8,-88.751,32.333,MERIDIAN,MS
216,13866,56.0,67.1,339.7,-81.591,38.379,CHARLESTON,WV
217,13869,65.9,77.3,342.8,-84.194,31.536,ALBANY,GA
218,13870,67.0,78.1,347.7,-82.507,31.536,ALMA,GA
219,13871,62.4,72.3,361.9,-85.858,33.588,ANNISTON,AL
220,13873,63.3,72.6,371.1,-83.327,33.948,ATHENS,GA
221,13874,60.6,74.3,308.3,-84.427,33.640,ATLANTA,GA
222,13876,62.2,73.1,347.1,-86.754,33.564,BIRMINGHAM,AL
223,13877,58.3,67.2,374.2,-82.399,36.480,BRISTOL/JHNSN CTY/KNGSPRT,TN
224,13878,69.5,79.2,369.3,-81.391,31.252,BRUNSWICK,GA
225,13881,60.3,71.4,342.8,-80.944,35.214,CHARLOTTE,NC
226,13882,60.9,71.9,344.6,-85.200,35.033,CHATTANOOGA,TN
227,13883,63.6,75.5,334.2,-81.118,33.942,COLUMBIA,SC
228,13884,66.3,77.0,352.7,-86.523,30.780,CRESTVIEW,FL
229,13886,60.9,73.0,329.2,-82.346,34.846,GREENVILLE,SC
230,13889,69.9,78.3,389.0,-81.693,30.494,JACKSONVILLE,FL
231,13891,59.5,70.6,342.2,-83.986,35.818,KNOXVILLE,TN
232,13893,60.8,75.3,297.8,-89.985,35.061,MEMPHIS,TN
233,13894,67.2,77.1,365.0,-88.246,30.688,MOBILE,AL
234,13895,64.0,75.9,334.2,-86.394,32.301,MONTGOMERY,AL
235,13896,60.2,72.1,331.7,-87.610,34.745,MUSCLE SHOALS,AL
236,13897,59.0,71.0,329.2,-86.689,36.119,NASHVILLE,TN
237,13899,68.0,79.2,347.1,-87.188,30.473,PENSACOLA,FL
238,13904,64.1,77.8,310.7,-97.681,30.179,AUSTIN/BERGSTROM,TX
239,13911,57.1,79.8,206.6,-97.441,32.769,FORT WORTH,TX
240,13920,53.7,67.0,307.7,-95.664,38.950,TOPEKA,KS
241,13927,65.7,76.7,348.3,-90.223,32.335,JACKSON,MS
242,13932,55.8,72.3,269.4,-97.037,37.168,WINFIELD/ARKANSAS CITY,KS
243,13935,67.4,77.8,357.6,-92.296,31.395,ALEXANDRIA,LA
244,13939,63.7,75.8,331.7,-90.986,33.483,GREENVILLE,MS
245,13942,66.2,77.0,351.4,-92.038,32.511,MONROE,LA
246,13957,65.4,77.6,331.1,-93.824,32.447,SHREVEPORT,LA
247,13958,63.1,80.0,271.3,-97.767,30.317,AUSTIN/CITY,TX
248,13959,61.8,78.5,272.5,-97.229,31.611,WACO,TX
249,13960,59.3,80.7,220.7,-96.851,32.847,DALLAS,TX
250,13961,60.9,78.5,261.4,-97.361,32.819,FORT WORTH,TX
251,13962,56.1,77.5,217.7,-99.682,32.411,ABILENE,TX
252,13963,63.3,75.0,336.6,-92.233,34.747,LITTLE ROCK,AR
253,13964,60.9,77.3,275.0,-94.365,35.334,FORT SMITH,AR
254,13966,57.3,76.5,241.1,-98.493,33.979,WICHITA FALLS,TX
255,13967,55.7,75.7,231.2,-97.600,35.389,OKLAHOMA CITY,OK
256,13968,58.6,76.0,262.0,-95.886,36.198,TULSA,OK
257,13969,54.5,74.7,228.1,-97.100,36.731,PONCA CITY,OK
258,13970,69.1,78.3,376.1,-91.147,30.537,BATON ROUGE,LA
259,13971,57.9,70.9,315.0,-93.155,36.261,HARRISON,AR
260,13972,62.7,78.0,289.8,-95.402,32.354,TYLER,TX
261,13973,57.7,78.2,228.1,-99.766,30.511,JUNCTION,TX
262,13975,52.1,72.3,225.7,-99.775,36.297,GAGE,OK
263,13976,68.9,78.9,364.4,-91.988,30.205,LAFAYETTE,LA
264,13977,62.6,77.0,300.9,-94.008,33.454,TEXARKANA,AR
265,13978,63.8,74.3,353.9,-90.084,33.496,GREENWOOD,MS
266,13981,56.6,70.1,307.7,-95.484,37.670,CHANUTE,KS
267,13985,46.7,68.6,204.1,-99.970,37.773,DODGE CITY,KS
268,13986,52.1,69.7,254.0,-97.861,38.068,HUTCHINSON,KS
269,13987,58.1,70.3,326.1,-94.498,37.149,JOPLIN,MO
270,13988,53.9,69.9,273.8,-94.593,39.123,KANSAS CITY,MO
271,13989,54.2,68.6,294.1,-96.190,38.331,EMPORIA,KS
272,13993,51.8,64.6,313.2,-94.907,39.774,ST JOSEPH,MO
273,13994,55.3,69.4,298.4,-90.374,38.753,ST LOUIS,MO
274,13995,55.9,68.5,318.7,-93.390,37.240,SPRINGFIELD,MO
275,13996,53.6,67.9,294.7,-95.626,39.073,TOPEKA,KS
276,13997,55.5,66.2,345.3,-91.769,38.128,ROLLA/VICHY,MO
277,14605,51.3,58.9,391.5,-69.797,44.321,AUGUSTA,ME
278,14606,51.4,56.8,429.7,-68.824,44.808,BANGOR,ME
279,14607,48.5,56.8,377.9,-68.033,46.867,CARIBOU,ME
280,14609,49.1,56.0,402.0,-67.792,46.123,HOULTON,ME
281,14610,49.6,57.8,380.4,-68.686,45.648,MILLINOCKET,ME
282,14702,53.6,61.4,389.0,-71.289,42.470,BEDFORD,MA
283,14707,57.1,64.5,397.6,-72.049,41.328,GROTON NEW LONDON,CT
284,14710,51.8,62.8,338.5,-71.438,42.933,MANCHESTER,NH
285,14711,56.8,67.0,353.9,-76.763,40.194,HARRISBURG,PA
286,14712,56.9,66.8,358.2,-75.959,40.373,READING,PA
287,14719,56.8,63.7,405.7,-72.632,40.844,WESTHAMPTON BEACH,NY
288,14732,57.2,70.7,308.3,-73.881,40.779,NEW YORK,NY
289,14733,50.4,63.3,310.7,-78.736,42.941,BUFFALO,NY
290,14734,57.3,69.5,325.5,-74.169,40.716,NEWARK,NJ
291,14735,52.9,62.6,358.8,-73.803,42.748,ALBANY,NY
292,14736,54.0,62.8,373.6,-78.317,40.300,ALTOONA,PA
293,14737,56.0,65.4,365.0,-75.449,40.651,ALLENTOWN,PA
294,14739,54.4,64.7,350.8,-71.011,42.361,BOSTON,MA
295,14740,54.0,64.4,349.0,-72.683,41.938,WINDSOR LOCKS,CT
296,14742,50.5,61.9,331.7,-73.150,44.468,BURLINGTON,VT
297,14745,51.3,59.5,381.0,-71.501,43.195,CONCORD,NH
298,14747,51.5,62.5,338.5,-79.272,42.493,DUNKIRK,NY
299,14748,51.5,60.0,376.7,-76.892,42.159,ELMIRA/CORNING,NY
300,14750,51.9,58.4,410.6,-73.610,43.341,GLENS FALLS,NY
301,14751,56.5,66.5,356.3,-76.851,40.217,HARRISBURG,PA
302,14752,54.9,65.3,349.6,-72.651,41.736,HARTFORD,CT
303,14756,58.5,64.0,430.9,-70.061,41.253,NANTUCKET,MA
304,14757,55.2,64.1,372.4,-73.884,41.627,POUGHKEEPSIE,NY
305,14758,57.1,66.2,370.5,-72.887,41.264,NEW HAVEN,CT
306,14762,52.6,64.9,320.6,-79.922,40.355,PITTSBURGH,PA
307,14763,52.1,58.9,405.0,-73.289,42.427,PITTSFIELD,MA
308,14764,53.3,59.9,409.4,-70.304,43.642,PORTLAND,ME
309,14765,55.9,64.1,384.1,-71.433,41.722,PROVIDENCE,RI
310,14768,52.6,62.0,363.1,-77.677,43.117,ROCHESTER,NY
311,14771,52.9,63.6,343.4,-76.103,43.109,SYRACUSE,NY
312,14775,53.1,63.0,355.7,-72.716,42.158,WESTFIELD/SPRINGFIELD,MA
313,14777,53.0,63.3,349.6,-75.727,41.339,WILKES-BARRE/SCRANTON,PA
314,14778,54.7,63.8,369.3,-76.922,41.243,WILLIAMSPORT,PA
315,14787,56.3,63.4,402.6,-71.284,41.530,NEWPORT,RI
316,14792,57.2,67.2,357.0,-74.814,40.277,TRENTON,NJ
317,14794,56.7,63.9,400.7,-71.799,41.350,WESTERLY,RI
318,14813,52.0,62.1,352.0,-81.464,41.038,AKRON,OH
319,14815,50.3,62.1,325.5,-85.251,42.308,BATTLE CREEK,MI
320,14819,50.3,66.0,274.4,-87.752,41.786,CHICAGO,IL
321,14820,53.3,62.8,361.9,-81.853,41.405,CLEVELAND,OH
322,14821,53.7,65.8,324.3,-82.881,39.991,COLUMBUS,OH
323,14822,50.9,60.5,358.8,-83.010,42.409,DETROIT,MI
324,14825,53.2,62.5,365.0,-83.669,41.014,FINDLAY,OH
325,14826,49.3,61.4,320.6,-83.749,42.967,FLINT,MI
326,14827,53.6,62.9,365.0,-85.206,41.006,FORT WAYNE,IN
327,14829,52.1,62.7,344.6,-85.792,41.527,GOSHEN,IN
328,14833,49.8,61.3,329.8,-84.459,42.260,JACKSON,MI
329,14835,52.9,62.6,358.8,-86.937,40.412,LAFAYETTE,IN
330,14836,49.3,61.8,315.0,-84.579,42.780,LANSING,MI
331,14837,46.9,60.6,297.2,-89.345,43.141,MADISON,WI
332,14839,49.6,62.5,310.1,-87.897,42.947,MILWAUKEE,WI
333,14841,46.9,54.7,385.3,-84.796,45.571,PELLSTON,MI
334,14842,52.6,64.4,327.4,-89.684,40.668,PEORIA,IL
335,14845,49.2,61.2,322.4,-84.080,43.533,SAGINAW,MI
336,14848,51.7,63.0,334.2,-86.333,41.707,SOUTH BEND,IN
337,14850,48.4,59.6,332.9,-85.583,44.741,TRAVERSE CITY,MI
338,14852,52.5,60.8,380.4,-80.674,41.254,YOUNGSTOWN/WARREN,OH
339,14853,50.8,64.3,302.7,-83.230,42.237,DETROIT,MI
340,14858,45.6,53.0,391.5,-88.506,47.169,HANCOCK,MI
341,14860,52.3,63.5,336.0,-80.183,42.080,ERIE,PA
342,14880,50.9,60.2,363.7,-87.868,42.422,CHICAGO/WAUKEGAN,IL
343,14891,53.0,62.2,366.2,-82.518,40.820,MANSFIELD,OH
344,14894,53.4,63.8,348.3,-80.647,40.176,WHEELING,WV
345,14895,51.3,62.8,331.1,-81.443,40.918,AKRON,OH
346,14898,47.4,58.4,335.4,-88.120,44.513,GREEN BAY,WI
347,14910,39.6,59.8,214.0,-95.393,45.883,ALEXANDRIA,MN
348,14914,38.2,59.3,203.5,-96.811,46.925,FARGO,ND
349,14916,37.9,57.3,220.7,-97.176,47.949,GRAND FORKS,ND
350,14919,38.0,57.9,215.8,-98.678,46.930,JAMESTOWN,ND
351,14920,47.0,61.4,287.9,-91.256,43.754,LA CROSSE,WI
352,14921,46.5,59.3,308.9,-90.181,43.212,LONE ROCK,WI
353,14922,42.6,63.9,205.9,-93.229,44.883,MINNEAPOLIS,MN
354,14923,50.3,62.7,317.5,-90.523,41.465,MOLINE,IL
355,14925,43.2,61.8,234.3,-92.492,43.904,ROCHESTER,MN
356,14926,40.6,59.6,227.5,-94.052,45.545,ST CLOUD,MN
357,14929,37.5,63.2,160.9,-98.421,45.450,ABERDEEN,SD
358,14931,51.1,63.7,315.0,-91.125,40.783,BURLINGTON,IA
359,14933,47.0,66.5,228.8,-93.666,41.538,DES MOINES,IA
360,14935,43.7,66.6,191.8,-98.313,40.958,GRAND ISLAND,NE
361,14937,49.2,62.9,299.0,-91.543,41.633,IOWA CITY,IA
362,14938,52.0,63.5,331.1,-92.543,40.097,KIRKSVILLE,MO
363,14939,45.3,64.6,228.8,-96.764,40.831,LINCOLN,NE
364,14940,42.4,61.1,232.5,-93.331,43.158,MASON CITY,IA
365,14941,41.5,64.7,186.8,-97.437,41.981,NORFOLK,NE
366,14942,48.3,65.4,255.9,-95.899,41.310,OMAHA,NE
367,14943,43.4,63.2,222.0,-96.379,42.391,SIOUX CITY,IA
368,14944,41.7,62.7,207.8,-96.754,43.577,SIOUX FALLS,SD
369,14946,38.5,59.6,204.1,-97.154,44.931,WATERTOWN,SD
370,14950,47.7,63.0,277.4,-92.448,41.107,OTTUMWA,IA
371,14972,43.4,61.1,244.8,-95.202,43.164,SPENCER,IA
372,14990,47.4,60.2,309.5,-91.709,41.884,CEDAR RAPIDS,IA
373,14991,43.5,59.5,265.1,-91.485,44.865,EAU CLAIRE,WI
374,14992,41.2,62.3,206.6,-95.082,44.547,REDWOOD FALLS,MN
375,21504,66.4,75.4,377.9,-155.051,19.723,HILO,HI
376,21510,65.3,79.1,310.1,-156.049,19.736,KAILUA/KONA,HI
377,22010,60.1,82.3,214.0,-100.922,29.367,DEL RIO,TX
378,22516,66.4,77.6,345.9,-156.433,20.902,KAHULUI,HI
379,22519,68.2,83.2,297.8,-157.768,21.451,KANEOHE,HI
380,22521,66.6,80.0,316.3,-157.943,21.328,HONOLULU,HI
381,22536,67.8,78.7,350.8,-159.341,21.979,LIHUE,HI
382,22551,65.5,77.4,335.4,-158.067,21.317,KAPOLEI,HI
383,23007,54.8,74.5,233.7,-100.288,34.434,CHILDRESS,TX
384,23023,53.8,75.8,209.6,-102.208,31.932,MIDLAND,TX
385,23034,54.0,78.5,187.5,-100.494,31.351,SAN ANGELO,TX
386,23040,52.2,76.5,187.5,-103.201,31.780,WINK,TX
387,23042,52.3,72.7,223.8,-101.821,33.668,LUBBOCK,TX
388,23044,44.5,75.8,125.8,-106.376,31.811,EL PASO,TX
389,23047,48.1,71.3,193.0,-101.706,35.219,AMARILLO,TX
390,23048,43.3,73.0,135.7,-103.603,35.182,TUCUMCARI,NM
391,23049,38.2,64.8,154.2,-106.089,35.617,SANTA FE,NM
392,23050,38.6,71.0,112.9,-106.616,35.042,ALBUQUERQUE,NM
393,23052,38.0,62.4,172.7,-104.502,36.741,RATON,NM
394,23054,35.2,62.2,148.0,-105.143,35.654,LAS VEGAS,NM
395,23055,42.1,72.4,130.1,-104.809,31.831,GUADALUPE PASS,TX
396,23061,34.1,51.8,236.2,-105.866,37.436,ALAMOSA,CO
397,23064,45.2,68.0,194.2,-100.725,37.927,GARDEN CITY,KS
398,23065,40.0,63.7,180.7,-101.693,39.368,GOODLAND,KS
399,23066,33.6,67.9,96.2,-108.538,39.134,GRAND JUNCTION,CO
400,23067,39.7,68.4,139.4,-103.527,38.051,LA JUNTA,CO
401,23070,35.9,65.3,130.7,-104.341,37.259,TRINIDAD,CO
402,23078,44.1,72.1,149.2,-107.721,32.262,DEMING,NM
403,23081,35.2,62.1,148.6,-108.789,35.511,GALLUP,NM
404,23090,35.0,67.2,110.4,-108.229,36.744,FARMINGTON,NM
405,23091,51.5,75.8,186.8,-102.912,30.915,FORT STOCKTON,TX
406,23129,60.1,77.5,263.3,-118.163,33.828,LONG BEACH,CA
407,23130,51.3,79.7,152.9,-118.489,34.210,VAN NUYS,CA
408,23136,58.7,68.5,360.7,-119.083,34.217,CAMARILLO,CA
409,23152,53.2,79.4,172.0,-118.359,34.201,BURBANK,CA
410,23153,31.5,68.7,77.7,-117.087,38.060,TONOPAH,NV
411,23155,47.3,81.0,112.9,-119.056,35.434,BAKERSFIELD,CA
412,23157,33.1,69.6,83.3,-118.363,37.373,BISHOP,CA
413,23158,53.7,89.0,109.8,-114.717,33.619,BLYTHE,CA
414,23159,32.8,55.5,182.5,-112.146,37.706,BRYCE CANYON,UT
415,23160,52.3,82.1,143.7,-110.955,32.131,TUCSON,AZ
416,23161,40.7,84.4,55.5,-116.787,34.854,DAGGETT,CA
417,23169,40.6,83.9,57.4,-115.155,36.079,LAS VEGAS,NV
418,23174,62.2,72.3,358.8,-118.406,33.938,LOS ANGELES,CA
419,23176,34.2,65.7,114.1,-113.028,38.443,MILFORD,UT
420,23182,39.3,79.5,70.3,-118.084,34.629,PALMDALE,CA
421,23183,53.2,88.7,107.9,-111.990,33.443,PHOENIX,AZ
422,23184,44.6,69.4,175.7,-112.421,34.652,PRESCOTT,AZ
423,23187,35.8,75.1,71.0,-118.724,34.744,SANDBERG,CA
424,23188,63.3,74.8,339.7,-117.169,32.735,SAN DIEGO,CA
425,23190,59.3,66.5,402.0,-119.844,34.426,SANTA BARBARA,CA
426,23191,46.6,75.0,148.6,-118.416,33.405,AVALON,CA
427,23194,39.8,69.3,133.8,-110.722,35.022,WINSLOW,AZ
428,23199,53.1,89.6,102.4,-115.667,32.817,EL CENTRO,CA
429,23213,48.0,64.1,267.6,-122.812,38.509,SANTA ROSA,CA
430,23225,33.9,69.9,87.0,-120.708,39.292,EMIGRANT GAP,CA
431,23230,52.3,60.5,381.6,-122.221,37.755,OAKLAND,CA
432,23232,48.1,72.9,178.8,-121.493,38.513,SACRAMENTO,CA
433,23234,50.0,60.6,342.8,-122.398,37.620,SAN FRANCISCO,CA
434,23244,53.5,64.7,336.6,-122.048,37.415,MOUNTAIN VIEW,CA
435,23254,49.5,68.5,236.2,-122.052,37.992,CONCORD,CA
436,23257,49.4,77.0,157.3,-120.513,37.285,MERCED,CA
437,23258,48.4,75.4,160.9,-120.953,37.626,MODESTO,CA
438,23259,51.6,58.1,410.0,-121.845,36.588,MONTEREY,CA
439,23273,54.1,62.9,373.6,-120.465,34.916,SANTA MARIA,CA
440,23275,44.0,70.3,162.2,-123.201,39.126,UKIAH,CA
441,23277,51.3,60.5,365.6,-121.789,36.936,WATSONVILLE,CA
442,23285,48.0,70.7,197.9,-121.817,37.694,LIVERMORE,CA
443,23293,52.9,65.7,313.8,-121.928,37.362,SAN JOSE,CA
444,24012,33.2,59.9,148.6,-102.802,46.797,DICKINSON,ND
445,24013,35.6,59.6,173.9,-101.281,48.259,MINOT,ND
446,24015,37.0,66.2,133.2,-103.232,40.172,AKRON,CO
447,24017,34.9,63.5,135.7,-103.095,42.838,CHADRON,NE
448,24018,32.8,56.9,170.2,-104.807,41.158,CHEYENNE,WY
449,24021,31.1,63.2,107.3,-108.733,42.817,LANDER,WY
450,24022,30.8,55.5,162.8,-105.674,41.313,LARAMIE,WY
451,24023,40.7,63.2,192.4,-100.668,41.122,NORTH PLATTE,NE
452,24024,34.8,64.9,124.6,-101.601,44.051,PHILIP,SD
453,24025,34.8,64.4,128.3,-100.286,44.383,PIERRE,SD
454,24027,27.2,60.8,94.4,-109.065,41.594,ROCK SPRINGS,WY
455,24028,40.5,65.2,172.7,-103.595,41.874,SCOTTSBLUFF,NE
456,24029,34.5,61.3,148.6,-106.976,44.774,SHERIDAN,WY
457,24030,36.1,63.8,143.7,-102.985,41.101,SIDNEY,NE
458,24032,36.6,64.4,143.1,-100.551,42.859,VALENTINE,NE
459,24033,32.9,64.9,109.8,-108.543,45.808,BILLINGS,MT
460,24036,31.1,58.0,144.9,-109.467,47.049,LEWISTOWN,MT
461,24037,32.5,63.9,113.5,-105.886,46.428,MILES CITY,MT
462,24044,35.2,61.4,154.2,-102.800,42.057,ALLIANCE,NE
463,24046,33.4,57.4,171.4,-107.521,40.495,CRAIG,CO
464,24048,30.5,63.3,102.4,-108.082,44.517,GREYBULL,WY
465,24057,28.1,58.0,119.0,-107.200,41.806,RAWLINS,WY
466,24061,29.6,62.2,103.0,-108.459,43.064,RIVERTON,WY
467,24062,30.0,62.8,101.8,-107.951,43.966,WORLAND,WY
468,24089,30.6,61.2,116.6,-106.473,42.898,CASPER,WY
469,24090,32.6,63.9,114.1,-103.054,44.046,RAPID CITY,SD
470,24091,39.3,66.3,152.3,-101.620,40.510,IMPERIAL,NE
471,24110,37.5,64.0,154.2,-119.319,47.208,MOSES LAKE,WA
472,24112,30.6,60.4,122.1,-111.187,47.504,GREAT FALLS,MT
473,24121,28.9,63.1,92.5,-115.792,40.825,ELKO,NV
474,24126,36.6,67.4,121.5,-112.011,41.196,OGDEN,UT
475,24127,40.1,70.1,130.7,-111.968,40.787,SALT LAKE CITY,UT
476,24128,24.6,63.4,63.6,-117.807,40.902,WINNEMUCCA,NV
477,24130,36.3,56.6,209.6,-117.810,44.838,BAKER CITY,OR
478,24131,33.9,68.6,94.4,-116.220,43.565,BOISE,ID
479,24132,32.8,58.2,158.5,-111.152,45.794,BOZEMAN,MT
480,24133,39.4,62.1,189.3,-113.772,42.543,BURLEY,ID
481,24135,27.4,54.4,140.0,-112.513,45.953,BUTTE,MT
482,24137,32.6,57.3,164.6,-112.376,48.608,CUT BANK,MT
483,24138,30.7,59.8,127.7,-112.552,45.255,DILLON,MT
484,24141,36.4,65.7,132.0,-119.514,47.304,EPHRATA,WA
485,24143,31.0,60.4,125.8,-111.382,47.473,GREAT FALLS,MT
486,24144,31.4,61.6,120.3,-111.964,46.606,HELENA,MT
487,24145,36.3,59.9,178.2,-112.067,43.516,IDAHO FALLS,ID
488,24146,38.6,55.8,246.0,-114.264,48.304,KALISPELL,MT
489,24149,36.8,68.4,116.6,-117.014,46.375,LEWISTON,ID
490,24150,29.7,60.5,114.7,-110.448,45.699,LIVINGSTON,MT
491,24152,33.1,53.6,204.7,-118.425,45.511,MEACHAM,OR
492,24153,33.6,60.2,149.9,-114.093,46.921,MISSOULA,MT
493,24154,31.7,55.7,169.6,-115.645,47.457,MULLAN PASS,ID
494,24155,36.1,64.9,135.1,-118.834,45.698,PENDLETON,OR
495,24156,32.6,60.4,139.4,-112.571,42.920,POCATELLO,ID
496,24157,36.6,63.5,150.5,-117.528,47.621,SPOKANE,WA
497,24160,38.6,67.3,138.1,-118.287,46.095,WALLA WALLA,WA
498,24162,37.1,65.8,136.9,-117.013,44.021,ONTARIO,OR
499,24163,45.0,64.2,230.0,-119.118,46.265,PASCO,WA
500,24164,26.9,54.5,135.1,-110.108,42.584,BIG PINEY,WY
501,24172,29.9,67.9,72.2,-118.565,40.066,LOVELOCK,NV
502,24215,37.5,65.1,145.5,-122.333,41.333,MOUNT SHASTA,CA
503,24216,41.4,77.0,96.2,-122.254,40.152,RED BLUFF,CA
504,24217,50.1,58.0,385.3,-122.537,48.794,BELLINGHAM,WA
505,24219,43.3,68.2,173.3,-121.167,45.619,THE DALLES,OR
506,24220,40.6,64.2,181.9,-120.530,47.034,ELLENSBURG,WA
507,24221,46.9,63.2,264.5,-123.214,44.133,EUGENE,OR
508,24222,49.1,60.7,328.0,-122.280,47.908,EVERETT,WA
509,24225,42.2,71.0,141.2,-122.871,42.389,MEDFORD,OR
510,24227,47.8,58.5,339.7,-122.903,46.973,OLYMPIA,WA
511,24229,49.5,66.1,263.3,-122.600,45.591,PORTLAND,OR
512,24230,31.4,59.4,136.3,-121.150,44.254,REDMOND,OR
513,24231,46.7,67.0,220.1,-123.355,43.239,ROSEBURG,OR
514,24232,48.0,64.2,266.4,-122.995,44.908,SALEM,OR
515,24233,48.5,62.7,291.6,-122.314,47.461,SEATTLE,WA
516,24234,49.5,62.3,311.4,-122.301,47.530,SEATTLE,WA
517,24235,39.9,64.2,175.1,-123.381,42.617,SEXTON SUMMIT,OR
518,24237,38.8,55.6,250.9,-121.337,47.293,STAMPEDE PASS,WA
519,24242,48.4,64.3,270.7,-122.400,45.549,PORTLAND,OR
520,24243,40.3,64.0,181.3,-120.534,46.564,YAKIMA,WA
521,24255,48.0,54.3,411.8,-122.650,48.350,WHIDBEY ISLAND,WA
522,24257,41.4,76.5,99.3,-122.313,40.515,REDDING,CA
523,24259,34.0,67.3,102.4,-122.468,41.781,MONTAGUE,CA
524,24283,49.2,52.0,479.0,-124.109,40.978,ARCATA/EUREKA,CA
525,24286,50.1,53.6,465.5,-124.237,41.780,CRESCENT CITY,CA
526,25308,49.1,53.6,445.7,-131.570,55.043,ANNETTE,AK
527,25309,46.8,49.6,478.4,-134.575,58.355,JUNEAU,AK
528,25323,46.1,50.3,450.0,-135.520,59.245,HAINES,AK
529,25325,49.5,53.3,459.3,-131.712,55.357,KETCHIKAN,AK
530,25331,38.9,48.1,357.0,-149.092,61.596,PALMER,AK
531,25333,49.0,52.0,475.3,-135.360,57.048,SITKA,AK
532,25335,43.9,50.4,406.3,-135.313,59.460,SKAGWAY,AK
533,25339,46.1,48.5,487.0,-139.628,59.510,YAKUTAT,AK
534,25367,48.7,52.6,456.8,-133.075,55.580,KLAWOCK,AK
535,25501,42.8,48.3,424.2,-152.492,57.750,KODIAK,AK
536,25503,40.9,45.7,436.5,-156.654,58.684,KING SALMON,AK
537,25506,40.2,46.8,402.6,-154.915,59.753,ILIAMNA,AK
538,25507,40.2,49.5,356.3,-151.477,59.647,HOMER,AK
539,25516,42.7,48.5,418.6,-151.702,59.443,SELDOVIA,AK
540,25624,40.0,45.1,430.3,-162.722,55.207,COLD BAY,AK
541,25628,38.7,41.4,478.4,-169.565,56.600,ST. GEORGE ISLAND,AK
542,25713,38.5,41.5,472.2,-170.220,57.163,ST PAUL ISLAND,AK
543,26409,41.1,49.4,373.6,-149.855,61.217,ANCHORAGE,AK
544,26410,42.5,47.8,427.9,-145.451,60.489,CORDOVA,AK
545,26411,35.5,45.6,340.3,-147.855,64.817,FAIRBANKS,AK
546,26412,32.5,44.5,308.9,-141.946,62.961,NORTHWAY,AK
547,26415,32.3,47.5,264.5,-145.718,63.995,DELTA JUNCTION/FT GREELY,AK
548,26425,33.9,45.5,316.3,-145.458,62.160,GULKANA,AK
549,26435,33.9,45.1,321.8,-149.072,64.550,NENANA,AK
550,26451,40.4,49.1,366.2,-149.993,61.175,ANCHORAGE,AK
551,26491,40.8,50.7,347.1,-149.961,61.179,ANCHORAGE,AK
552,26492,41.7,46.8,430.9,-148.839,60.785,PORTAGE GLACIER,AK
553,26502,34.2,40.1,412.4,-158.742,64.327,KALTAG,AK
554,26510,36.1,43.2,390.9,-155.603,62.953,MC GRATH,AK
555,26523,40.7,47.1,406.3,-151.239,60.580,KENAI,AK
556,26528,39.4,45.5,411.2,-150.092,62.322,TALKEETNA,AK
557,26529,35.7,42.0,405.7,-152.107,65.174,TANANA,AK
558,26533,35.3,41.1,414.9,-151.509,66.916,BETTLES,AK
559,26615,37.7,42.6,433.4,-161.826,60.786,BETHEL,AK
560,26616,35.2,40.8,418.6,-162.597,66.885,KOTZEBUE,AK
561,26617,33.2,39.7,400.1,-165.443,64.513,NOME,AK
562,26642,33.7,38.3,437.1,-164.548,67.732,KIVALINA,AK
563,27406,35.0,38.6,458.7,-148.477,70.192,DEADHORSE,AK
564,27502,30.9,34.7,452.5,-156.763,71.287,BARROW,AK
565,27515,36.6,37.6,516.0,-151.002,70.212,NUIQSUT,AK
566,53119,50.5,76.9,167.7,-119.629,36.319,HANFORD,CA
567,53120,52.1,74.6,203.5,-116.917,33.033,RAMONA,CA
568,53121,61.3,71.6,355.1,-117.349,33.219,OCEANSIDE,CA
569,53123,40.6,84.1,56.2,-115.196,36.212,LAS VEGAS,NV
570,53802,55.3,63.2,388.4,-88.280,39.478,MATTOON/CHARLESTON,IL
571,53819,62.0,71.8,363.1,-84.567,33.355,ATLANTA,GA
572,53820,66.4,75.8,371.8,-87.044,31.416,EVERGREEN,AL
573,53838,60.7,71.7,344.6,-83.830,34.272,GAINESVILLE,GA
574,53841,57.3,66.6,367.4,-84.903,38.185,FRANKFORT,KY
575,53842,55.4,64.2,374.2,-86.296,39.825,INDIANAPOLIS,IN
576,53843,65.0,78.3,316.3,-86.394,31.309,ANDALUSIA (FT RUCKER),AL
577,53844,53.7,63.0,365.6,-82.657,39.756,LANCASTER,OH
578,53847,66.7,76.7,363.1,-87.023,30.704,MILTON,FL
579,53850,62.0,74.5,324.9,-82.886,34.672,CLEMSON,SC
580,53852,61.9,70.2,385.9,-86.945,34.653,DECATUR,AL
581,53853,68.6,77.3,383.5,-86.472,30.400,DESTIN,FL
582,53854,65.1,75.2,360.7,-80.858,33.462,ORANGEBURG,SC
583,53855,56.1,64.7,377.9,-84.525,39.364,HAMILTON,OH
584,53858,68.5,77.1,384.7,-88.532,30.464,PASCAGOULA,MS
585,53859,54.9,64.6,360.0,-84.226,39.594,DAYTON,OH
586,53860,69.8,80.1,360.7,-81.515,30.336,JACKSONVILLE,FL
587,53862,68.3,77.9,369.9,-83.574,30.072,PERRY-FOLEY,FL
588,53863,61.3,72.5,342.2,-84.302,33.875,ATLANTA,GA
589,53864,63.4,73.7,356.3,-86.782,33.178,ALABASTER,AL
590,53865,70.5,77.9,404.4,-89.821,30.345,SLIDELL,LA
591,53866,55.5,63.6,385.3,-85.803,39.578,SHELBYVILLE,IN
592,53867,64.1,75.9,336.0,-80.996,33.971,COLUMBIA,SC
593,53868,59.3,70.4,342.2,-84.233,36.023,OAK RIDGE,TN
594,53869,61.7,72.0,355.7,-89.831,35.940,BLYTHEVILLE,AR
595,53870,61.7,71.1,368.7,-81.156,35.197,GASTONIA,NC
596,53871,63.5,71.7,388.4,-81.058,34.987,ROCK HILL,SC
597,53872,62.4,71.9,367.4,-80.621,35.017,MONROE,NC
598,53873,61.2,71.3,358.2,-84.849,34.123,CARTERSVILLE,GA
599,53874,62.7,72.5,363.1,-82.159,34.249,GREENWOOD,SC
600,53879,53.3,64.0,344.0,-94.371,38.960,LEE'S SUMMIT,MO
601,53901,57.3,68.5,339.7,-91.903,36.878,WEST PLAINS,MO
602,53902,67.2,77.4,360.7,-95.414,30.352,CONROE,TX
603,53903,65.5,79.1,313.2,-95.587,30.747,HUNTSVILLE,TX
604,53904,56.0,66.8,344.0,-90.428,38.929,ST CHARLES,MO
605,53905,65.4,77.2,336.6,-93.744,32.540,SHREVEPORT,LA
606,53907,59.4,78.3,246.0,-97.094,32.664,ARLINGTON,TX
607,53908,57.4,75.6,252.2,-95.984,36.039,TULSA,OK
608,53909,59.0,77.9,246.0,-97.318,32.973,FORT WORTH,TX
609,53910,69.6,78.4,382.9,-95.553,30.062,HOUSTON,TX
610,53911,60.8,78.0,265.7,-96.267,32.710,TERRELL,TX
611,53912,61.7,79.2,263.3,-96.398,32.027,CORSICANA,TX
612,53913,56.4,76.1,234.9,-97.416,35.850,GUTHRIE,OK
613,53914,59.7,78.4,248.5,-96.590,33.180,MC KINNEY,TX
614,53915,69.6,80.2,356.3,-91.884,30.038,NEW IBERIA,LA
615,53916,53.2,65.9,315.7,-93.579,39.823,CHILLICOTHE,MO
616,53917,70.3,83.6,320.6,-90.028,30.043,NEW ORLEANS,LA
617,53918,58.3,70.7,323.7,-92.470,36.369,MOUNTAIN HOME,AR
618,53919,64.4,75.8,341.6,-91.751,33.638,MONTICELLO,AR
619,53920,62.1,75.2,316.9,-93.095,35.258,RUSSELLVILLE,AR
620,53921,62.6,73.6,345.9,-93.578,34.547,MOUNT IDA,AR
621,53922,59.0,71.2,326.8,-94.307,36.282,FAYETTEVILLE/SPRINGDALE,AR
622,53925,62.1,74.0,332.9,-94.399,34.047,DE QUEEN,AR
623,53959,61.6,73.0,339.7,-90.234,35.135,WEST MEMPHIS,AR
624,53988,67.2,78.4,346.5,-92.967,31.150,FORT POLK,LA
625,54704,54.5,62.4,387.8,-71.174,42.191,NORWOOD,MA
626,54728,47.4,55.1,387.2,-71.545,44.368,WHITEFIELD,NH
627,54733,54.0,62.3,381.0,-70.918,42.584,BEVERLY,MA
628,54734,55.1,63.1,386.6,-73.483,41.371,DANBURY,CT
629,54737,55.8,65.5,360.7,-76.294,40.120,LANCASTER,PA
630,54740,49.5,60.3,339.7,-72.518,43.344,SPRINGFIELD,VT
631,54742,49.6,57.1,392.1,-72.019,44.419,SAINT JOHNSBURY,VT
632,54743,56.0,66.5,349.0,-74.283,40.876,CALDWELL,NJ
633,54756,52.5,60.5,385.3,-72.291,42.570,ORANGE,MA
634,54757,49.8,59.3,359.4,-77.992,42.109,WELLSVILLE,NY
635,54767,54.6,63.9,365.6,-72.184,41.742,WILLIMANTIC,CT
636,54768,50.7,59.5,371.1,-73.171,42.696,NORTH ADAMS,MA
637,54769,55.4,62.3,405.0,-70.729,41.910,PLYMOUTH,MA
638,54770,50.4,61.0,343.4,-72.004,42.805,JAFFREY,NH
639,54771,49.0,57.5,374.8,-72.614,44.534,MORRISVILLE,VT
640,54772,50.8,57.6,404.4,-70.948,43.991,FRYEBURG,ME
641,54773,52.4,60.9,377.3,-76.385,43.350,FULTON,NY
642,54777,54.7,61.4,408.1,-71.021,41.876,TAUNTON,MA
643,54778,51.9,61.9,353.3,-77.056,42.643,PENN YAN,NY
644,54779,55.9,64.1,384.1,-74.737,41.009,ANDOVER,NJ
645,54780,58.3,67.0,377.3,-71.923,41.073,MONTAUK,NY
646,54781,51.1,59.5,377.9,-73.247,42.891,BENNINGTON,VT
647,54782,57.1,66.0,373.6,-75.557,40.238,POTTSTOWN,PA
648,54785,56.4,65.7,366.8,-74.669,40.624,SOMERVILLE,NJ
649,54786,56.9,65.6,376.7,-75.123,40.330,DOYLESTOWN,PA
650,54787,57.7,66.6,374.2,-73.417,40.734,FARMINGDALE,NY
651,54788,55.6,63.9,382.2,-72.828,41.510,MERIDEN,CT
652,54791,52.2,59.8,391.5,-70.922,43.278,ROCHESTER,NH
653,54792,52.5,60.9,378.5,-78.412,41.047,CLEARFIELD,PA
654,54813,47.5,56.6,364.4,-86.651,46.429,MUNISING,MI
655,63870,66.4,76.6,360.0,-86.312,31.043,FLORALA,AL
656,63872,65.4,76.1,352.0,-85.129,31.951,EUFAULA,AL
657,64775,52.4,61.4,369.3,-75.412,43.234,ROME,NY
658,64776,51.1,58.6,392.7,-73.468,44.651,PLATTSBURG,NY
659,73805,68.8,77.6,382.2,-85.788,30.349,PANAMA CITY,FL
660,92805,72.1,80.2,394.6,-80.108,26.250,POMPANO BEACH,FL
661,92806,74.4,82.8,391.5,-82.628,27.765,ST PETERSBURG,FL
662,92809,73.4,82.0,387.8,-80.241,25.999,HOLLYWOOD,FL
663,93005,32.6,61.5,130.7,-107.760,37.143,DURANGO,CO
664,93009,26.8,46.8,203.5,-106.316,39.228,LEADVILLE,CO
665,93010,35.5,60.1,168.3,-103.716,39.189,LIMON,CO
666,93013,37.9,63.9,158.5,-107.898,38.505,MONTROSE,CO
667,93026,48.1,73.3,175.7,-109.604,31.469,DOUGLAS BISBEE,AZ
668,93033,46.8,74.3,155.4,-104.263,32.338,CARLSBAD,NM
669,93037,36.3,63.0,151.7,-104.711,38.812,COLORADO SPRINGS,CO
670,93042,44.9,69.6,177.0,-102.547,36.023,DALHART,TX
671,93045,41.3,72.5,123.3,-107.268,33.237,TRUTH OR CONSEQUENCES,NM
672,93057,37.8,61.1,181.9,-107.902,35.165,GRANTS,NM
673,93058,37.0,66.5,130.7,-104.498,38.290,PUEBLO,CO
674,93067,36.4,64.1,143.7,-104.849,39.570,DENVER,CO
675,93069,36.1,62.5,153.6,-108.628,37.303,CORTEZ,CO
676,93073,31.0,55.5,164.6,-106.868,39.223,ASPEN,CO
677,93075,32.9,68.1,90.1,-109.754,38.755,MOAB,UT
678,93084,46.3,77.6,127.7,-109.635,32.855,SAFFORD,AZ
679,93102,31.0,69.7,69.7,-118.700,39.417,FALLON,NV
680,93104,36.9,80.6,52.5,-117.683,35.683,CHINA LAKE,CA
681,93107,58.9,75.4,272.5,-117.150,32.867,MIRAMAR,CA
682,93112,63.8,75.2,340.9,-117.200,32.700,SAN DIEGO,CA
683,93129,37.3,63.7,154.8,-113.097,37.702,CEDAR CITY,UT
684,93138,49.2,90.4,74.7,-116.505,33.828,PALM SPRINGS,CA
685,93141,29.8,65.4,85.1,-110.750,39.545,PRICE,UT
686,93167,43.2,77.3,106.7,-113.937,35.259,KINGMAN,AZ
687,93184,61.3,77.2,281.1,-117.866,33.680,SANTA ANA,CA
688,93193,49.5,81.4,127.0,-119.719,36.780,FRESNO,CA
689,93197,58.5,71.8,311.4,-118.451,34.016,SANTA MONICA,CA
690,93205,49.2,73.7,182.5,-121.570,39.098,MARYSVILLE,CA
691,93206,52.7,65.6,312.6,-120.641,35.237,SAN LUIS OBISPO,CA
692,93209,45.9,73.0,157.9,-120.627,35.673,PASO ROBLES,CA
693,93210,48.8,75.0,167.7,-121.618,39.490,OROVILLE,CA
694,93225,49.8,73.6,189.3,-121.590,38.696,SACRAMENTO,CA
695,93227,50.8,62.6,326.1,-122.280,38.213,NAPA,CA
696,93228,52.3,63.2,340.3,-122.121,37.659,HAYWARD,CA
697,93230,33.8,57.1,178.2,-119.995,38.894,SOUTH LAKE TAHOE,CA
698,93241,45.7,73.0,156.0,-121.961,38.377,VACAVILLE,CA
699,93242,49.8,76.2,167.1,-120.111,36.988,MADERA,CA
700,93706,55.5,66.7,338.5,-77.730,39.708,HAGERSTOWN,MD
701,93718,66.3,74.7,386.6,-78.721,33.816,NORTH MYRTLE BEACH,SC
702,93719,65.0,73.4,385.9,-77.047,35.068,NEW BERN,NC
703,93720,59.2,68.6,367.4,-75.510,38.341,SALISBURY,MD
704,93721,58.2,69.5,338.5,-76.684,39.172,BALTIMORE,MD
705,93727,64.1,73.6,368.7,-77.433,34.700,NEW RIVER,NC
706,93729,66.1,75.0,379.2,-75.623,35.232,CAPE HATTERAS,NC
707,93730,58.0,67.5,365.0,-74.457,39.458,ATLANTIC CITY,NJ
708,93736,57.8,67.8,357.6,-78.453,38.139,CHARLOTTESVILLE,VA
709,93738,56.6,68.1,334.8,-77.448,38.935,WASHINGTON,DC
710,93739,58.8,70.6,332.3,-75.496,37.941,WALLOPS ISLAND,VA
711,93740,62.9,73.6,350.2,-78.880,34.991,FAYETTEVILLE,NC
712,93741,60.5,70.4,360.7,-76.493,37.132,NEWPORT NEWS,VA
713,93743,65.1,73.1,392.1,-77.030,34.691,SWANSBORO,NC
714,93759,62.2,70.8,381.6,-77.893,35.855,ROCKY MOUNT,NC
715,93762,55.7,67.6,328.6,-77.43333,39.73333,SITE R,PA
716,93765,66.5,73.7,405.7,-76.661,34.734,BEAUFORT,NC
717,93773,61.0,69.5,382.2,-77.007,36.984,WAKEFIELD,VA
718,93775,59.1,69.0,359.4,-77.434,37.708,RICHMOND/ASHLAND,VA
719,93778,55.4,65.1,360.0,-76.874,39.918,YORK,PA
720,93780,57.7,67.4,361.9,-74.841,39.941,MOUNT HOLLY,NJ
721,93782,62.8,72.3,368.1,-79.366,34.792,MAXTON,NC
722,93783,60.9,69.4,382.2,-79.477,36.047,BURLINGTON,NC
723,93784,57.5,74.3,267.6,-76.610,39.281,BALTIMORE,MD
724,93785,60.7,70.3,365.0,-79.064,35.933,CHAPEL HILL,NC
725,93801,62.4,71.4,375.5,-85.161,34.348,ROME,GA
726,93805,67.0,78.8,337.9,-84.353,30.393,TALLAHASSEE,FL
727,93806,64.7,74.1,370.5,-87.616,33.212,TUSCALOOSA,AL
728,93807,60.0,69.8,361.9,-80.222,36.134,WINSTON SALEM,NC
729,93808,58.9,70.0,342.2,-86.436,36.981,BOWLING GREEN,KY
730,93810,57.9,67.5,363.1,-89.250,37.780,CARBONDALE/MURPHYBORO,IL
731,93812,57.2,65.9,376.7,-84.419,39.103,CINCINNATI,OH
732,93814,55.3,66.1,344.0,-84.672,39.043,COVINGTON,KY
733,93815,54.6,64.2,361.3,-84.219,39.906,DAYTON,OH
734,93819,55.5,65.2,360.0,-86.272,39.710,INDIANAPOLIS,IN
735,93820,57.5,66.5,372.4,-84.606,38.041,LEXINGTON,KY
736,93821,56.8,69.7,315.7,-85.730,38.177,LOUISVILLE,KY
737,93822,53.0,65.9,312.6,-89.684,39.845,SPRINGFIELD,IL
738,93824,54.8,62.9,384.7,-81.892,39.944,ZANESVILLE,OH
739,93831,67.6,77.2,369.3,-80.717,32.483,BEAUFORT,SC
740,93837,70.6,82.1,344.6,-81.683,30.233,JACKSONVILLE,FL
741,93841,69.0,78.2,376.1,-87.022,30.724,MILTON,FL
742,93842,63.3,76.8,312.6,-84.942,32.516,COLUMBUS,GA
743,93845,67.2,79.3,334.2,-83.277,30.783,VALDOSTA,GA
744,93846,62.3,72.4,358.8,-82.709,34.495,ANDERSON,SC
745,93862,62.5,72.8,355.7,-88.771,34.261,TUPELO,MS
746,93874,69.3,78.2,381.0,-89.070,30.407,GULFPORT,MS
747,93909,53.5,68.1,291.0,-94.890,38.831,OLATHE,KS
748,93915,67.1,77.7,354.5,-92.559,31.335,ALEXANDRIA,LA
749,93919,67.5,76.0,385.9,-90.472,31.178,MCCOMB,MS
750,93950,59.1,76.5,262.0,-95.783,34.899,MC ALESTER,OK
751,93953,60.2,75.2,291.6,-95.361,35.657,MUSKOGEE,OK
752,93967,58.0,73.4,284.8,-95.566,37.091,COFFEYVILLE,KS
753,93985,59.2,75.7,272.5,-98.061,32.782,MINERAL WELLS,TX
754,93986,54.1,76.3,208.4,-99.051,35.008,HOBART,OK
755,93987,66.0,78.6,326.1,-94.750,31.234,LUFKIN,TX
756,93988,65.3,74.6,372.4,-91.935,34.175,PINE BLUFF,AR
757,93989,52.3,65.4,309.5,-91.194,39.943,QUINCY,IL
758,93990,46.3,66.6,219.5,-99.830,39.376,HILL CITY,KS
759,93992,65.1,74.1,376.7,-92.813,33.221,EL DORADO,AR
760,93993,59.3,70.7,337.9,-94.170,36.005,FAYETTEVILLE,AR
761,93997,48.9,67.6,238.6,-98.828,38.872,RUSSELL,KS
762,94008,33.2,61.2,138.1,-106.621,48.214,GLASGOW,MT
763,94012,32.9,59.5,148.6,-109.780,48.559,HAVRE,MT
764,94014,34.7,58.7,172.7,-103.642,48.195,WILLISTON,ND
765,94017,34.7,59.5,165.9,-105.574,48.094,WOLF POINT,MT
766,94023,30.6,61.7,113.5,-105.542,44.339,GILLETTE,WY
767,94030,35.6,63.4,142.5,-109.509,40.441,VERNAL,UT
768,94032,29.8,58.4,130.1,-103.628,43.731,CUSTER,SD
769,94037,32.8,62.5,125.2,-103.546,45.604,BUFFALO,SD
770,94038,31.6,58.4,146.2,-102.655,46.014,HETTINGER,ND
771,94039,34.9,63.1,138.1,-102.518,43.021,PINE RIDGE,SD
772,94040,41.4,65.6,177.6,-100.591,40.206,MC COOK,NE
773,94041,37.6,59.0,199.8,-101.439,47.663,GARRISON,ND
774,94050,31.7,57.9,151.1,-107.885,40.049,MEEKER,CO
775,94051,31.3,60.7,125.8,-106.948,47.326,JORDAN,MT
776,94052,37.4,62.3,167.7,-100.408,45.546,MOBRIDGE,SD
777,94053,38.5,64.4,160.3,-104.153,42.065,TORRINGTON,WY
778,94054,29.9,63.2,98.7,-106.721,44.381,BUFFALO,WY
779,94055,30.6,60.3,123.3,-104.250,46.358,BAKER,MT
780,94056,32.3,64.1,110.4,-102.019,45.032,FAITH,SD
781,94057,32.1,61.9,124.0,-105.386,42.797,DOUGLAS,WY
782,94107,23.5,64.0,54.3,-117.864,42.591,ROME,OR
783,94128,37.9,61.6,178.8,-111.853,41.787,LOGAN,UT
784,94129,33.5,59.3,156.0,-117.109,46.744,PULLMAN/MOSCOW,WA
785,94173,30.5,48.0,234.9,-110.421,44.544,YELLOWSTONE,WY
786,94176,38.4,63.0,171.4,-117.321,47.683,SPOKANE,WA
787,94178,32.4,66.6,95.6,-114.487,42.482,TWIN FALLS,ID
788,94182,30.5,56.3,152.9,-116.102,44.889,MCCALL,ID
789,94185,27.0,60.1,96.8,-118.954,43.592,BURNS,OR
790,94194,36.2,59.1,184.4,-111.881,43.834,REXBURG,ID
791,94197,36.8,64.8,141.8,-119.517,48.464,OMAK,WA
792,94225,51.3,58.6,396.4,-123.937,46.971,HOQUIAM,WA
793,94227,48.3,59.8,328.6,-123.148,47.238,SHELTON,WA
794,94236,37.5,61.0,180.1,-121.724,42.147,KLAMATH FALLS,OR
795,94239,39.6,66.6,152.3,-120.207,47.399,WENATCHEE,WA
796,94240,47.7,56.1,376.1,-124.561,47.934,QUILLAYUTE,WA
797,94248,50.7,63.5,312.0,-122.214,47.493,RENTON,WA
798,94261,46.6,62.3,271.3,-122.949,45.541,PORTLAND,OR
799,94266,47.1,57.7,340.9,-123.498,48.120,PORT ANGELES,WA
800,94273,46.9,63.5,260.8,-123.134,45.195,MC MINNVILLE,OR
801,94274,48.1,61.5,302.1,-122.576,47.268,TACOMA,WA
802,94276,47.6,56.9,361.3,-123.023,48.522,FRIDAY HARBOR,WA
803,94281,48.1,63.6,275.0,-122.769,45.249,AURORA,OR
804,94298,48.6,64.2,274.4,-122.657,45.621,VANCOUVER,WA
805,94299,28.5,61.2,101.2,-120.567,41.483,ALTURAS,CA
806,94623,51.3,58.3,401.3,-69.712,43.964,WISCASSET,ME
807,94624,57.1,63.9,407.5,-69.993,41.688,CHATHAM,MA
808,94626,48.2,55.6,392.7,-69.595,45.462,GREENVILLE,ME
809,94700,47.3,55.1,385.3,-71.179,44.576,BERLIN,NH
810,94702,57.7,67.4,361.9,-73.146,41.175,BRIDGEPORT,CT
811,94704,55.0,62.7,391.5,-77.713,42.571,DANSVILLE,NY
812,94705,49.6,56.5,402.0,-72.579,44.203,BARRE/MONTPELIER,VT
813,94720,57.4,62.6,435.9,-70.280,41.669,HYANNIS,MA
814,94723,53.1,63.8,344.0,-71.124,42.717,LAWRENCE,MA
815,94724,56.6,64.0,397.6,-70.615,41.393,VINEYARD HAVEN,MA
816,94725,51.1,59.4,379.8,-74.846,44.936,MASSENA,NY
817,94726,56.0,62.5,412.4,-70.958,41.676,NEW BEDFORD,MA
818,94728,57.8,68.8,342.8,-73.967,40.783,NEW YORK,NY
819,94732,57.4,67.8,350.8,-75.011,40.082,PHILADELPHIA,PA
820,94740,46.8,53.7,400.7,-74.207,44.385,SARANAC LAKE,NY
821,94741,56.1,68.8,317.5,-74.061,40.850,TETERBORO,NJ
822,94745,56.2,65.7,363.7,-73.708,41.067,WHITE PLAINS,NY
823,94746,52.8,61.7,371.1,-71.876,42.267,WORCESTER,MA
824,94765,50.4,59.7,363.1,-72.305,43.626,LEBANON,NH
825,94789,57.7,69.2,335.4,-73.796,40.655,NEW YORK,NY
826,94790,52.5,60.6,383.5,-76.022,43.992,WATERTOWN,NY
827,94814,47.6,57.3,355.1,-84.691,44.368,HOUGHTON LAKE,MI
828,94815,51.4,62.7,333.5,-85.552,42.235,KALAMAZOO,MI
829,94817,49.4,61.7,318.1,-83.418,42.665,PONTIAC,MI
830,94818,50.6,62.0,331.7,-87.814,42.761,RACINE,WI
831,94822,48.3,63.3,281.8,-89.093,42.196,ROCKFORD,IL
832,94823,53.3,63.6,349.6,-80.231,40.501,PITTSBURGH,PA
833,94830,51.3,62.2,339.7,-83.801,41.589,TOLEDO,OH
834,94846,51.0,64.1,308.3,-87.914,41.986,CHICAGO,IL
835,94847,50.6,64.1,302.7,-83.349,42.215,DETROIT,MI
836,94849,47.4,56.9,358.2,-83.581,45.072,ALPENA,MI
837,94855,46.1,59.7,297.8,-88.557,43.984,OSHKOSH,WI
838,94860,49.9,63.0,307.7,-85.523,42.882,GRAND RAPIDS,MI
839,94870,53.3,65.1,328.0,-88.278,40.040,CHAMPAIGN/URBANA,IL
840,94871,53.8,61.5,390.9,-86.422,42.129,BENTON HARBOR,MI
841,94889,49.4,59.8,345.9,-83.744,42.223,ANN ARBOR,MI
842,94892,48.9,62.3,302.7,-88.246,41.914,CHICAGO/WEST CHICAGO,IL
843,94893,44.6,54.7,346.5,-88.114,45.818,IRON MOUNTAIN/KINGSFORD,MI
844,94895,52.9,63.5,345.3,-85.394,40.234,MUNCIE,IN
845,94898,50.4,61.6,334.8,-82.793,44.022,HARBOR BEACH,MI
846,94908,47.3,60.0,310.7,-90.704,42.398,DUBUQUE,IA
847,94910,45.5,61.4,268.2,-92.401,42.554,WATERLOO,IA
848,94929,44.0,56.2,315.0,-90.919,46.549,ASHLAND,WI
849,94931,39.8,51.5,319.4,-92.839,47.387,HIBBING,MN
850,94938,41.3,57.9,255.9,-94.131,46.405,BRAINERD,MN
851,94943,37.7,65.5,144.3,-99.318,43.767,CHAMBERLAIN,SD
852,94946,40.5,62.2,199.8,-99.639,41.437,BROKEN BOW,NE
853,94949,43.8,65.1,207.2,-98.427,40.604,HASTINGS,NE
854,94950,40.6,63.5,188.7,-98.038,43.777,MITCHELL,SD
855,94957,50.7,64.7,296.6,-95.592,40.079,FALLS CITY,NE
856,94958,41.6,63.1,202.9,-98.952,41.624,ORD,NE
857,94960,42.6,61.1,234.9,-93.351,45.063,MINNEAPOLIS,MN
858,94961,40.8,54.0,299.0,-94.610,48.728,BAUDETTE,MN
859,94963,44.0,63.6,224.4,-93.470,44.832,MINNEAPOLIS,MN
860,94967,38.8,55.9,247.2,-95.068,46.901,PARK RAPIDS,MN
861,94971,42.5,60.9,236.2,-94.746,43.408,ESTHERVILLE,IA
862,94973,42.4,54.4,316.9,-91.444,46.026,HAYWARD,WI
863,94978,44.3,64.3,220.7,-96.178,41.764,TEKAMAH,NE
864,94982,49.1,61.8,312.6,-90.591,41.614,DAVENPORT,IA
865,94985,44.6,57.9,300.3,-90.189,44.637,MARSHFIELD,WI
866,94988,47.2,61.6,287.9,-92.918,42.113,MARSHALLTOWN,IA
867,94989,46.7,62.0,276.2,-93.622,41.992,AMES,IA
868,94990,38.9,67.4,140.0,-99.842,43.390,WINNER,SD
869,94991,49.1,63.9,284.8,-93.902,40.633,LAMONI,IA
870,94992,46.7,55.8,363.7,-90.344,47.747,GRAND MARAIS,MN
871,94993,38.8,59.4,209.0,-96.991,45.669,SISSETON,SD
872,94994,47.2,59.5,316.3,-90.678,43.156,BOSCOBEL,WI
