,wban,dewpt,tavg,wp,long,lat,stname,ststate
0,03013,45.2,79.7,106.1,-102.688,38.070,LAMAR,CO
1,03017,35.8,74.9,72.2,-104.658,39.833,DENVER,CO
2,03024,52.9,81.9,150.5,-101.394,35.700,BORGER,TX
3,03026,47.3,75.7,149.2,-102.284,39.245,BURLINGTON,CO
4,03027,30.1,71.8,54.9,-105.663,35.003,CLINES CORNERS,NM
5,03028,46.0,77.0,129.5,-102.614,37.283,SPRINGFIELD,CO
6,03029,18.5,66.9,19.2,-109.061,35.658,WINDOW ROCK,AZ
7,03030,54.7,80.4,177.6,-101.505,36.682,GUYMON,OK
8,03032,58.3,85.9,165.9,-102.213,30.048,DRYDEN,TX
9,03102,51.6,72.6,217.7,-117.600,34.056,ONTARIO,CA
10,03103,24.0,63.7,58.6,-111.672,35.140,FLAGSTAFF,AZ
11,03104,41.1,87.4,45.7,-116.160,33.628,PALM SPRINGS,CA
12,03124,31.3,81.8,22.3,-110.344,31.588,FORT HUACHUCA/SIERRA VISTA,AZ
13,03131,55.0,65.8,343.4,-117.139,32.816,SAN DIEGO,CA
14,03144,39.0,88.0,34.0,-115.579,32.834,IMPERIAL,CA
15,03145,38.8,90.4,24.7,-114.617,32.650,YUMA,AZ
16,03154,54.2,65.0,342.8,-117.350,33.300,CAMP PENDLETON,CA
17,03159,35.6,76.3,64.2,-118.219,34.741,LANCASTER,CA
18,03160,17.4,80.7,0.0,-116.028,36.621,MERCURY,NV
19,03162,21.6,83.3,0.0,-111.448,36.926,PAGE,AZ
20,03164,40.1,64.3,176.4,-116.467,32.617,CAMPO,CA
21,03166,55.1,71.7,268.2,-117.979,33.872,FULLERTON,CA
22,03167,54.1,66.4,321.8,-118.334,33.923,HAWTHORNE,CA
23,03170,19.0,63.4,34.0,-116.006,39.601,EUREKA,NV
24,03171,52.2,72.7,223.2,-117.439,33.952,RIVERSIDE,CA
25,03177,56.0,64.3,382.2,-117.279,33.128,CARLSBAD,CA
26,03178,55.8,64.6,374.2,-116.979,32.572,SAN DIEGO,CA
27,03179,52.7,71.0,246.6,-117.636,33.975,CHINO,CA
28,03184,30.4,89.2,0.0,-112.082,33.688,PHOENIX,AZ
29,03192,35.9,91.0,12.4,-111.911,33.623,SCOTTSDALE,AZ
30,03195,17.2,62.0,30.9,-112.155,35.946,GRAND CANYON,AZ
31,03196,33.8,81.4,34.6,-110.846,31.421,NOGALES,AZ
32,03757,60.2,76.4,276.8,-76.429,38.142,ST INIGOES,MD
33,03802,55.4,66.7,336.6,-80.229,39.296,CLARKSBURG,WV
34,03810,60.0,73.5,310.1,-81.390,35.741,HICKORY,NC
35,03812,58.5,70.7,326.1,-82.538,35.432,ASHEVILLE,NC
36,03813,62.9,77.1,303.3,-83.654,32.688,MACON,GA
37,03816,57.6,76.3,246.6,-88.774,37.056,PADUCAH,KY
38,03818,66.6,79.3,325.5,-85.184,30.836,MARIANNA,FL
39,03820,63.7,74.7,346.5,-81.965,33.370,AUGUSTA,GA
40,03822,66.2,77.4,345.9,-81.202,32.119,SAVANNAH,GA
41,03847,57.0,70.9,302.7,-85.085,35.951,CROSSVILLE,TN
42,03849,57.6,77.5,234.3,-84.077,37.087,LONDON,KY
43,03853,66.6,96.6,156.0,-81.417,30.400,MAYPORT,FL
44,03855,71.2,78.4,408.1,-87.317,30.350,PENSACOLA,FL
45,03856,60.2,78.3,255.3,-86.786,34.644,HUNTSVILLE,AL
46,03859,54.2,70.1,275.6,-81.208,37.296,BLUEFIELD,WV
47,03860,58.2,72.7,295.9,-82.555,38.382,HUNTINGTON,WV
48,03868,55.1,74.3,239.2,-87.309,39.452,TERRE HAUTE,IN
49,03870,60.5,75.6,290.4,-82.219,34.899,GREER,SC
50,03872,54.3,67.2,313.8,-81.125,37.795,BECKLEY,WV
51,03878,66.4,76.5,361.3,-86.012,31.861,TROY,AL
52,03887,56.6,71.6,288.5,-88.866,39.984,DECATUR,IL
53,03888,62.1,75.9,307.7,-84.521,33.779,ATLANTA,GA
54,03889,57.0,72.8,279.3,-83.314,37.591,JACKSON,KY
55,03893,55.4,72.2,265.7,-86.617,39.144,BLOOMINGTON,IN
56,03894,58.7,75.3,271.3,-87.415,36.622,CLARKSVILLE,TN
57,03901,68.3,82.1,312.6,-94.711,32.385,LONGVIEW,TX
58,03902,65.5,86.0,234.9,-97.822,31.070,FORT HOOD/KILLEEN,TX
59,03904,69.3,84.3,298.4,-96.364,30.588,COLLEGE STATION,TX
60,03919,59.2,80.3,223.8,-97.661,38.813,SALINA,KS
61,03927,65.7,84.3,254.6,-97.041,32.896,DALLAS-FORT WORTH,TX
62,03928,60.2,79.7,240.5,-97.429,37.647,WICHITA,KS
63,03931,67.0,81.9,297.8,-93.192,31.045,FORT POLK,LA
64,03932,61.0,81.2,234.3,-99.200,35.340,CLINTON,OK
65,03933,67.2,85.5,259.6,-97.713,31.134,FORT HOOD (KILLEEN),TX
66,03935,58.6,75.4,268.8,-89.571,37.225,CAPE GIRARDEAU,MO
67,03936,61.3,77.9,273.1,-96.678,39.135,MANHATTAN,KS
68,03937,71.4,84.5,323.7,-93.228,30.125,LAKE CHARLES,LA
69,03940,66.7,79.7,321.8,-90.078,32.320,JACKSON,MS
70,03945,57.8,76.1,250.9,-92.218,38.817,COLUMBIA,MO
71,03947,59.9,80.7,226.9,-94.718,39.299,KANSAS CITY,MO
72,03949,67.7,81.5,312.0,-93.283,31.400,FORT POLK,LA
73,03950,65.1,81.8,275.0,-98.416,34.568,LAWTON,OK
74,03953,61.5,78.1,273.1,-90.646,35.831,JONESBORO,AR
75,03954,64.7,79.3,299.6,-97.647,35.534,OKLAHOMA CITY,OK
76,03957,60.0,90.7,144.9,-98.553,37.284,MEDICINE LODGE,KS
77,03959,66.2,76.8,353.9,-96.011,36.762,BARTLESVILLE,OK
78,03960,57.2,75.4,251.6,-90.157,38.571,CAHOKIA/ST.LOUIS,IL
79,03962,62.3,81.4,246.6,-93.096,34.478,HOT SPRINGS,AR
80,03963,56.6,77.7,221.4,-92.156,38.591,JEFFERSON CITY,MO
81,03965,62.5,79.5,269.4,-97.086,36.160,STILLWATER,OK
82,03966,57.8,75.4,259.0,-90.656,38.657,ST LOUIS,MO
83,03967,60.1,76.8,271.3,-94.739,38.850,OLATHE,KS
84,03971,65.9,83.9,261.4,-96.868,32.681,DALLAS,TX
85,03975,60.6,77.5,269.4,-90.325,36.773,POPLAR BLUFF,MO
86,03981,63.3,82.6,245.4,-98.984,34.352,FREDERICK,OK
87,03991,65.9,86.8,231.8,-97.199,33.206,DENTON,TX
88,03994,59.8,78.7,246.6,-93.183,38.704,SEDALIA,MO
89,03996,67.8,79.0,346.5,-91.030,32.348,TALLULAH/VICKSBURG,MS
90,03997,60.5,77.3,270.1,-95.212,39.008,LAWRENCE,KS
91,03998,63.1,77.9,295.9,-95.504,37.328,PARSONS,KS
92,03999,64.5,83.1,254.0,-98.235,30.741,BURNET,TX
93,04109,49.5,62.9,303.3,-115.596,46.144,ELK CITY,ID
94,04110,35.2,64.0,134.4,-114.456,42.727,JEROME,ID
95,04111,24.0,61.8,67.9,-111.031,41.273,EVANSTON,WY
96,04112,29.7,49.1,212.7,-114.927,44.171,STANLEY,ID
97,04113,46.0,64.1,242.9,-119.261,45.826,HERMISTON,OR
98,04114,28.0,60.0,104.9,-114.215,41.523,CHALLIS,ID
99,04134,23.3,72.9,19.2,-113.351,40.161,DUGWAY PROVING GROUND,UT
100,04201,48.7,58.2,358.8,-122.861,45.773,SCAPPOOSE,OR
101,04724,55.6,69.5,301.5,-78.945,43.107,NIAGARA FALLS,NY
102,04725,54.0,64.8,342.8,-75.981,42.208,BINGHAMTON,NY
103,04726,53.2,64.7,332.3,-78.834,40.301,JOHNSTOWN,PA
104,04751,51.8,63.4,329.8,-78.640,41.803,BRADFORD,PA
105,04780,54.7,67.1,320.6,-71.756,42.552,FITCHBURG,MA
106,04781,57.8,69.0,339.7,-73.102,40.794,ISLIP,NY
107,04787,53.0,65.1,323.7,-78.899,41.178,DU BOIS,PA
108,04803,53.4,64.3,340.9,-89.465,45.631,RHINELANDER,WI
109,04804,55.2,71.4,272.5,-83.078,40.078,COLUMBUS,OH
110,04808,54.2,70.8,267.0,-88.481,41.770,CHICAGO/AURORA,IL
111,04826,54.0,68.5,292.2,-89.837,44.359,WISCONSIN RAPIDS,WI
112,04836,51.1,59.6,376.1,-68.307,47.286,FRENCHVILLE,ME
113,04838,54.5,72.1,255.9,-87.905,42.121,CHICAGO/PROSPECT HGTS/WHEELI,IL
114,04839,54.1,70.1,274.4,-86.097,42.746,HOLLAND,MI
115,04840,51.7,70.2,243.5,-88.486,43.770,FOND DU LAC,WI
116,04841,54.5,69.1,291.6,-87.851,43.769,SHEBOYGAN,WI
117,04842,55.1,68.5,307.7,-81.887,40.875,WOOSTER,OH
118,04843,55.1,67.7,318.1,-80.215,41.626,MEADVILLE,PA
119,04845,52.3,70.8,244.2,-87.938,42.595,KENOSHA,WI
120,04846,54.7,70.8,273.8,-87.006,41.453,VALPARAISO,IN
121,04847,53.3,70.6,258.3,-84.079,41.868,ADRIAN,MI
122,04848,55.6,72.4,266.4,-83.476,41.563,TOLEDO,OH
123,04849,55.5,69.9,295.3,-82.179,41.179,LORAIN/ELYRIA,OH
124,04850,51.3,72.2,218.3,-84.027,40.708,LIMA,OH
125,04851,53.0,72.0,239.2,-84.429,41.338,DEFIANCE,OH
126,04852,56.0,69.8,303.3,-81.420,40.470,NEW PHILADELPHIA,OH
127,04853,57.0,71.6,293.5,-81.684,41.518,CLEVELAND,OH
128,04854,52.3,66.7,292.2,-84.701,45.013,GAYLORD,MI
129,04855,53.5,70.3,264.5,-83.064,40.616,MARION,OH
130,04857,55.1,68.1,313.2,-80.696,41.778,ASHTABULA,OH
131,04858,54.7,66.9,323.7,-82.463,40.023,NEWARK,OH
133,12812,71.3,81.1,368.7,-81.991,26.917,PUNTA GORDA,FL
134,12815,70.4,79.7,375.5,-81.325,28.434,ORLANDO,FL
135,12816,68.5,79.1,355.7,-82.272,29.690,GAINESVILLE,FL
136,12818,70.3,78.6,390.9,-82.454,28.474,BROOKSVILLE,FL
137,12819,70.6,79.5,381.6,-81.810,28.821,LEESBURG,FL
138,12832,69.9,79.3,373.6,-85.033,29.733,APALACHICOLA,FL
139,12833,69.6,78.6,379.8,-83.105,29.550,CROSS CITY,FL
140,12834,70.4,78.7,390.9,-81.060,29.177,DAYTONA BEACH,FL
141,12835,71.4,82.2,354.5,-81.864,26.586,FORT MYERS,FL
142,12838,70.5,79.1,385.9,-80.646,28.103,MELBOURNE,FL
143,12839,72.1,82.6,359.4,-80.300,25.824,MIAMI,FL
144,12841,69.6,80.0,358.8,-81.333,28.545,ORLANDO,FL
145,12842,70.3,80.7,359.4,-82.540,27.961,TAMPA,FL
146,12843,70.3,79.8,372.4,-80.418,27.656,VERO BEACH,FL
147,12844,72.0,81.2,377.9,-80.099,26.685,WEST PALM BEACH,FL
148,12849,72.2,82.1,368.1,-80.154,26.072,FORT LAUDERDALE,FL
149,12854,69.1,79.9,353.3,-81.244,28.780,ORLANDO,FL
150,12871,71.2,80.5,376.1,-82.559,27.401,SARASOTA/BRADENTON,FL
151,12873,70.7,80.8,364.4,-82.688,27.911,ST PETERSBURG/CLEARWATER,FL
152,12876,69.5,80.2,354.5,-81.754,28.062,WINTER HAVEN,FL
153,12882,72.7,82.6,368.1,-80.280,25.907,MIAMI,FL
154,12884,72.8,81.2,390.3,-89.408,29.350,BOOTHVILLE,LA
155,12885,71.0,82.8,340.3,-80.171,26.197,FORT LAUDERDALE,FL
156,12888,72.6,81.5,382.9,-80.433,25.648,MIAMI,FL
157,12894,70.6,81.2,357.0,-81.755,26.536,FORT MYERS,FL
158,12895,70.6,79.5,381.6,-80.377,27.498,FORT PIERCE,FL
159,12896,73.2,83.3,365.6,-81.052,24.726,MARATHON,FL
160,12897,73.1,81.5,390.3,-81.775,26.153,NAPLES,FL
161,12904,71.5,86.4,301.5,-97.654,26.228,HARLINGEN,TX
162,12912,71.1,84.4,321.2,-96.930,28.863,VICTORIA,TX
163,12916,71.3,82.6,347.7,-90.251,29.993,NEW ORLEANS,LA
164,12917,71.5,82.3,354.5,-94.021,29.951,BEAUMONT/PORT ARTHUR,TX
165,12918,70.9,84.1,322.4,-95.279,29.645,HOUSTON,TX
166,12919,73.5,86.2,330.5,-97.426,25.906,BROWNSVILLE,TX
167,12921,68.4,84.8,281.1,-98.464,29.533,SAN ANTONIO,TX
168,12923,75.0,84.7,372.4,-94.860,29.265,GALVESTON,TX
169,12924,72.5,84.9,333.5,-97.513,27.773,CORPUS CHRISTI,TX
170,12928,72.2,85.4,323.1,-97.817,27.500,KINGSVILLE,TX
171,12932,70.3,85.9,292.2,-98.027,27.741,ALICE,TX
172,12935,73.0,83.8,355.7,-96.251,28.728,PALACIOS,TX
173,12947,67.0,87.6,235.5,-99.220,28.458,COTULLA,TX
174,12957,74.2,85.6,348.3,-97.346,26.166,PORT ISABEL,TX
175,12960,69.9,83.7,313.8,-95.364,29.993,HOUSTON,TX
176,12962,67.5,84.2,277.4,-99.174,29.359,HONDO,TX
177,12968,72.1,82.5,360.7,-91.526,29.562,SALT POINT,LA
178,12970,67.5,85.2,266.4,-98.471,29.337,SAN ANTONIO,TX
179,12971,68.0,82.5,304.0,-98.045,29.709,NEW BRAUNFELS,TX
180,12972,73.7,84.8,352.0,-97.046,28.084,ROCKPORT,TX
181,12975,70.6,83.7,323.1,-95.240,29.521,HOUSTON,TX
182,12976,72.2,81.8,372.4,-95.462,29.110,ANGLETON/LAKE JACKSON,TX
183,12977,71.9,82.8,353.3,-95.656,29.622,HOUSTON,TX
184,13721,59.0,74.4,285.5,-76.400,38.283,PATUXENT RIVER,MD
185,13722,60.5,74.7,301.5,-78.786,35.871,RALEIGH/DURHAM,NC
186,13723,58.9,74.0,289.2,-79.944,36.098,GREENSBORO,NC
187,13728,59.8,73.4,308.9,-79.336,36.573,DANVILLE,VA
188,13733,57.7,70.8,313.8,-79.207,37.338,LYNCHBURG,VA
189,13735,58.6,70.1,336.0,-75.078,39.366,MILLVILLE,NJ
190,13736,55.8,70.1,296.6,-79.916,39.643,MORGANTOWN,WV
191,13737,61.0,74.4,312.0,-76.192,36.904,NORFOLK,VA
192,13739,57.6,73.6,277.4,-75.231,39.868,PHILADELPHIA,PA
193,13740,60.0,74.1,302.7,-77.323,37.511,RICHMOND,VA
194,13741,57.6,72.7,287.9,-79.974,37.317,ROANOKE,VA
195,13743,58.1,76.3,252.8,-77.034,38.865,WASHINGTON,DC
196,13748,64.1,75.2,345.9,-77.906,34.268,WILMINGTON,NC
197,13750,61.1,76.2,291.0,-76.283,36.933,NORFOLK,VA
198,13754,63.0,74.3,342.2,-76.883,34.900,CHERRY POINT,NC
199,13764,58.8,73.4,295.3,-75.359,38.689,GEORGETOWN,DE
200,13769,61.5,73.6,329.8,-76.033,36.817,OCEANA,VA
201,13776,63.2,75.4,329.8,-79.059,34.610,LUMBERTON,NC
202,13781,58.6,72.3,306.4,-75.601,39.673,WILMINGTON,DE
203,13786,62.6,76.2,310.7,-76.175,36.261,ELIZABETH CITY,NC
204,13809,56.6,74.8,250.9,-87.606,38.764,LAWRENCEVILLE,IL
205,13810,58.2,75.7,260.2,-85.664,38.228,LOUISVILLE,KY
206,13833,65.7,81.0,292.2,-89.253,31.265,HATTIESBURG,MS
207,13837,62.1,77.3,290.4,-82.039,33.467,AUGUSTA,GA
208,13838,70.4,81.5,349.6,-88.068,30.626,MOBILE,AL
209,13839,66.0,79.2,318.7,-85.450,31.321,DOTHAN,AL
210,13841,55.9,71.1,285.5,-83.822,39.420,WILMINGTON,OH
211,13865,66.4,78.2,337.2,-88.751,32.333,MERIDIAN,MS
212,13866,58.2,72.5,298.4,-81.591,38.379,CHARLESTON,WV
213,13869,65.5,79.5,308.3,-84.194,31.536,ALBANY,GA
214,13870,66.3,77.8,341.6,-82.507,31.536,ALMA,GA
215,13871,64.4,76.8,328.0,-85.858,33.588,ANNISTON,AL
216,13873,60.8,75.4,296.6,-83.327,33.948,ATHENS,GA
217,13874,61.0,77.5,274.4,-84.427,33.640,ATLANTA,GA
218,13876,62.4,78.8,276.2,-86.754,33.564,BIRMINGHAM,AL
219,13877,57.0,72.3,284.8,-82.399,36.480,BRISTOL/JHNSN CTY/KNGSPRT,TN
220,13878,68.4,78.4,364.4,-81.391,31.252,BRUNSWICK,GA
221,13881,60.0,74.7,294.7,-80.944,35.214,CHARLOTTE,NC
222,13882,61.0,77.3,276.2,-85.200,35.033,CHATTANOOGA,TN
223,13883,62.2,77.5,289.2,-81.118,33.942,COLUMBIA,SC
224,13884,67.8,79.4,340.9,-86.523,30.780,CRESTVIEW,FL
225,13886,61.1,76.0,293.5,-82.346,34.846,GREENVILLE,SC
226,13891,59.3,76.0,270.7,-83.986,35.818,KNOXVILLE,TN
227,13893,61.6,80.3,250.3,-89.985,35.061,MEMPHIS,TN
228,13894,68.0,79.8,338.5,-88.246,30.688,MOBILE,AL
229,13895,66.6,79.1,328.0,-86.394,32.301,MONTGOMERY,AL
230,13896,60.2,77.8,260.8,-87.610,34.745,MUSCLE SHOALS,AL
231,13897,57.2,77.1,233.7,-86.689,36.119,NASHVILLE,TN
232,13899,69.5,80.7,347.7,-87.188,30.473,PENSACOLA,FL
233,13904,67.9,83.2,294.1,-97.681,30.179,AUSTIN/BERGSTROM,TX
234,13911,64.7,84.0,246.6,-97.441,32.769,FORT WORTH,TX
235,13920,60.8,78.0,265.7,-95.664,38.950,TOPEKA,KS
236,13927,66.6,80.1,315.0,-90.223,32.335,JACKSON,MS
237,13932,62.8,79.8,270.1,-97.037,37.168,WINFIELD/ARKANSAS CITY,KS
238,13935,67.8,81.2,317.5,-92.296,31.395,ALEXANDRIA,LA
239,13939,66.6,78.5,336.0,-90.986,33.483,GREENVILLE,MS
240,13942,66.1,81.8,287.9,-92.038,32.511,MONROE,LA
241,13957,67.3,82.3,297.2,-93.824,32.447,SHREVEPORT,LA
242,13958,67.1,85.1,262.7,-97.767,30.317,AUSTIN/CITY,TX
243,13959,67.0,84.2,271.3,-97.229,31.611,WACO,TX
244,13960,65.8,84.8,250.9,-96.851,32.847,DALLAS,TX
245,13961,67.0,83.4,280.5,-97.361,32.819,FORT WORTH,TX
246,13962,62.7,82.6,238.6,-99.682,32.411,ABILENE,TX
247,13963,63.0,80.5,264.5,-92.233,34.747,LITTLE ROCK,AR
248,13964,61.9,82.6,230.0,-94.365,35.334,FORT SMITH,AR
249,13966,64.1,82.5,255.9,-98.493,33.979,WICHITA FALLS,TX
250,13967,64.6,80.0,289.8,-97.600,35.389,OKLAHOMA CITY,OK
251,13968,63.7,80.7,270.7,-95.886,36.198,TULSA,OK
252,13969,61.5,80.6,246.0,-97.100,36.731,PONCA CITY,OK
253,13971,58.5,77.3,246.6,-93.155,36.261,HARRISON,AR
254,13972,67.1,81.9,299.0,-95.402,32.354,TYLER,TX
255,13973,61.9,84.8,209.0,-99.766,30.511,JUNCTION,TX
256,13975,57.9,80.1,211.5,-99.775,36.297,GAGE,OK
257,13976,70.1,81.7,342.8,-91.988,30.205,LAFAYETTE,LA
258,13977,63.7,82.5,250.9,-94.008,33.454,TEXARKANA,AR
259,13978,65.2,77.6,328.6,-90.084,33.496,GREENWOOD,MS
260,13981,63.2,77.3,305.2,-95.484,37.670,CHANUTE,KS
261,13985,53.4,79.2,175.7,-99.970,37.773,DODGE CITY,KS
262,13986,60.1,78.9,247.9,-97.861,38.068,HUTCHINSON,KS
263,13987,61.4,77.8,275.6,-94.498,37.149,JOPLIN,MO
264,13988,60.3,79.7,241.7,-94.593,39.123,KANSAS CITY,MO
265,13989,61.4,77.3,281.8,-96.190,38.331,EMPORIA,KS
266,13993,61.0,76.2,289.8,-94.907,39.774,ST JOSEPH,MO
267,13994,56.1,78.2,210.9,-90.374,38.753,ST LOUIS,MO
268,13995,57.6,76.0,249.7,-93.390,37.240,SPRINGFIELD,MO
269,13996,62.5,79.0,275.6,-95.626,39.073,TOPEKA,KS
270,13997,57.7,74.9,263.3,-91.769,38.128,ROLLA/VICHY,MO
271,14605,53.1,63.0,355.7,-69.797,44.321,AUGUSTA,ME
272,14606,53.1,61.8,374.2,-68.824,44.808,BANGOR,ME
273,14607,51.5,61.6,351.4,-68.033,46.867,CARIBOU,ME
274,14609,51.6,60.2,374.8,-67.792,46.123,HOULTON,ME
275,14610,52.5,63.1,344.6,-68.686,45.648,MILLINOCKET,ME
276,14702,55.4,65.2,358.8,-71.289,42.470,BEDFORD,MA
277,14707,57.2,66.0,375.5,-72.049,41.328,GROTON NEW LONDON,CT
278,14710,53.7,66.9,308.9,-71.438,42.933,MANCHESTER,NH
279,14711,58.3,71.2,316.9,-76.763,40.194,HARRISBURG,PA
280,14712,57.8,71.1,311.4,-75.959,40.373,READING,PA
281,14719,56.6,66.2,362.5,-72.632,40.844,WESTHAMPTON BEACH,NY
282,14732,57.6,72.9,285.5,-73.881,40.779,NEW YORK,NY
283,14733,55.1,68.2,311.4,-78.736,42.941,BUFFALO,NY
284,14734,56.5,72.4,277.4,-74.169,40.716,NEWARK,NJ
285,14735,55.9,67.6,331.1,-73.803,42.748,ALBANY,NY
286,14736,55.5,68.2,317.5,-78.317,40.300,ALTOONA,PA
287,14737,57.1,69.5,322.4,-75.449,40.651,ALLENTOWN,PA
288,14739,55.1,66.8,331.1,-71.011,42.361,BOSTON,MA
289,14740,55.2,68.5,308.9,-72.683,41.938,WINDSOR LOCKS,CT
290,14742,54.3,67.3,312.6,-73.150,44.468,BURLINGTON,VT
291,14745,53.9,64.7,342.8,-71.501,43.195,CONCORD,NH
292,14747,55.8,67.9,325.5,-79.272,42.493,DUNKIRK,NY
293,14748,55.1,66.2,339.1,-76.892,42.159,ELMIRA/CORNING,NY
294,14750,56.4,67.1,345.9,-73.610,43.341,GLENS FALLS,NY
295,14751,57.9,71.5,307.0,-76.851,40.217,HARRISBURG,PA
296,14752,55.8,69.0,310.7,-72.651,41.736,HARTFORD,CT
297,14756,57.2,62.3,437.7,-70.061,41.253,NANTUCKET,MA
298,14757,57.8,68.3,350.2,-73.884,41.627,POUGHKEEPSIE,NY
299,14758,58.1,69.3,339.7,-72.887,41.264,NEW HAVEN,CT
300,14762,53.8,71.2,257.7,-79.922,40.355,PITTSBURGH,PA
301,14763,54.2,63.8,361.3,-73.289,42.427,PITTSFIELD,MA
302,14764,54.5,63.3,373.6,-70.304,43.642,PORTLAND,ME
303,14765,55.6,66.5,342.8,-71.433,41.722,PROVIDENCE,RI
304,14768,56.2,68.4,324.9,-77.677,43.117,ROCHESTER,NY
305,14770,58.8,69.8,343.4,-76.864,40.821,SELINSGROVE,PA
306,14771,56.7,68.8,326.1,-76.103,43.109,SYRACUSE,NY
307,14775,54.6,67.7,311.4,-72.716,42.158,WESTFIELD/SPRINGFIELD,MA
308,14777,55.7,67.3,332.9,-75.727,41.339,WILKES-BARRE/SCRANTON,PA
309,14778,56.9,69.1,324.9,-76.922,41.243,WILLIAMSPORT,PA
310,14787,56.1,65.1,371.8,-71.284,41.530,NEWPORT,RI
311,14792,57.8,70.6,317.5,-74.814,40.277,TRENTON,NJ
312,14794,57.5,66.4,373.6,-71.799,41.350,WESTERLY,RI
313,14813,54.4,69.9,280.5,-81.464,41.038,AKRON,OH
314,14815,52.5,70.2,252.8,-85.251,42.308,BATTLE CREEK,MI
315,14819,53.8,74.2,225.7,-87.752,41.786,CHICAGO,IL
316,14820,55.6,71.4,278.1,-81.853,41.405,CLEVELAND,OH
317,14821,54.8,72.9,250.9,-82.881,39.991,COLUMBUS,OH
318,14822,54.1,72.4,247.9,-83.010,42.409,DETROIT,MI
319,14826,53.3,69.2,275.0,-83.749,42.967,FLINT,MI
320,14827,53.4,72.1,242.9,-85.206,41.006,FORT WAYNE,IN
321,14829,52.8,71.7,240.5,-85.792,41.527,GOSHEN,IN
322,14833,54.1,69.2,284.8,-84.459,42.260,JACKSON,MI
323,14835,52.8,71.7,240.5,-86.937,40.412,LAFAYETTE,IN
324,14836,53.5,69.8,270.1,-84.579,42.780,LANSING,MI
325,14837,54.1,71.6,256.5,-89.345,43.141,MADISON,WI
326,14839,53.7,71.3,255.3,-87.897,42.947,MILWAUKEE,WI
327,14841,53.7,64.0,350.2,-84.796,45.571,PELLSTON,MI
328,14842,57.6,73.1,283.0,-89.684,40.668,PEORIA,IL
329,14845,54.3,69.8,280.5,-84.080,43.533,SAGINAW,MI
330,14848,53.7,71.5,252.8,-86.333,41.707,SOUTH BEND,IN
331,14850,53.0,68.2,283.0,-85.583,44.741,TRAVERSE CITY,MI
332,14852,55.0,68.7,303.3,-80.674,41.254,YOUNGSTOWN/WARREN,OH
333,14853,53.9,72.5,244.2,-83.230,42.237,DETROIT,MI
334,14858,52.0,62.8,341.6,-88.506,47.169,HANCOCK,MI
335,14860,55.7,69.5,302.7,-80.183,42.080,ERIE,PA
336,14880,55.1,69.9,289.8,-87.868,42.422,CHICAGO/WAUKEGAN,IL
337,14891,55.2,69.4,297.2,-82.518,40.820,MANSFIELD,OH
338,14894,54.4,70.2,276.8,-80.647,40.176,WHEELING,WV
339,14895,53.0,70.7,253.4,-81.443,40.918,AKRON,OH
340,14897,53.8,68.3,292.2,-89.627,44.929,WAUSAU,WI
341,14898,53.9,70.5,267.0,-88.120,44.513,GREEN BAY,WI
342,14910,54.7,67.7,312.6,-95.393,45.883,ALEXANDRIA,MN
343,14914,52.7,70.0,257.7,-96.811,46.925,FARGO,ND
344,14916,54.5,66.4,327.4,-97.176,47.949,GRAND FORKS,ND
345,14919,53.4,67.9,292.2,-98.678,46.930,JAMESTOWN,ND
346,14920,57.4,72.5,287.9,-91.256,43.754,LA CROSSE,WI
347,14921,55.2,71.1,276.2,-90.181,43.212,LONE ROCK,WI
348,14922,55.0,72.3,259.6,-93.229,44.883,MINNEAPOLIS,MN
349,14923,57.9,72.0,300.9,-90.523,41.465,MOLINE,IL
350,14925,55.5,71.0,281.1,-92.492,43.904,ROCHESTER,MN
351,14926,55.1,68.8,304.0,-94.052,45.545,ST CLOUD,MN
352,14927,56.8,74.2,260.2,-93.048,44.930,ST PAUL,MN
353,14929,54.1,70.7,267.0,-98.421,45.450,ABERDEEN,SD
354,14931,59.3,72.6,312.0,-91.125,40.783,BURLINGTON,IA
355,14933,59.1,75.7,271.3,-93.666,41.538,DES MOINES,IA
356,14935,60.0,75.7,283.0,-98.313,40.958,GRAND ISLAND,NE
357,14937,57.5,73.1,281.8,-91.543,41.633,IOWA CITY,IA
358,14938,58.9,73.3,297.8,-92.543,40.097,KIRKSVILLE,MO
359,14939,60.3,75.1,294.1,-96.764,40.831,LINCOLN,NE
360,14940,56.3,70.6,297.2,-93.331,43.158,MASON CITY,IA
361,14941,58.0,73.6,282.4,-97.437,41.981,NORFOLK,NE
362,14942,60.8,76.1,287.9,-95.899,41.310,OMAHA,NE
363,14943,60.6,73.2,322.4,-96.379,42.391,SIOUX CITY,IA
364,14944,56.1,72.1,275.6,-96.754,43.577,SIOUX FALLS,SD
365,14946,54.5,68.9,294.1,-97.154,44.931,WATERTOWN,SD
366,14950,59.4,74.0,295.9,-92.448,41.107,OTTUMWA,IA
367,14972,58.6,71.9,312.0,-95.202,43.164,SPENCER,IA
368,14990,56.5,71.7,286.1,-91.709,41.884,CEDAR RAPIDS,IA
369,14991,55.5,69.4,301.5,-91.485,44.865,EAU CLAIRE,WI
370,14992,57.0,71.5,294.7,-95.082,44.547,REDWOOD FALLS,MN
371,21504,66.1,74.4,388.4,-155.051,19.723,HILO,HI
372,21510,65.1,78.2,319.4,-156.049,19.736,KAILUA/KONA,HI
373,22010,63.3,88.5,189.9,-100.922,29.367,DEL RIO,TX
374,22501,63.0,77.6,298.4,-159.789,22.025,"KEKAHA, KAUAI",HI
375,22516,63.6,77.1,312.6,-156.433,20.902,KAHULUI,HI
376,22521,65.1,78.8,311.4,-157.943,21.328,HONOLULU,HI
377,22534,64.1,75.5,341.6,-157.099,21.157,KAUNAKAKAI,HI
378,22536,66.6,77.7,347.1,-159.341,21.979,LIHUE,HI
379,22551,63.7,77.1,314.4,-158.067,21.317,KAPOLEI,HI
380,23007,60.0,82.3,212.7,-100.288,34.434,CHILDRESS,TX
381,23009,44.7,83.1,83.9,-104.541,33.308,ROSWELL,NM
382,23023,55.1,84.4,150.5,-102.208,31.932,MIDLAND,TX
383,23034,59.3,85.5,178.2,-100.494,31.351,SAN ANGELO,TX
384,23040,51.5,85.7,114.1,-103.201,31.780,WINK,TX
385,23042,55.3,80.5,182.5,-101.821,33.668,LUBBOCK,TX
386,23044,30.4,86.3,6.2,-106.376,31.811,EL PASO,TX
387,23047,53.1,78.9,175.1,-101.706,35.219,AMARILLO,TX
388,23048,45.3,82.5,90.7,-103.603,35.182,TUCUMCARI,NM
389,23049,29.1,74.3,39.5,-106.089,35.617,SANTA FE,NM
390,23050,29.0,80.4,17.9,-106.616,35.042,ALBUQUERQUE,NM
391,23052,40.6,73.4,112.3,-104.502,36.741,RATON,NM
392,23054,34.9,70.2,91.9,-105.143,35.654,LAS VEGAS,NM
393,23055,37.9,81.0,55.5,-104.809,31.831,GUADALUPE PASS,TX
394,23061,28.8,64.5,83.3,-105.866,37.436,ALAMOSA,CO
395,23064,53.5,78.1,186.2,-100.725,37.927,GARDEN CITY,KS
396,23065,47.7,77.0,143.1,-101.693,39.368,GOODLAND,KS
397,23066,24.2,78.0,7.5,-108.538,39.134,GRAND JUNCTION,CO
398,23067,40.8,80.6,73.4,-103.527,38.051,LA JUNTA,CO
399,23070,36.6,75.5,74.0,-104.341,37.259,TRINIDAD,CO
400,23078,27.5,80.3,12.4,-107.721,32.262,DEMING,NM
401,23081,20.0,68.4,20.4,-108.789,35.511,GALLUP,NM
402,23090,21.5,74.4,7.5,-108.229,36.744,FARMINGTON,NM
403,23091,52.8,84.2,133.2,-102.912,30.915,FORT STOCKTON,TX
404,23110,45.5,73.7,149.2,-119.950,36.333,LEMOORE,CA
405,23129,55.2,68.9,304.0,-118.163,33.828,LONG BEACH,CA
406,23130,51.4,70.9,232.5,-118.489,34.210,VAN NUYS,CA
407,23136,55.2,63.5,382.2,-119.083,34.217,CAMARILLO,CA
408,23152,52.8,69.0,270.7,-118.359,34.201,BURBANK,CA
409,23153,12.1,69.6,0.0,-117.087,38.060,TONOPAH,NV
410,23154,16.2,62.7,23.5,-114.845,39.295,ELY,NV
411,23155,44.1,77.5,111.6,-119.056,35.434,BAKERSFIELD,CA
412,23157,23.4,71.2,25.3,-118.363,37.373,BISHOP,CA
413,23158,34.3,90.4,8.7,-114.717,33.619,BLYTHE,CA
414,23159,19.0,58.3,55.5,-112.146,37.706,BRYCE CANYON,UT
415,23160,34.2,87.8,15.5,-110.955,32.131,TUCSON,AZ
416,23161,31.8,84.2,17.3,-116.787,34.854,DAGGETT,CA
417,23169,14.3,89.2,0.0,-115.155,36.079,LAS VEGAS,NV
418,23174,56.3,65.3,371.8,-118.406,33.938,LOS ANGELES,CA
419,23176,20.9,70.0,18.6,-113.028,38.443,MILFORD,UT
420,23179,26.1,93.9,0.0,-114.623,34.766,NEEDLES,CA
421,23182,35.3,75.8,64.8,-118.084,34.629,PALMDALE,CA
422,23183,36.0,93.8,5.0,-111.990,33.443,PHOENIX,AZ
423,23184,26.6,74.5,27.2,-112.421,34.652,PRESCOTT,AZ
424,23188,55.8,65.2,365.0,-117.169,32.735,SAN DIEGO,CA
425,23190,54.2,61.7,394.6,-119.844,34.426,SANTA BARBARA,CA
426,23191,50.5,61.9,331.7,-118.416,33.405,AVALON,CA
427,23194,23.8,76.1,11.2,-110.722,35.022,WINSLOW,AZ
428,23199,40.4,87.0,43.8,-115.667,32.817,EL CENTRO,CA
429,23213,47.0,65.2,242.3,-122.812,38.509,SANTA ROSA,CA
430,23225,35.8,60.5,167.7,-120.708,39.292,EMIGRANT GAP,CA
431,23230,50.4,60.5,350.8,-122.221,37.755,OAKLAND,CA
432,23232,46.8,71.1,181.9,-121.493,38.513,SACRAMENTO,CA
433,23233,48.6,61.4,310.7,-121.605,36.663,SALINAS,CA
434,23234,47.6,61.4,296.6,-122.398,37.620,SAN FRANCISCO,CA
435,23244,50.1,65.2,281.8,-122.048,37.415,MOUNTAIN VIEW,CA
436,23254,46.4,67.9,207.8,-122.052,37.992,CONCORD,CA
437,23257,47.7,74.5,162.2,-120.513,37.285,MERCED,CA
438,23258,45.4,73.6,148.6,-120.953,37.626,MODESTO,CA
439,23259,48.4,59.2,339.1,-121.845,36.588,MONTEREY,CA
440,23273,50.3,60.6,347.7,-120.465,34.916,SANTA MARIA,CA
441,23275,45.6,66.6,211.5,-123.201,39.126,UKIAH,CA
442,23285,46.3,68.1,204.7,-121.817,37.694,LIVERMORE,CA
443,23293,49.1,66.5,253.4,-121.928,37.362,SAN JOSE,CA
444,24011,53.5,67.2,302.7,-100.748,46.774,BISMARCK,ND
445,24012,50.7,65.1,291.0,-102.802,46.797,DICKINSON,ND
446,24013,52.6,65.7,309.5,-101.281,48.259,MINOT,ND
447,24015,40.5,75.7,97.5,-103.232,40.172,AKRON,CO
448,24017,48.8,74.2,174.5,-103.095,42.838,CHADRON,NE
449,24018,35.9,67.9,112.9,-104.807,41.158,CHEYENNE,WY
450,24021,28.7,68.2,63.6,-108.733,42.817,LANDER,WY
451,24022,30.3,64.1,96.2,-105.674,41.313,LARAMIE,WY
452,24023,55.1,75.3,228.8,-100.668,41.122,NORTH PLATTE,NE
453,24024,53.2,73.2,228.8,-101.601,44.051,PHILIP,SD
454,24025,55.0,72.4,259.0,-100.286,44.383,PIERRE,SD
455,24027,21.9,65.7,38.9,-109.065,41.594,ROCK SPRINGS,WY
456,24028,46.3,75.3,143.7,-103.595,41.874,SCOTTSBLUFF,NE
457,24029,44.7,65.9,209.0,-106.976,44.774,SHERIDAN,WY
458,24030,45.1,76.7,124.6,-102.985,41.101,SIDNEY,NE
459,24032,54.4,75.3,221.4,-100.551,42.859,VALENTINE,NE
460,24033,41.2,68.7,149.9,-108.543,45.808,BILLINGS,MT
461,24036,44.6,58.9,287.3,-109.467,47.049,LEWISTOWN,MT
462,24037,44.6,71.0,162.2,-105.886,46.428,MILES CITY,MT
463,24044,46.8,73.3,163.4,-102.800,42.057,ALLIANCE,NE
464,24046,28.8,64.3,84.5,-107.521,40.495,CRAIG,CO
465,24048,34.0,71.0,81.4,-108.082,44.517,GREYBULL,WY
466,24057,22.0,65.7,38.9,-107.200,41.806,RAWLINS,WY
467,24061,26.5,68.8,48.8,-108.459,43.064,RIVERTON,WY
468,24062,32.5,70.2,76.5,-107.951,43.966,WORLAND,WY
469,24089,32.5,67.6,90.7,-106.473,42.898,CASPER,WY
470,24090,50.0,70.3,223.2,-103.054,44.046,RAPID CITY,SD
471,24091,52.4,77.1,183.8,-101.620,40.510,IMPERIAL,NE
472,24110,42.3,64.0,201.6,-119.319,47.208,MOSES LAKE,WA
473,24112,41.7,61.5,220.1,-111.187,47.504,GREAT FALLS,MT
474,24121,25.6,64.3,64.8,-115.792,40.825,ELKO,NV
475,24127,32.9,73.6,61.7,-111.968,40.787,SALT LAKE CITY,UT
476,24128,24.2,63.8,59.2,-117.807,40.902,WINNEMUCCA,NV
477,24130,41.5,56.7,273.1,-117.810,44.838,BAKER CITY,OR
478,24131,36.7,67.3,122.7,-116.220,43.565,BOISE,ID
479,24132,39.2,60.0,207.8,-111.152,45.794,BOZEMAN,MT
480,24133,39.0,62.4,182.5,-113.772,42.543,BURLEY,ID
481,24135,32.9,56.0,178.8,-112.513,45.953,BUTTE,MT
482,24137,42.3,57.7,271.3,-112.376,48.608,CUT BANK,MT
483,24138,33.8,59.0,161.6,-112.552,45.255,DILLON,MT
484,24141,40.6,64.2,181.9,-119.514,47.304,EPHRATA,WA
485,24143,42.5,61.3,231.8,-111.382,47.473,GREAT FALLS,MT
486,24144,38.6,62.8,175.1,-111.964,46.606,HELENA,MT
487,24145,36.3,61.7,162.2,-112.067,43.516,IDAHO FALLS,ID
488,24146,46.3,57.2,336.0,-114.264,48.304,KALISPELL,MT
489,24149,46.5,65.5,233.1,-117.014,46.375,LEWISTON,ID
490,24150,37.1,62.4,164.0,-110.448,45.699,LIVINGSTON,MT
491,24152,41.3,51.9,336.6,-118.425,45.511,MEACHAM,OR
492,24153,42.2,59.5,248.5,-114.093,46.921,MISSOULA,MT
493,24154,38.6,46.7,375.5,-115.645,47.457,MULLAN PASS,ID
494,24155,44.3,61.8,247.9,-118.834,45.698,PENDLETON,OR
495,24156,34.4,63.0,135.1,-112.571,42.920,POCATELLO,ID
496,24157,44.9,59.6,282.4,-117.528,47.621,SPOKANE,WA
497,24160,45.9,63.6,247.2,-118.287,46.095,WALLA WALLA,WA
498,24162,39.2,67.1,144.9,-117.013,44.021,ONTARIO,OR
499,24163,46.3,65.0,236.2,-119.118,46.265,PASCO,WA
500,24164,25.7,57.0,107.3,-110.108,42.584,BIG PINEY,WY
501,24172,25.1,69.0,41.4,-118.565,40.066,LOVELOCK,NV
502,24215,39.2,59.9,208.4,-122.333,41.333,MOUNT SHASTA,CA
503,24216,41.1,75.6,102.4,-122.254,40.152,RED BLUFF,CA
504,24217,48.9,56.1,396.4,-122.537,48.794,BELLINGHAM,WA
505,24219,46.0,64.8,234.9,-121.167,45.619,THE DALLES,OR
506,24220,42.7,61.3,234.3,-120.530,47.034,ELLENSBURG,WA
507,24221,49.4,59.2,354.5,-123.214,44.133,EUGENE,OR
508,24222,47.9,56.3,376.1,-122.280,47.908,EVERETT,WA
509,24225,45.5,64.1,236.8,-122.871,42.389,MEDFORD,OR
510,24227,48.1,56.5,376.1,-122.903,46.973,OLYMPIA,WA
511,24229,48.8,61.2,316.3,-122.600,45.591,PORTLAND,OR
512,24230,38.6,56.2,241.7,-121.150,44.254,REDMOND,OR
513,24231,48.8,61.6,310.7,-123.355,43.239,ROSEBURG,OR
514,24232,48.9,61.8,309.5,-122.995,44.908,SALEM,OR
515,24233,47.3,58.3,335.4,-122.314,47.461,SEATTLE,WA
516,24234,48.0,58.7,340.3,-122.301,47.530,SEATTLE,WA
517,24235,42.2,52.5,342.2,-123.381,42.617,SEXTON SUMMIT,OR
518,24242,49.9,60.4,344.6,-122.400,45.549,PORTLAND,OR
519,24243,42.2,62.6,214.6,-120.534,46.564,YAKIMA,WA
520,24255,47.4,53.7,411.8,-122.650,48.350,WHIDBEY ISLAND,WA
521,24257,41.8,74.7,112.9,-122.313,40.515,REDDING,CA
522,24259,40.2,61.0,208.4,-122.468,41.781,MONTAGUE,CA
523,24283,48.8,54.3,426.6,-124.109,40.978,ARCATA/EUREKA,CA
524,24286,49.6,53.9,449.4,-124.237,41.780,CRESCENT CITY,CA
525,25308,46.0,52.9,400.1,-131.570,55.043,ANNETTE,AK
526,25309,46.2,51.7,425.4,-134.575,58.355,JUNEAU,AK
527,25323,45.5,54.2,369.3,-135.520,59.245,HAINES,AK
528,25325,46.4,52.8,409.4,-131.712,55.357,KETCHIKAN,AK
529,25331,44.1,54.7,339.1,-149.092,61.596,PALMER,AK
530,25333,46.1,50.5,446.3,-135.360,57.048,SITKA,AK
531,25335,43.8,53.2,357.0,-135.313,59.460,SKAGWAY,AK
532,25339,44.6,48.6,453.7,-139.628,59.510,YAKUTAT,AK
533,25367,46.1,51.5,427.2,-133.075,55.580,KLAWOCK,AK
534,25501,42.7,50.5,382.9,-152.492,57.750,KODIAK,AK
535,25503,41.6,49.0,389.0,-156.654,58.684,KING SALMON,AK
536,25506,42.8,50.5,384.7,-154.915,59.753,ILIAMNA,AK
537,25507,42.5,48.0,423.5,-151.477,59.647,HOMER,AK
538,25516,43.1,50.4,391.5,-151.702,59.443,SELDOVIA,AK
539,25624,37.8,43.9,410.6,-162.722,55.207,COLD BAY,AK
540,25628,37.1,40.4,465.5,-169.565,56.600,ST. GEORGE ISLAND,AK
541,26409,44.1,56.7,309.5,-149.855,61.217,ANCHORAGE,AK
542,26411,46.8,61.6,283.0,-147.855,64.817,FAIRBANKS,AK
543,26412,44.9,56.6,323.1,-141.946,62.961,NORTHWAY,AK
544,26415,44.8,57.9,303.3,-145.718,63.995,DELTA JUNCTION/FT GREELY,AK
545,26422,43.0,59.0,264.5,-141.148,64.777,EAGLE,AK
546,26425,40.5,52.6,313.8,-145.458,62.160,GULKANA,AK
547,26435,46.4,60.1,296.6,-149.072,64.550,NENANA,AK
548,26438,44.1,50.9,400.7,-149.417,60.128,SEWARD,AK
549,26451,44.0,54.8,336.0,-149.993,61.175,ANCHORAGE,AK
550,26491,44.6,57.7,303.3,-149.961,61.179,ANCHORAGE,AK
551,26492,41.8,51.8,346.5,-148.839,60.785,PORTAGE GLACIER,AK
552,26502,43.4,56.7,299.6,-158.742,64.327,KALTAG,AK
553,26510,46.0,58.5,312.6,-155.603,62.953,MC GRATH,AK
554,26523,43.3,51.1,383.5,-151.239,60.580,KENAI,AK
555,26528,46.5,55.5,365.6,-150.092,62.322,TALKEETNA,AK
556,26529,46.1,60.5,287.3,-152.107,65.174,TANANA,AK
557,26533,44.4,60.6,263.3,-151.509,66.916,BETTLES,AK
558,26615,41.9,51.0,360.7,-161.826,60.786,BETHEL,AK
559,26616,37.2,43.2,411.8,-162.597,66.885,KOTZEBUE,AK
560,26617,40.3,48.1,381.6,-165.443,64.513,NOME,AK
561,26642,34.6,38.9,443.9,-164.548,67.732,KIVALINA,AK
562,26643,36.4,45.4,358.8,-162.764,66.069,DEERING,AK
563,27406,36.7,42.5,415.5,-148.477,70.192,DEADHORSE,AK
564,27502,33.0,37.3,443.3,-156.763,71.287,BARROW,AK
565,27515,37.2,43.2,411.8,-151.002,70.212,NUIQSUT,AK
566,53119,47.0,74.9,152.9,-119.629,36.319,HANFORD,CA
567,53120,51.8,65.6,299.6,-116.917,33.033,RAMONA,CA
568,53121,55.1,64.6,363.1,-117.349,33.219,OCEANSIDE,CA
569,53123,20.5,86.9,0.0,-115.196,36.212,LAS VEGAS,NV
570,53146,29.3,78.8,24.1,-110.428,31.607,FORT HUACHUCA,AZ
571,53802,56.8,73.0,274.4,-88.280,39.478,MATTOON/CHARLESTON,IL
572,53819,62.9,75.0,331.1,-84.567,33.355,ATLANTA,GA
573,53820,67.7,78.6,350.8,-87.044,31.416,EVERGREEN,AL
574,53838,61.0,74.8,307.0,-83.830,34.272,GAINESVILLE,GA
575,53841,58.3,72.0,306.4,-84.903,38.185,FRANKFORT,KY
576,53842,54.0,72.7,243.5,-86.296,39.825,INDIANAPOLIS,IN
577,53843,66.7,80.7,308.9,-86.394,31.309,ANDALUSIA (FT RUCKER),AL
578,53844,55.6,69.9,296.6,-82.657,39.756,LANCASTER,OH
579,53847,68.8,79.2,358.8,-87.023,30.704,MILTON,FL
580,53848,67.3,79.2,336.6,-86.960,30.507,MILTON,FL
581,53850,62.7,77.2,299.6,-82.886,34.672,CLEMSON,SC
582,53852,61.2,77.3,278.7,-86.945,34.653,DECATUR,AL
583,53853,69.8,78.5,384.1,-86.472,30.400,DESTIN,FL
584,53854,63.4,75.9,326.1,-80.858,33.462,ORANGEBURG,SC
585,53855,57.1,71.4,297.8,-84.525,39.364,HAMILTON,OH
586,53858,69.3,79.1,367.4,-88.532,30.464,PASCAGOULA,MS
587,53859,56.3,71.8,281.8,-84.226,39.594,DAYTON,OH
588,53860,68.4,79.1,353.9,-81.515,30.336,JACKSONVILLE,FL
589,53861,66.5,78.6,333.5,-85.751,31.356,FORT RUCKER/OZARK,AL
590,53862,68.1,78.6,357.0,-83.574,30.072,PERRY-FOLEY,FL
591,53863,60.8,76.2,286.7,-84.302,33.875,ATLANTA,GA
592,53864,64.6,78.7,305.8,-86.782,33.178,ALABASTER,AL
593,53865,71.4,80.2,383.5,-89.821,30.345,SLIDELL,LA
594,53866,55.4,73.1,255.9,-85.803,39.578,SHELBYVILLE,IN
595,53867,63.2,77.7,299.6,-80.996,33.971,COLUMBIA,SC
596,53868,58.9,76.0,265.7,-84.233,36.023,OAK RIDGE,TN
597,53869,61.3,78.4,267.6,-89.831,35.940,BLYTHEVILLE,AR
598,53870,61.1,74.0,318.7,-81.156,35.197,GASTONIA,NC
599,53871,62.6,74.3,336.0,-81.058,34.987,ROCK HILL,SC
600,53872,61.7,74.4,321.8,-80.621,35.017,MONROE,NC
601,53873,62.4,75.1,322.4,-84.849,34.123,CARTERSVILLE,GA
602,53874,62.6,75.0,326.8,-82.159,34.249,GREENWOOD,SC
603,53879,59.7,77.4,259.6,-94.371,38.960,LEE'S SUMMIT,MO
604,53901,57.5,74.9,260.8,-91.903,36.878,WEST PLAINS,MO
605,53902,70.6,81.3,355.7,-95.414,30.352,CONROE,TX
606,53904,58.4,75.0,270.7,-90.428,38.929,ST CHARLES,MO
607,53905,67.3,82.2,298.4,-93.744,32.540,SHREVEPORT,LA
608,53908,63.1,80.3,268.2,-95.984,36.039,TULSA,OK
609,53909,65.3,90.0,196.1,-97.318,32.973,FORT WORTH,TX
610,53910,71.7,82.1,360.7,-95.553,30.062,HOUSTON,TX
611,53911,66.7,82.8,283.6,-96.267,32.710,TERRELL,TX
612,53912,68.6,82.8,307.7,-96.398,32.027,CORSICANA,TX
613,53913,64.5,80.4,284.2,-97.416,35.850,GUTHRIE,OK
614,53914,66.9,82.0,295.3,-96.590,33.180,MC KINNEY,TX
615,53915,70.0,82.4,331.7,-91.884,30.038,NEW IBERIA,LA
616,53916,59.6,75.9,275.6,-93.579,39.823,CHILLICOTHE,MO
617,53917,71.1,83.6,331.1,-90.028,30.043,NEW ORLEANS,LA
618,53918,56.8,78.1,219.5,-92.470,36.369,MOUNTAIN HOME,AR
619,53919,65.5,79.6,306.4,-91.751,33.638,MONTICELLO,AR
620,53920,61.4,81.4,236.8,-93.095,35.258,RUSSELLVILLE,AR
621,53921,63.7,79.1,289.2,-93.578,34.547,MOUNT IDA,AR
622,53922,60.6,77.1,273.8,-94.307,36.282,FAYETTEVILLE/SPRINGDALE,AR
623,53925,65.5,79.5,308.3,-94.399,34.047,DE QUEEN,AR
624,53959,63.1,75.9,321.8,-90.234,35.135,WEST MEMPHIS,AR
625,53988,68.2,82.1,311.4,-92.967,31.150,FORT POLK,LA
626,54704,55.0,65.4,349.6,-71.174,42.191,NORWOOD,MA
627,54728,52.4,62.3,355.1,-71.545,44.368,WHITEFIELD,NH
628,54733,55.4,64.6,368.1,-70.918,42.584,BEVERLY,MA
629,54734,56.6,66.4,359.4,-73.483,41.371,DANBURY,CT
630,54737,57.2,70.7,308.3,-76.294,40.120,LANCASTER,PA
631,54740,52.8,65.6,313.8,-72.518,43.344,SPRINGFIELD,VT
632,54742,52.9,63.9,339.1,-72.019,44.419,SAINT JOHNSBURY,VT
633,54743,56.6,70.3,305.2,-74.283,40.876,CALDWELL,NJ
634,54756,54.8,65.2,349.6,-72.291,42.570,ORANGE,MA
635,54757,52.7,64.7,324.9,-77.992,42.109,WELLSVILLE,NY
636,54767,56.1,67.1,341.6,-72.184,41.742,WILLIMANTIC,CT
637,54768,52.7,64.7,324.9,-73.171,42.696,NORTH ADAMS,MA
638,54769,55.6,64.7,369.3,-70.729,41.910,PLYMOUTH,MA
639,54771,53.1,64.0,340.9,-72.614,44.534,MORRISVILLE,VT
640,54772,54.2,63.4,367.4,-70.948,43.991,FRYEBURG,ME
641,54773,56.7,66.6,358.2,-76.385,43.350,FULTON,NY
642,54777,55.8,64.7,373.0,-71.021,41.876,TAUNTON,MA
643,54778,55.4,67.8,321.2,-77.056,42.643,PENN YAN,NY
644,54780,58.6,67.1,381.0,-71.923,41.073,MONTAUK,NY
645,54781,54.8,64.1,366.2,-73.247,42.891,BENNINGTON,VT
646,54782,57.5,69.5,328.6,-75.557,40.238,POTTSTOWN,PA
647,54785,57.6,69.0,336.6,-74.669,40.624,SOMERVILLE,NJ
648,54786,57.4,69.4,328.0,-75.123,40.330,DOYLESTOWN,PA
649,54787,58.4,69.0,349.0,-73.417,40.734,FARMINGDALE,NY
650,54788,56.2,67.2,341.6,-72.828,41.510,MERIDEN,CT
651,54790,58.1,68.4,353.3,-72.869,40.822,SHIRLEY,NY
652,54791,54.6,64.3,359.4,-70.922,43.278,ROCHESTER,NH
653,54792,54.0,65.2,337.2,-78.412,41.047,CLEARFIELD,PA
654,54793,57.5,67.1,363.1,-74.623,41.200,SUSSEX,NJ
655,54813,52.4,62.6,350.8,-86.651,46.429,MUNISING,MI
656,63870,67.7,79.0,345.3,-86.312,31.043,FLORALA,AL
657,63872,66.1,78.6,328.0,-85.129,31.951,EUFAULA,AL
658,64775,56.3,65.9,362.5,-75.412,43.234,ROME,NY
659,64776,54.9,65.7,343.4,-73.468,44.651,PLATTSBURG,NY
660,73805,69.5,79.2,369.3,-85.788,30.349,PANAMA CITY,FL
661,92805,72.5,81.7,378.5,-80.108,26.250,POMPANO BEACH,FL
662,92806,72.6,81.2,387.2,-82.628,27.765,ST PETERSBURG,FL
663,92809,72.0,82.5,359.4,-80.241,25.999,HOLLYWOOD,FL
664,93005,24.5,66.9,46.9,-107.760,37.143,DURANGO,CO
665,93009,21.5,53.8,96.2,-106.316,39.228,LEADVILLE,CO
666,93010,39.0,69.9,123.3,-103.716,39.189,LIMON,CO
667,93013,26.2,73.6,29.0,-107.898,38.505,MONTROSE,CO
668,93026,29.6,81.0,18.6,-109.604,31.469,DOUGLAS BISBEE,AZ
669,93027,24.3,74.1,19.2,-109.379,34.518,ST JOHNS,AZ
670,93033,44.8,83.4,83.3,-104.263,32.338,CARLSBAD,NM
671,93037,35.8,73.3,80.2,-104.711,38.812,COLORADO SPRINGS,CO
672,93042,51.8,77.5,175.1,-102.547,36.023,DALHART,TX
673,93045,27.6,82.4,6.8,-107.268,33.237,TRUTH OR CONSEQUENCES,NM
674,93057,21.5,68.1,27.8,-107.902,35.165,GRANTS,NM
675,93058,36.9,77.0,68.5,-104.498,38.290,PUEBLO,CO
676,93067,38.2,72.4,101.2,-104.849,39.570,DENVER,CO
677,93069,26.1,69.6,43.8,-108.628,37.303,CORTEZ,CO
678,93073,26.1,63.1,74.0,-106.868,39.223,ASPEN,CO
679,93075,18.0,77.3,0.0,-109.754,38.755,MOAB,UT
680,93084,26.1,86.9,0.0,-109.635,32.855,SAFFORD,AZ
681,93102,25.4,67.8,47.5,-118.700,39.417,FALLON,NV
682,93104,29.6,81.0,18.6,-117.683,35.683,CHINA LAKE,CA
683,93107,53.9,65.9,325.5,-117.150,32.867,MIRAMAR,CA
684,93110,54.7,63.2,378.5,-119.206,34.201,OXNARD,CA
685,93111,55.3,61.2,422.3,-119.117,34.117,POINT MUGU,CA
686,93112,55.4,67.5,325.5,-117.200,32.700,SAN DIEGO,CA
687,93115,56.2,66.5,352.0,-117.117,32.567,IMPERIAL BEACH,CA
688,93129,21.5,68.8,25.3,-113.097,37.702,CEDAR CITY,UT
689,93134,55.3,68.0,316.9,-118.296,34.028,LOS ANGELES,CA
690,93138,40.1,88.2,37.7,-116.505,33.828,PALM SPRINGS,CA
691,93141,16.9,72.7,0.0,-110.750,39.545,PRICE,UT
692,93167,22.7,80.0,0.0,-113.937,35.259,KINGMAN,AZ
693,93184,55.8,67.6,329.8,-117.866,33.680,SANTA ANA,CA
694,93193,46.5,77.9,127.0,-119.719,36.780,FRESNO,CA
695,93197,54.3,64.9,345.9,-118.451,34.016,SANTA MONICA,CA
696,93205,48.0,73.4,173.9,-121.570,39.098,MARYSVILLE,CA
697,93206,49.3,62.4,307.0,-120.641,35.237,SAN LUIS OBISPO,CA
698,93209,44.4,68.5,181.3,-120.627,35.673,PASO ROBLES,CA
699,93210,47.1,73.5,164.6,-121.618,39.490,OROVILLE,CA
700,93225,47.9,72.4,181.3,-121.590,38.696,SACRAMENTO,CA
701,93227,49.0,64.4,276.8,-122.280,38.213,NAPA,CA
702,93228,50.3,62.9,314.4,-122.121,37.659,HAYWARD,CA
703,93230,32.1,54.4,185.6,-119.995,38.894,SOUTH LAKE TAHOE,CA
704,93241,45.4,71.3,167.1,-121.961,38.377,VACAVILLE,CA
705,93242,48.2,73.1,178.2,-120.111,36.988,MADERA,CA
706,93706,56.5,71.7,286.1,-77.730,39.708,HAGERSTOWN,MD
707,93718,65.0,74.5,369.3,-78.721,33.816,NORTH MYRTLE BEACH,SC
708,93719,63.4,74.9,339.7,-77.047,35.068,NEW BERN,NC
709,93720,59.3,73.4,302.1,-75.510,38.341,SALISBURY,MD
710,93721,57.5,73.6,275.6,-76.684,39.172,BALTIMORE,MD
711,93727,63.1,74.3,343.4,-77.433,34.700,NEW RIVER,NC
712,93729,64.8,75.5,351.4,-75.623,35.232,CAPE HATTERAS,NC
713,93730,58.8,69.9,342.2,-74.457,39.458,ATLANTIC CITY,NJ
714,93736,58.6,74.5,279.3,-78.453,38.139,CHARLOTTESVILLE,VA
715,93738,57.9,71.9,302.1,-77.448,38.935,WASHINGTON,DC
716,93739,59.0,73.2,300.3,-75.496,37.941,WALLOPS ISLAND,VA
717,93740,61.8,75.4,310.1,-78.880,34.991,FAYETTEVILLE,NC
718,93741,60.9,72.8,332.3,-76.493,37.132,NEWPORT NEWS,VA
719,93743,63.2,73.7,353.3,-77.030,34.691,SWANSBORO,NC
720,93759,61.5,74.0,324.3,-77.893,35.855,ROCKY MOUNT,NC
721,93762,56.6,72.0,283.6,-77.43333,39.73333,SITE R,PA
722,93765,65.3,75.8,355.1,-76.661,34.734,BEAUFORT,NC
723,93773,60.6,72.5,331.7,-77.007,36.984,WAKEFIELD,VA
724,93775,59.9,72.3,324.9,-77.434,37.708,RICHMOND/ASHLAND,VA
725,93778,57.1,69.6,321.2,-76.874,39.918,YORK,PA
726,93780,57.3,74.1,267.6,-74.841,39.941,MOUNT HOLLY,NJ
727,93782,61.7,74.9,315.0,-79.366,34.792,MAXTON,NC
728,93783,60.9,73.5,322.4,-79.477,36.047,BURLINGTON,NC
729,93784,57.0,78.8,214.6,-76.610,39.281,BALTIMORE,MD
730,93785,59.8,74.0,300.9,-79.064,35.933,CHAPEL HILL,NC
731,93786,62.1,70.2,389.0,-75.124,38.308,OCEAN CITY,MD
732,93801,62.5,76.2,309.5,-85.161,34.348,ROME,GA
733,93805,66.1,79.4,317.5,-84.353,30.393,TALLAHASSEE,FL
734,93806,64.1,79.9,284.8,-87.616,33.212,TUSCALOOSA,AL
735,93807,59.2,74.0,292.9,-80.222,36.134,WINSTON SALEM,NC
736,93808,59.0,76.0,267.0,-86.436,36.981,BOWLING GREEN,KY
737,93810,57.1,75.0,254.6,-89.250,37.780,CARBONDALE/MURPHYBORO,IL
738,93812,58.6,71.7,314.4,-84.419,39.103,CINCINNATI,OH
739,93814,56.6,73.1,270.7,-84.672,39.043,COVINGTON,KY
740,93817,56.7,76.1,238.6,-87.537,38.043,EVANSVILLE,IN
741,93819,54.6,74.6,230.6,-86.272,39.710,INDIANAPOLIS,IN
742,93820,57.7,72.4,292.9,-84.606,38.041,LEXINGTON,KY
743,93822,58.1,72.9,292.2,-89.684,39.845,SPRINGFIELD,IL
744,93831,65.4,76.7,343.4,-80.717,32.483,BEAUFORT,SC
745,93837,68.2,82.0,312.6,-81.683,30.233,JACKSONVILLE,FL
746,93841,70.8,80.8,365.6,-87.022,30.724,MILTON,FL
747,93842,62.7,79.4,273.1,-84.942,32.516,COLUMBUS,GA
748,93845,66.4,79.7,317.5,-83.277,30.783,VALDOSTA,GA
749,93862,62.8,78.0,291.0,-88.771,34.261,TUPELO,MS
750,93874,70.1,81.5,345.3,-89.070,30.407,GULFPORT,MS
751,93915,68.1,81.4,318.7,-92.559,31.335,ALEXANDRIA,LA
752,93919,66.3,80.4,307.0,-90.472,31.178,MCCOMB,MS
753,93950,65.4,79.3,308.9,-95.783,34.899,MC ALESTER,OK
754,93953,64.2,79.6,289.8,-95.361,35.657,MUSKOGEE,OK
755,93967,62.8,79.1,278.1,-95.566,37.091,COFFEYVILLE,KS
756,93986,62.4,81.6,245.4,-99.051,35.008,HOBART,OK
757,93987,68.2,82.4,307.7,-94.750,31.234,LUFKIN,TX
758,93988,65.5,78.8,316.9,-91.935,34.175,PINE BLUFF,AR
759,93989,57.1,74.9,255.9,-91.194,39.943,QUINCY,IL
760,93990,53.7,79.6,175.1,-99.830,39.376,HILL CITY,KS
761,93992,64.9,79.1,305.2,-92.813,33.221,EL DORADO,AR
762,93993,60.7,75.7,291.6,-94.170,36.005,FAYETTEVILLE,AR
763,93997,57.1,79.6,208.4,-98.828,38.872,RUSSELL,KS
764,94008,49.3,67.5,244.8,-106.621,48.214,GLASGOW,MT
765,94012,46.5,62.3,270.1,-109.780,48.559,HAVRE,MT
766,94014,51.2,64.3,308.3,-103.642,48.195,WILLISTON,ND
767,94017,50.4,64.3,297.2,-105.574,48.094,WOLF POINT,MT
768,94023,41.6,67.6,162.2,-105.542,44.339,GILLETTE,WY
769,94030,29.0,70.5,54.9,-109.509,40.441,VERNAL,UT
770,94032,43.9,63.7,222.6,-103.628,43.731,CUSTER,SD
771,94037,47.1,69.4,200.4,-103.546,45.604,BUFFALO,SD
772,94038,50.1,66.2,269.4,-102.655,46.014,HETTINGER,ND
773,94039,49.8,72.6,198.6,-102.518,43.021,PINE RIDGE,SD
774,94040,54.2,78.6,188.1,-100.591,40.206,MC COOK,NE
775,94041,53.2,64.6,333.5,-101.439,47.663,GARRISON,ND
776,94050,26.8,65.1,67.9,-107.885,40.049,MEEKER,CO
777,94051,46.9,65.8,234.9,-106.948,47.326,JORDAN,MT
778,94052,54.8,69.2,294.7,-100.408,45.546,MOBRIDGE,SD
779,94053,44.9,73.2,147.4,-104.153,42.065,TORRINGTON,WY
780,94054,40.2,67.5,150.5,-106.721,44.381,BUFFALO,WY
781,94055,46.6,67.1,217.7,-104.250,46.358,BAKER,MT
782,94056,51.2,70.7,232.5,-102.019,45.032,FAITH,SD
783,94057,37.6,70.4,109.2,-105.386,42.797,DOUGLAS,WY
784,94107,28.5,61.9,96.8,-117.864,42.591,ROME,OR
785,94119,47.5,57.2,355.1,-117.421,47.969,DEER PARK,WA
786,94128,35.8,63.7,141.8,-111.853,41.787,LOGAN,UT
787,94129,45.3,57.0,323.7,-117.109,46.744,PULLMAN/MOSCOW,WA
788,94173,29.5,48.9,212.7,-110.421,44.544,YELLOWSTONE,WY
789,94176,45.9,60.5,284.2,-117.321,47.683,SPOKANE,WA
790,94178,33.6,65.7,109.8,-114.487,42.482,TWIN FALLS,ID
791,94182,36.7,53.8,245.4,-116.102,44.889,MCCALL,ID
792,94185,34.6,56.5,192.4,-118.954,43.592,BURNS,OR
793,94194,36.2,61.2,165.3,-111.881,43.834,REXBURG,ID
794,94197,45.4,61.1,270.1,-119.517,48.464,OMAK,WA
795,94225,49.5,54.9,429.1,-123.937,46.971,HOQUIAM,WA
796,94227,48.0,55.4,392.7,-123.148,47.238,SHELTON,WA
797,94236,38.6,55.2,253.4,-121.724,42.147,KLAMATH FALLS,OR
798,94239,40.8,63.4,191.8,-120.207,47.399,WENATCHEE,WA
799,94240,47.4,52.9,426.0,-124.561,47.934,QUILLAYUTE,WA
800,94248,49.0,59.2,348.3,-122.214,47.493,RENTON,WA
801,94261,48.8,61.6,310.7,-122.949,45.541,PORTLAND,OR
802,94266,47.0,54.2,395.8,-123.498,48.120,PORT ANGELES,WA
803,94273,49.1,59.7,342.2,-123.134,45.195,MC MINNVILLE,OR
804,94274,47.5,57.1,356.3,-122.576,47.268,TACOMA,WA
805,94276,47.1,54.8,387.2,-123.023,48.522,FRIDAY HARBOR,WA
806,94281,49.8,59.7,353.3,-122.769,45.249,AURORA,OR
807,94298,48.9,61.6,312.0,-122.657,45.621,VANCOUVER,WA
808,94299,33.3,57.0,173.9,-120.567,41.483,ALTURAS,CA
809,94623,53.1,62.0,371.1,-69.712,43.964,WISCASSET,ME
810,94624,56.4,64.2,390.9,-69.993,41.688,CHATHAM,MA
811,94626,51.3,59.9,374.8,-69.595,45.462,GREENVILLE,ME
812,94700,51.8,61.2,362.5,-71.179,44.576,BERLIN,NH
813,94702,58.4,69.7,339.1,-73.146,41.175,BRIDGEPORT,CT
814,94704,55.4,68.7,308.9,-77.713,42.571,DANSVILLE,NY
815,94705,52.9,62.3,363.1,-72.579,44.203,BARRE/MONTPELIER,VT
816,94720,56.7,63.8,402.6,-70.280,41.669,HYANNIS,MA
817,94723,54.9,66.7,329.2,-71.124,42.717,LAWRENCE,MA
818,94724,56.9,64.9,387.8,-70.615,41.393,VINEYARD HAVEN,MA
819,94725,56.5,66.0,363.7,-74.846,44.936,MASSENA,NY
820,94726,56.3,64.9,377.9,-70.958,41.676,NEW BEDFORD,MA
821,94728,57.2,78.8,217.0,-73.967,40.783,NEW YORK,NY
822,94732,56.1,71.6,281.8,-75.011,40.082,PHILADELPHIA,PA
823,94740,51.3,59.6,379.8,-74.207,44.385,SARANAC LAKE,NY
824,94741,57.3,71.5,299.0,-74.061,40.850,TETERBORO,NJ
825,94745,57.4,68.5,340.9,-73.708,41.067,WHITE PLAINS,NY
826,94746,53.9,64.9,339.7,-71.876,42.267,WORCESTER,MA
827,94765,53.2,64.9,329.2,-72.305,43.626,LEBANON,NH
828,94789,58.3,70.8,321.8,-73.796,40.655,NEW YORK,NY
829,94790,56.9,66.3,365.6,-76.022,43.992,WATERTOWN,NY
830,94814,53.3,66.3,311.4,-84.691,44.368,HOUGHTON LAKE,MI
831,94815,53.8,70.7,263.3,-85.552,42.235,KALAMAZOO,MI
832,94817,53.6,70.0,268.8,-83.418,42.665,PONTIAC,MI
833,94818,54.4,70.1,278.1,-87.814,42.761,RACINE,WI
834,94822,54.0,72.9,241.1,-89.093,42.196,ROCKFORD,IL
835,94823,54.3,70.1,276.8,-80.231,40.501,PITTSBURGH,PA
836,94830,53.4,71.1,254.0,-83.801,41.589,TOLEDO,OH
837,94846,53.6,74.0,225.1,-87.914,41.986,CHICAGO,IL
838,94847,54.2,72.3,250.3,-83.349,42.215,DETROIT,MI
839,94849,53.9,66.0,324.3,-83.581,45.072,ALPENA,MI
840,94855,53.5,70.3,264.5,-88.557,43.984,OSHKOSH,WI
841,94860,54.0,70.8,264.5,-85.523,42.882,GRAND RAPIDS,MI
842,94870,57.9,71.9,302.1,-88.278,40.040,CHAMPAIGN/URBANA,IL
843,94871,55.5,69.2,304.0,-86.422,42.129,BENTON HARBOR,MI
844,94889,53.2,68.0,287.9,-83.744,42.223,ANN ARBOR,MI
845,94892,52.7,71.4,242.3,-88.246,41.914,CHICAGO/WEST CHICAGO,IL
846,94893,52.8,65.8,311.4,-88.114,45.818,IRON MOUNTAIN/KINGSFORD,MI
847,94895,52.5,71.9,234.9,-85.394,40.234,MUNCIE,IN
848,94898,55.8,67.8,327.4,-82.793,44.022,HARBOR BEACH,MI
849,94910,57.1,71.7,294.1,-92.401,42.554,WATERLOO,IA
850,94929,54.6,64.4,358.2,-90.919,46.549,ASHLAND,WI
851,94931,52.8,61.7,371.1,-92.839,47.387,HIBBING,MN
852,94938,54.2,67.1,313.8,-94.131,46.405,BRAINERD,MN
853,94943,55.8,73.4,257.1,-99.318,43.767,CHAMBERLAIN,SD
854,94946,55.9,73.1,262.0,-99.639,41.437,BROKEN BOW,NE
855,94949,59.7,74.6,292.2,-98.427,40.604,HASTINGS,NE
856,94950,57.0,73.7,268.2,-98.038,43.777,MITCHELL,SD
857,94957,61.4,76.0,297.2,-95.592,40.079,FALLS CITY,NE
858,94958,57.5,73.8,273.8,-98.952,41.624,ORD,NE
859,94960,55.4,70.3,288.5,-93.351,45.063,MINNEAPOLIS,MN
860,94961,52.5,64.5,324.9,-94.610,48.728,BAUDETTE,MN
861,94963,56.4,71.8,283.6,-93.470,44.832,MINNEAPOLIS,MN
862,94967,53.0,65.3,320.6,-95.068,46.901,PARK RAPIDS,MN
863,94971,58.5,71.0,322.4,-94.746,43.408,ESTHERVILLE,IA
864,94973,54.1,64.3,352.0,-91.444,46.026,HAYWARD,WI
865,94978,60.1,74.7,295.9,-96.178,41.764,TEKAMAH,NE
866,94982,57.4,71.8,296.6,-90.591,41.614,DAVENPORT,IA
867,94985,55.1,67.7,318.1,-90.189,44.637,MARSHFIELD,WI
868,94988,58.6,71.6,315.7,-92.918,42.113,MARSHALLTOWN,IA
869,94989,59.7,72.3,321.8,-93.622,41.992,AMES,IA
870,94990,55.8,75.3,236.8,-99.842,43.390,WINNER,SD
871,94991,59.4,71.8,324.3,-93.902,40.633,LAMONI,IA
872,94992,49.7,57.9,380.4,-90.344,47.747,GRAND MARAIS,MN
873,94994,57.1,71.3,299.0,-90.678,43.156,BOSCOBEL,WI
