,wban,dewpt,tavg,wp,long,lat,stname,ststate
0,03013,11.4,29.1,213.3,-102.688,38.070,LAMAR,CO
1,03017,11.5,33.8,164.6,-104.658,39.833,DENVER,CO
2,03024,17.5,37.6,193.0,-101.394,35.700,BORGER,TX
3,03026,11.1,38.3,121.5,-102.284,39.245,BURLINGTON,CO
4,03027,16.1,29.8,270.1,-105.663,35.003,CLINES CORNERS,NM
5,03028,12.5,32.2,191.8,-102.614,37.283,SPRINGFIELD,CO
6,03029,14.4,30.2,239.8,-109.061,35.658,WINDOW ROCK,AZ
7,03030,16.8,33.7,228.8,-101.505,36.682,GUYMON,OK
8,03031,28.9,43.0,276.2,-102.387,31.921,ODESSA,TX
9,03032,32.6,50.0,238.0,-102.213,30.048,DRYDEN,TX
10,03102,29.1,56.4,139.4,-117.600,34.056,ONTARIO,CA
11,03103,14.0,27.5,270.7,-111.672,35.140,FLAGSTAFF,AZ
12,03104,26.7,53.0,144.9,-116.160,33.628,PALM SPRINGS,CA
13,03124,23.1,47.5,157.3,-110.344,31.588,FORT HUACHUCA/SIERRA VISTA,AZ
14,03131,34.6,56.4,193.0,-117.139,32.816,SAN DIEGO,CA
15,03144,28.7,56.0,138.8,-115.579,32.834,IMPERIAL,CA
16,03145,25.6,58.2,98.7,-114.617,32.650,YUMA,AZ
17,03159,19.7,42.2,171.4,-118.219,34.741,LANCASTER,CA
18,03160,15.7,43.9,119.0,-116.028,36.621,MERCURY,NV
19,03162,18.9,33.7,257.7,-111.448,36.926,PAGE,AZ
20,03164,21.8,48.9,133.2,-116.467,32.617,CAMPO,CA
21,03166,36.1,58.4,189.9,-117.979,33.872,FULLERTON,CA
22,03167,34.4,58.8,169.0,-118.334,33.923,HAWTHORNE,CA
23,03170,11.9,25.5,267.6,-116.006,39.601,EUREKA,NV
24,03171,26.8,57.1,115.3,-117.439,33.952,RIVERSIDE,CA
25,03177,35.7,57.2,197.3,-117.279,33.128,CARLSBAD,CA
26,03178,32.9,56.7,172.7,-116.979,32.572,SAN DIEGO,CA
27,03179,33.4,54.0,204.1,-117.636,33.975,CHINO,CA
28,03184,28.5,52.8,164.0,-112.082,33.688,PHOENIX,AZ
29,03192,29.9,53.8,169.0,-111.911,33.623,SCOTTSDALE,AZ
30,03195,12.3,27.6,244.2,-112.155,35.946,GRAND CANYON,AZ
31,03196,26.1,49.4,170.2,-110.846,31.421,NOGALES,AZ
32,03757,33.4,42.2,360.0,-76.429,38.142,ST INIGOES,MD
33,03802,27.5,37.7,332.3,-80.229,39.296,CLARKSBURG,WV
34,03810,32.8,44.6,312.0,-81.390,35.741,HICKORY,NC
35,03811,32.3,40.3,373.0,-88.917,35.593,JACKSON,TN
36,03812,32.8,42.3,347.7,-82.538,35.432,ASHEVILLE,NC
37,03813,42.7,50.4,384.7,-83.654,32.688,MACON,GA
38,03816,29.4,37.2,374.2,-88.774,37.056,PADUCAH,KY
39,03818,48.3,56.4,381.0,-85.184,30.836,MARIANNA,FL
40,03820,42.3,50.3,379.2,-81.965,33.370,AUGUSTA,GA
41,03822,47.5,57.3,353.3,-81.202,32.119,SAVANNAH,GA
42,03847,31.5,39.9,365.6,-85.085,35.951,CROSSVILLE,TN
43,03849,30.4,40.9,329.8,-84.077,37.087,LONDON,KY
44,03853,54.4,62.4,386.6,-81.417,30.400,MAYPORT,FL
45,03855,49.0,55.2,414.3,-87.317,30.350,PENSACOLA,FL
46,03856,36.0,44.6,365.0,-86.786,34.644,HUNTSVILLE,AL
47,03859,27.3,40.8,283.0,-81.208,37.296,BLUEFIELD,WV
48,03860,28.2,39.1,321.8,-82.555,38.382,HUNTINGTON,WV
49,03866,39.6,48.1,369.3,-88.567,32.550,MERIDIAN,MS
50,03868,22.6,29.8,381.0,-87.309,39.452,TERRE HAUTE,IN
51,03870,36.4,47.0,332.9,-82.219,34.899,GREER,SC
52,03872,27.1,37.0,337.2,-81.125,37.795,BECKLEY,WV
53,03887,21.4,28.4,384.1,-88.866,39.984,DECATUR,IL
54,03888,38.2,46.7,368.1,-84.521,33.779,ATLANTA,GA
55,03889,28.8,40.3,313.2,-83.314,37.591,JACKSON,KY
56,03893,24.6,32.3,373.0,-86.617,39.144,BLOOMINGTON,IN
57,03894,31.3,39.3,372.4,-87.415,36.622,CLARKSVILLE,TN
58,03901,37.7,46.7,359.4,-94.711,32.385,LONGVIEW,TX
59,03902,35.1,46.3,323.1,-97.822,31.070,FORT HOOD/KILLEEN,TX
60,03904,40.1,48.5,371.1,-96.364,30.588,COLLEGE STATION,TX
61,03919,16.4,26.6,323.7,-97.661,38.813,SALINA,KS
62,03927,32.5,43.1,329.8,-97.041,32.896,DALLAS-FORT WORTH,TX
63,03928,20.0,30.2,326.8,-97.429,37.647,WICHITA,KS
64,03931,42.0,49.1,394.6,-93.192,31.045,FORT POLK,LA
65,03932,24.0,35.7,306.4,-99.200,35.340,CLINTON,OK
66,03933,35.2,48.2,296.6,-97.713,31.134,FORT HOOD (KILLEEN),TX
67,03935,28.0,33.7,413.1,-89.571,37.225,CAPE GIRARDEAU,MO
68,03936,17.4,26.5,343.4,-96.678,39.135,MANHATTAN,KS
69,03937,44.6,51.3,403.2,-93.228,30.125,LAKE CHARLES,LA
70,03940,39.6,47.2,384.1,-90.078,32.320,JACKSON,MS
71,03945,21.9,29.9,366.2,-92.218,38.817,COLUMBIA,MO
72,03947,19.0,30.4,306.4,-94.718,39.299,KANSAS CITY,MO
73,03949,41.5,48.3,399.5,-93.283,31.400,FORT POLK,LA
74,03950,26.3,36.6,329.8,-98.416,34.568,LAWTON,OK
75,03953,32.0,38.4,401.3,-90.646,35.831,JONESBORO,AR
76,03954,23.3,35.3,301.5,-97.647,35.534,OKLAHOMA CITY,OK
77,03957,18.9,30.6,302.1,-98.553,37.284,MEDICINE LODGE,KS
78,03959,24.4,32.7,362.5,-96.011,36.762,BARTLESVILLE,OK
79,03960,24.5,31.8,380.4,-90.157,38.571,CAHOKIA/ST.LOUIS,IL
80,03962,33.7,42.9,353.3,-93.096,34.478,HOT SPRINGS,AR
81,03963,21.5,31.1,337.9,-92.156,38.591,JEFFERSON CITY,MO
82,03965,24.6,35.4,320.6,-97.086,36.160,STILLWATER,OK
83,03966,22.2,31.5,343.4,-90.656,38.657,ST LOUIS,MO
84,03967,19.5,29.1,336.0,-94.739,38.850,OLATHE,KS
85,03974,20.4,30.5,328.6,-97.219,37.750,WICHITA,KS
86,03975,27.5,37.0,344.0,-90.325,36.773,POPLAR BLUFF,MO
87,03981,25.3,37.6,298.4,-98.984,34.352,FREDERICK,OK
88,03991,31.0,39.7,360.0,-97.199,33.206,DENTON,TX
89,03994,23.1,31.7,356.3,-93.183,38.704,SEDALIA,MO
90,03996,39.8,46.1,407.5,-91.030,32.348,TALLULAH/VICKSBURG,MS
91,03997,18.4,28.6,325.5,-95.212,39.008,LAWRENCE,KS
92,03998,23.2,32.6,342.2,-95.504,37.328,PARSONS,KS
93,03999,35.1,46.0,327.4,-98.235,30.741,BURNET,TX
94,04109,24.1,30.1,405.0,-115.596,46.144,ELK CITY,ID
95,04110,17.0,22.8,405.0,-114.456,42.727,JEROME,ID
96,04111,11.5,24.0,283.0,-111.031,41.273,EVANSTON,WY
97,04112,7.0,12.0,416.1,-114.927,44.171,STANLEY,ID
98,04113,21.6,28.2,391.5,-119.261,45.826,HERMISTON,OR
99,04114,8.7,15.5,379.8,-114.215,41.523,CHALLIS,ID
100,04201,32.3,34.5,488.3,-122.861,45.773,SCAPPOOSE,OR
101,04724,20.2,26.6,394.6,-78.945,43.107,NIAGARA FALLS,NY
102,04725,22.4,27.8,416.1,-75.981,42.208,BINGHAMTON,NY
103,04726,23.6,30.5,387.2,-78.834,40.301,JOHNSTOWN,PA
104,04751,21.4,26.9,413.1,-78.640,41.803,BRADFORD,PA
105,04780,20.5,28.3,368.7,-71.756,42.552,FITCHBURG,MA
106,04781,28.4,37.1,358.2,-73.102,40.794,ISLIP,NY
107,04787,22.8,30.3,375.5,-78.899,41.178,DU BOIS,PA
108,04789,23.0,29.8,389.0,-74.265,41.509,MONTGOMERY,NY
109,04803,5.3,11.5,389.6,-89.465,45.631,RHINELANDER,WI
110,04804,25.8,32.6,390.3,-83.078,40.078,COLUMBUS,OH
111,04808,16.5,20.7,438.3,-88.481,41.770,CHICAGO/AURORA,IL
112,04836,6.0,10.5,426.6,-68.307,47.286,FRENCHVILLE,ME
113,04838,17.1,23.1,400.7,-87.905,42.121,CHICAGO/PROSPECT HGTS/WHEELI,IL
114,04839,21.0,26.7,409.4,-86.097,42.746,HOLLAND,MI
115,04840,10.2,15.6,409.4,-88.486,43.770,FOND DU LAC,WI
116,04841,13.8,17.4,450.7,-87.851,43.769,SHEBOYGAN,WI
117,04842,23.5,30.1,392.7,-81.887,40.875,WOOSTER,OH
118,04843,22.5,29.4,386.6,-80.215,41.626,MEADVILLE,PA
119,04845,15.2,20.7,410.0,-87.938,42.595,KENOSHA,WI
120,04846,19.1,21.1,489.5,-87.006,41.453,VALPARAISO,IN
121,04848,21.3,28.7,376.7,-83.476,41.563,TOLEDO,OH
122,04849,23.4,31.8,360.0,-82.179,41.179,LORAIN/ELYRIA,OH
123,04850,22.2,30.9,353.9,-84.027,40.708,LIMA,OH
124,04852,24.0,33.7,337.9,-81.420,40.470,NEW PHILADELPHIA,OH
125,04854,12.7,16.2,452.5,-84.701,45.013,GAYLORD,MI
126,04855,23.7,29.7,404.4,-83.064,40.616,MARION,OH
127,04857,21.8,29.2,376.7,-80.696,41.778,ASHTABULA,OH
128,04858,24.9,33.6,355.7,-82.463,40.023,NEWARK,OH
132,12812,61.3,70.5,371.8,-81.991,26.917,PUNTA GORDA,FL
133,12815,59.0,68.3,368.7,-81.325,28.434,ORLANDO,FL
134,12816,53.5,61.1,392.7,-82.272,29.690,GAINESVILLE,FL
135,12818,56.8,64.4,394.6,-82.454,28.474,BROOKSVILLE,FL
136,12819,57.5,66.5,372.4,-81.810,28.821,LEESBURG,FL
137,12832,53.0,61.3,381.0,-85.033,29.733,APALACHICOLA,FL
138,12833,53.2,60.5,397.0,-83.105,29.550,CROSS CITY,FL
139,12834,58.1,66.0,390.3,-81.060,29.177,DAYTONA BEACH,FL
140,12835,62.2,71.5,370.5,-81.864,26.586,FORT MYERS,FL
141,12836,69.2,75.7,418.6,-81.754,24.553,KEY WEST,FL
142,12838,61.6,68.8,403.2,-80.646,28.103,MELBOURNE,FL
143,12839,66.7,75.1,387.2,-80.300,25.824,MIAMI,FL
144,12841,58.4,68.0,363.7,-81.333,28.545,ORLANDO,FL
145,12842,58.5,68.6,356.3,-82.540,27.961,TAMPA,FL
146,12843,64.2,69.7,433.4,-80.418,27.656,VERO BEACH,FL
147,12844,64.7,74.2,369.3,-80.099,26.685,WEST PALM BEACH,FL
148,12849,66.5,74.1,399.5,-80.154,26.072,FORT LAUDERDALE,FL
149,12854,59.1,67.5,382.9,-81.244,28.780,ORLANDO,FL
150,12871,60.0,69.1,372.4,-82.559,27.401,SARASOTA/BRADENTON,FL
151,12873,59.8,68.6,376.7,-82.688,27.911,ST PETERSBURG/CLEARWATER,FL
152,12876,58.4,67.8,366.8,-81.754,28.062,WINTER HAVEN,FL
153,12885,67.2,74.4,406.3,-80.171,26.197,FORT LAUDERDALE,FL
154,12888,67.5,73.6,424.8,-80.433,25.648,MIAMI,FL
155,12894,61.5,70.5,374.8,-81.755,26.536,FORT MYERS,FL
156,12895,62.3,69.7,400.7,-80.377,27.498,FORT PIERCE,FL
157,12896,69.3,76.8,402.6,-81.052,24.726,MARATHON,FL
158,12897,64.4,72.5,390.3,-81.775,26.153,NAPLES,FL
159,12904,50.5,58.9,377.3,-97.654,26.228,HARLINGEN,TX
160,12912,44.6,53.4,367.4,-96.930,28.863,VICTORIA,TX
161,12916,48.0,54.4,410.0,-90.251,29.993,NEW ORLEANS,LA
162,12917,44.8,52.3,389.0,-94.021,29.951,BEAUMONT/PORT ARTHUR,TX
163,12918,43.8,52.7,365.0,-95.279,29.645,HOUSTON,TX
164,12919,52.3,60.3,385.3,-97.426,25.906,BROWNSVILLE,TX
165,12921,39.5,52.4,302.1,-98.464,29.533,SAN ANTONIO,TX
166,12923,48.7,53.3,443.3,-94.860,29.265,GALVESTON,TX
167,12924,46.1,56.3,346.5,-97.513,27.773,CORPUS CHRISTI,TX
168,12926,47.9,56.3,376.1,-97.283,27.700,CORPUS CHRISTI,TX
169,12928,47.4,57.0,356.3,-97.817,27.500,KINGSVILLE,TX
170,12932,45.2,55.6,342.8,-98.027,27.741,ALICE,TX
171,12935,45.6,52.9,393.3,-96.251,28.728,PALACIOS,TX
172,12947,41.9,53.0,329.8,-99.220,28.458,COTULLA,TX
173,12957,52.6,61.7,367.4,-97.346,26.166,PORT ISABEL,TX
174,12959,49.5,58.6,365.6,-98.238,26.175,MC ALLEN,TX
175,12960,44.3,51.4,395.8,-95.364,29.993,HOUSTON,TX
176,12962,38.4,51.4,299.6,-99.174,29.359,HONDO,TX
177,12968,48.2,52.7,445.1,-91.526,29.562,SALT POINT,LA
178,12970,39.6,52.5,302.1,-98.471,29.337,SAN ANTONIO,TX
179,12971,39.9,49.0,359.4,-98.045,29.709,NEW BRAUNFELS,TX
180,12972,46.8,54.5,387.2,-97.046,28.084,ROCKPORT,TX
181,12975,43.5,51.9,373.0,-95.240,29.521,HOUSTON,TX
182,12976,45.5,52.1,405.0,-95.462,29.110,ANGLETON/LAKE JACKSON,TX
183,12977,44.0,51.9,381.6,-95.656,29.622,HOUSTON,TX
184,13721,32.2,41.0,358.8,-76.400,38.283,PATUXENT RIVER,MD
185,13722,35.6,46.5,328.0,-78.786,35.871,RALEIGH/DURHAM,NC
186,13723,32.6,44.6,308.9,-79.944,36.098,GREENSBORO,NC
187,13728,33.1,44.0,326.1,-79.336,36.573,DANVILLE,VA
188,13729,26.5,35.3,355.1,-79.853,38.885,ELKINS,WV
189,13733,30.9,41.1,335.4,-79.207,37.338,LYNCHBURG,VA
190,13734,25.5,37.1,308.9,-77.984,39.402,MARTINSBURG,WV
191,13735,31.0,37.9,391.5,-75.078,39.366,MILLVILLE,NJ
192,13736,27.6,38.0,329.2,-79.916,39.643,MORGANTOWN,WV
193,13737,37.6,46.6,359.4,-76.192,36.904,NORFOLK,VA
194,13739,27.5,38.7,316.9,-75.231,39.868,PHILADELPHIA,PA
195,13740,33.5,43.9,334.2,-77.323,37.511,RICHMOND,VA
196,13741,29.2,42.3,290.4,-79.974,37.317,ROANOKE,VA
197,13743,30.7,42.3,313.2,-77.034,38.865,WASHINGTON,DC
198,13744,42.1,51.0,364.4,-79.731,34.188,FLORENCE,SC
199,13748,43.5,52.7,360.0,-77.906,34.268,WILMINGTON,NC
200,13750,37.9,47.3,353.3,-76.283,36.933,NORFOLK,VA
201,13752,31.9,40.3,365.6,-76.483,38.991,ANNAPOLIS,MD
202,13754,43.3,51.2,381.6,-76.883,34.900,CHERRY POINT,NC
203,13762,38.0,49.8,316.3,-76.136,36.695,FENTRESS,VA
204,13764,32.9,42.6,344.6,-75.359,38.689,GEORGETOWN,DE
205,13769,38.5,46.4,378.5,-76.033,36.817,OCEANA,VA
206,13773,30.9,40.7,341.6,-77.300,38.500,QUANTICO,VA
207,13776,41.8,49.6,382.2,-79.059,34.610,LUMBERTON,NC
208,13781,29.0,37.6,360.0,-75.601,39.673,WILMINGTON,DE
209,13786,40.5,47.3,398.9,-76.175,36.261,ELIZABETH CITY,NC
210,13809,25.2,31.1,407.5,-87.606,38.764,LAWRENCEVILLE,IL
211,13810,28.8,37.7,355.1,-85.664,38.228,LOUISVILLE,KY
212,13833,43.3,51.1,383.5,-89.253,31.265,HATTIESBURG,MS
213,13837,42.4,52.7,342.2,-82.039,33.467,AUGUSTA,GA
214,13838,46.1,53.0,400.1,-88.068,30.626,MOBILE,AL
215,13839,46.5,54.7,378.5,-85.450,31.321,DOTHAN,AL
216,13841,26.9,37.3,328.6,-83.822,39.420,WILMINGTON,OH
217,13865,40.5,48.0,386.6,-88.751,32.333,MERIDIAN,MS
218,13866,31.1,29.2,539.4,-81.591,38.379,CHARLESTON,WV
219,13869,47.3,55.3,382.2,-84.194,31.536,ALBANY,GA
220,13870,46.4,56.5,348.3,-82.507,31.536,ALMA,GA
221,13873,37.8,47.6,346.5,-83.327,33.948,ATHENS,GA
222,13874,38.2,48.1,345.3,-84.427,33.640,ATLANTA,GA
223,13876,38.3,47.4,358.2,-86.754,33.564,BIRMINGHAM,AL
224,13877,30.8,40.9,336.6,-82.399,36.480,BRISTOL/JHNSN CTY/KNGSPRT,TN
225,13878,51.6,57.9,413.7,-81.391,31.252,BRUNSWICK,GA
226,13880,46.6,56.2,355.7,-80.041,32.899,CHARLESTON,SC
227,13881,36.4,46.4,342.2,-80.944,35.214,CHARLOTTE,NC
228,13882,35.4,44.9,349.6,-85.200,35.033,CHATTANOOGA,TN
229,13883,41.4,51.6,342.8,-81.118,33.942,COLUMBIA,SC
230,13884,47.0,54.8,385.3,-86.523,30.780,CRESTVIEW,FL
231,13886,35.2,47.7,304.0,-82.346,34.846,GREENVILLE,SC
232,13889,53.4,60.0,409.4,-81.693,30.494,JACKSONVILLE,FL
233,13891,34.1,43.7,347.1,-83.986,35.818,KNOXVILLE,TN
234,13893,33.6,42.8,353.3,-89.985,35.061,MEMPHIS,TN
235,13894,45.8,50.6,438.3,-88.246,30.688,MOBILE,AL
236,13895,42.4,51.7,357.6,-86.394,32.301,MONTGOMERY,AL
237,13896,35.1,44.3,354.5,-87.610,34.745,MUSCLE SHOALS,AL
238,13897,31.4,41.3,340.3,-86.689,36.119,NASHVILLE,TN
239,13899,47.5,54.1,406.3,-87.188,30.473,PENSACOLA,FL
240,13904,38.0,48.1,342.2,-97.681,30.179,AUSTIN/BERGSTROM,TX
241,13911,30.2,45.1,267.0,-97.441,32.769,FORT WORTH,TX
242,13920,17.9,28.4,320.0,-95.664,38.950,TOPEKA,KS
243,13927,39.4,47.8,370.5,-90.223,32.335,JACKSON,MS
244,13932,22.8,32.2,342.2,-97.037,37.168,WINFIELD/ARKANSAS CITY,KS
245,13935,41.0,49.1,376.7,-92.296,31.395,ALEXANDRIA,LA
246,13939,37.0,43.9,395.2,-90.986,33.483,GREENVILLE,MS
247,13942,37.2,45.0,379.2,-92.038,32.511,MONROE,LA
248,13957,38.7,47.1,369.9,-93.824,32.447,SHREVEPORT,LA
249,13958,37.6,50.4,301.5,-97.767,30.317,AUSTIN/CITY,TX
250,13959,35.5,43.8,369.9,-97.229,31.611,WACO,TX
251,13960,32.5,44.5,308.9,-96.851,32.847,DALLAS,TX
252,13962,29.0,39.5,329.2,-99.682,32.411,ABILENE,TX
253,13963,33.3,42.9,346.5,-92.233,34.747,LITTLE ROCK,AR
254,13964,31.0,39.1,370.5,-94.365,35.334,FORT SMITH,AR
255,13966,27.4,38.5,318.1,-98.493,33.979,WICHITA FALLS,TX
256,13967,25.1,36.7,308.9,-97.600,35.389,OKLAHOMA CITY,OK
257,13968,25.1,35.3,330.5,-95.886,36.198,TULSA,OK
258,13969,22.4,33.5,314.4,-97.100,36.731,PONCA CITY,OK
259,13970,43.9,52.1,376.7,-91.147,30.537,BATON ROUGE,LA
260,13971,26.8,36.3,343.4,-93.155,36.261,HARRISON,AR
261,13972,35.5,45.4,343.4,-95.402,32.354,TYLER,TX
262,13973,34.3,45.2,326.8,-99.766,30.511,JUNCTION,TX
263,13976,44.5,51.6,395.8,-91.988,30.205,LAFAYETTE,LA
264,13977,36.7,44.2,384.1,-94.008,33.454,TEXARKANA,AR
265,13978,37.4,44.4,393.9,-90.084,33.496,GREENWOOD,MS
266,13981,22.3,31.5,345.3,-95.484,37.670,CHANUTE,KS
267,13984,16.8,27.4,317.5,-97.652,39.549,CONCORDIA,KS
268,13985,15.6,29.6,265.1,-99.970,37.773,DODGE CITY,KS
269,13986,17.5,27.6,326.1,-97.861,38.068,HUTCHINSON,KS
270,13987,25.0,33.1,366.2,-94.498,37.149,JOPLIN,MO
271,13988,20.1,32.4,294.1,-94.593,39.123,KANSAS CITY,MO
272,13989,19.3,29.1,332.9,-96.190,38.331,EMPORIA,KS
273,13993,16.5,25.2,349.6,-94.907,39.774,ST JOSEPH,MO
274,13994,22.5,33.4,317.5,-90.374,38.753,ST LOUIS,MO
275,13995,24.7,32.2,376.7,-93.390,37.240,SPRINGFIELD,MO
276,13996,18.3,29.1,315.7,-95.626,39.073,TOPEKA,KS
277,13997,23.9,31.3,377.9,-91.769,38.128,ROLLA/VICHY,MO
278,14605,14.8,20.8,399.5,-69.797,44.321,AUGUSTA,ME
279,14606,13.5,18.8,413.1,-68.824,44.808,BANGOR,ME
280,14607,7.8,12.9,414.3,-68.033,46.867,CARIBOU,ME
281,14609,9.8,14.5,424.2,-67.792,46.123,HOULTON,ME
282,14610,10.9,17.5,385.3,-68.686,45.648,MILLINOCKET,ME
283,14702,21.8,28.7,385.9,-71.289,42.470,BEDFORD,MA
284,14707,27.7,35.2,378.5,-72.049,41.328,GROTON NEW LONDON,CT
285,14710,19.7,25.0,416.8,-71.438,42.933,MANCHESTER,NH
286,14711,25.2,34.1,352.7,-76.763,40.194,HARRISBURG,PA
287,14712,25.6,34.5,352.7,-75.959,40.373,READING,PA
288,14719,28.1,36.2,368.1,-72.632,40.844,WESTHAMPTON BEACH,NY
289,14732,25.9,38.2,299.0,-73.881,40.779,NEW YORK,NY
290,14733,21.3,28.0,389.6,-78.736,42.941,BUFFALO,NY
291,14734,27.4,37.0,342.2,-74.169,40.716,NEWARK,NJ
292,14735,19.8,27.6,368.1,-73.803,42.748,ALBANY,NY
293,14737,24.3,31.8,376.7,-75.449,40.651,ALLENTOWN,PA
294,14739,23.1,33.4,327.4,-71.011,42.361,BOSTON,MA
295,14740,22.7,30.4,371.8,-72.683,41.938,WINDSOR LOCKS,CT
296,14742,16.5,22.4,402.6,-73.150,44.468,BURLINGTON,VT
297,14745,18.1,23.5,413.7,-71.501,43.195,CONCORD,NH
298,14747,22.7,29.4,390.3,-79.272,42.493,DUNKIRK,NY
299,14748,21.9,29.3,376.7,-76.892,42.159,ELMIRA/CORNING,NY
300,14750,18.5,24.2,407.5,-73.610,43.341,GLENS FALLS,NY
301,14751,25.9,34.7,354.5,-76.851,40.217,HARRISBURG,PA
302,14752,24.1,32.5,360.0,-72.651,41.736,HARTFORD,CT
303,14756,30.5,37.7,385.9,-70.061,41.253,NANTUCKET,MA
304,14757,23.7,31.4,372.4,-73.884,41.627,POUGHKEEPSIE,NY
305,14758,26.1,34.1,368.7,-72.887,41.264,NEW HAVEN,CT
306,14762,25.8,35.6,337.9,-79.922,40.355,PITTSBURGH,PA
307,14763,20.9,27.0,401.3,-73.289,42.427,PITTSFIELD,MA
308,14764,18.5,24.4,403.8,-70.304,43.642,PORTLAND,ME
309,14765,25.6,33.3,373.6,-71.433,41.722,PROVIDENCE,RI
310,14768,21.5,28.6,382.2,-77.677,43.117,ROCHESTER,NY
311,14770,24.2,31.7,376.7,-76.864,40.821,SELINSGROVE,PA
312,14771,22.4,27.9,413.7,-76.103,43.109,SYRACUSE,NY
313,14775,21.6,28.9,378.5,-72.716,42.158,WESTFIELD/SPRINGFIELD,MA
314,14777,23.7,31.3,374.2,-75.727,41.339,WILKES-BARRE/SCRANTON,PA
315,14778,23.0,30.2,381.0,-76.922,41.243,WILLIAMSPORT,PA
316,14787,26.9,35.0,367.4,-71.284,41.530,NEWPORT,RI
317,14792,27.0,35.8,355.7,-74.814,40.277,TRENTON,NJ
318,14794,27.5,34.6,385.9,-71.799,41.350,WESTERLY,RI
319,14813,23.7,30.8,383.5,-81.464,41.038,AKRON,OH
320,14815,19.8,26.6,386.6,-85.251,42.308,BATTLE CREEK,MI
321,14819,18.5,24.7,397.6,-87.752,41.786,CHICAGO,IL
322,14820,23.1,32.0,350.8,-81.853,41.405,CLEVELAND,OH
323,14821,25.6,34.5,352.7,-82.881,39.991,COLUMBUS,OH
324,14822,19.6,28.1,355.1,-83.010,42.409,DETROIT,MI
325,14825,22.9,29.4,394.6,-83.669,41.014,FINDLAY,OH
326,14826,18.0,24.9,383.5,-83.749,42.967,FLINT,MI
327,14827,21.5,27.4,405.7,-85.206,41.006,FORT WAYNE,IN
328,14829,20.7,26.9,398.9,-85.792,41.527,GOSHEN,IN
329,14833,19.7,25.8,400.1,-84.459,42.260,JACKSON,MI
330,14835,21.4,25.3,447.0,-86.937,40.412,LAFAYETTE,IN
331,14836,18.6,24.2,410.0,-84.579,42.780,LANSING,MI
332,14837,12.0,17.8,402.0,-89.345,43.141,MADISON,WI
333,14839,15.0,21.0,399.5,-87.897,42.947,MILWAUKEE,WI
334,14840,18.9,26.4,373.0,-86.237,43.171,MUSKEGON,MI
335,14841,10.9,14.0,461.1,-84.796,45.571,PELLSTON,MI
336,14842,18.5,24.7,397.6,-89.684,40.668,PEORIA,IL
337,14845,17.1,22.9,405.0,-84.080,43.533,SAGINAW,MI
338,14847,5.8,12.0,390.3,-84.367,46.467,SAULT STE MARIE,MI
339,14848,19.5,26.1,390.3,-86.333,41.707,SOUTH BEND,IN
340,14850,15.5,21.9,392.1,-85.583,44.741,TRAVERSE CITY,MI
341,14852,23.4,30.6,381.6,-80.674,41.254,YOUNGSTOWN/WARREN,OH
342,14853,19.8,28.5,352.0,-83.230,42.237,DETROIT,MI
343,14858,7.9,15.8,357.6,-88.506,47.169,HANCOCK,MI
344,14860,22.9,31.2,361.3,-80.183,42.080,ERIE,PA
345,14880,16.0,20.4,434.0,-87.868,42.422,CHICAGO/WAUKEGAN,IL
346,14891,24.0,30.4,397.0,-82.518,40.820,MANSFIELD,OH
347,14894,25.5,34.6,349.0,-80.647,40.176,WHEELING,WV
348,14895,24.4,31.6,382.2,-81.443,40.918,AKRON,OH
349,14897,7.1,11.1,438.3,-89.627,44.929,WAUSAU,WI
350,14898,9.9,15.0,415.5,-88.120,44.513,GREEN BAY,WI
351,14910,2.2,5.7,448.2,-95.393,45.883,ALEXANDRIA,MN
352,14913,-0.2,5.0,407.5,-92.194,46.844,DULUTH,MN
353,14914,-1.1,4.0,409.4,-96.811,46.925,FARGO,ND
354,14916,-4.3,0.2,421.7,-97.176,47.949,GRAND FORKS,ND
355,14918,-5.9,-4.2,491.3,-93.403,48.566,INTERNATIONAL FALLS,MN
356,14919,0.8,4.7,438.3,-98.678,46.930,JAMESTOWN,ND
357,14920,9.3,15.6,390.3,-91.256,43.754,LA CROSSE,WI
358,14921,10.6,15.7,416.1,-90.181,43.212,LONE ROCK,WI
359,14922,7.0,12.4,407.5,-93.229,44.883,MINNEAPOLIS,MN
360,14923,15.5,20.5,420.5,-90.523,41.465,MOLINE,IL
361,14925,7.6,12.7,414.3,-92.492,43.904,ROCHESTER,MN
362,14926,2.7,6.7,436.5,-94.052,45.545,ST CLOUD,MN
363,14927,6.1,12.5,385.9,-93.048,44.930,ST PAUL,MN
364,14929,3.3,7.8,425.4,-98.421,45.450,ABERDEEN,SD
365,14931,17.3,24.4,379.8,-91.125,40.783,BURLINGTON,IA
366,14933,12.9,21.2,353.9,-93.666,41.538,DES MOINES,IA
367,14935,12.9,28.7,238.6,-98.313,40.958,GRAND ISLAND,NE
368,14936,4.7,10.6,395.8,-98.229,44.385,HURON,SD
369,14937,13.9,18.7,424.2,-91.543,41.633,IOWA CITY,IA
370,14938,18.0,25.2,377.9,-92.543,40.097,KIRKSVILLE,MO
371,14939,11.8,22.2,316.9,-96.764,40.831,LINCOLN,NE
372,14940,10.3,13.8,451.3,-93.331,43.158,MASON CITY,IA
373,14941,10.4,20.3,323.7,-97.437,41.981,NORFOLK,NE
374,14942,12.1,21.1,340.9,-95.899,41.310,OMAHA,NE
375,14943,10.0,18.0,357.6,-96.379,42.391,SIOUX CITY,IA
376,14944,6.0,11.8,398.3,-96.754,43.577,SIOUX FALLS,SD
377,14946,4.2,8.2,437.1,-97.154,44.931,WATERTOWN,SD
378,14950,14.6,21.9,373.6,-92.448,41.107,OTTUMWA,IA
379,14972,7.7,13.1,408.1,-95.202,43.164,SPENCER,IA
380,14990,12.3,17.2,421.1,-91.709,41.884,CEDAR RAPIDS,IA
381,14991,6.5,11.9,407.5,-91.485,44.865,EAU CLAIRE,WI
382,14992,5.6,11.0,406.9,-95.082,44.547,REDWOOD FALLS,MN
383,21504,66.5,72.7,422.3,-155.051,19.723,HILO,HI
384,21510,65.6,77.3,338.5,-156.049,19.736,KAILUA/KONA,HI
385,22010,37.3,50.2,300.3,-100.922,29.367,DEL RIO,TX
386,22501,65.2,73.9,381.6,-159.789,22.025,"KEKAHA, KAUAI",HI
387,22516,65.1,74.7,368.1,-156.433,20.902,KAHULUI,HI
388,22521,64.7,75.6,349.0,-157.943,21.328,HONOLULU,HI
389,22536,67.3,74.0,414.3,-159.341,21.979,LIHUE,HI
390,22551,64.9,72.3,402.0,-158.067,21.317,KAPOLEI,HI
391,23007,23.4,39.5,244.8,-100.288,34.434,CHILDRESS,TX
392,23009,24.1,39.7,252.2,-104.541,33.308,ROSWELL,NM
393,23023,30.2,45.2,265.7,-102.208,31.932,MIDLAND,TX
394,23034,32.4,44.2,312.0,-100.494,31.351,SAN ANGELO,TX
395,23040,28.5,43.9,259.0,-103.201,31.780,WINK,TX
396,23042,22.1,38.8,236.2,-101.821,33.668,LUBBOCK,TX
397,23044,24.2,44.6,196.7,-106.376,31.811,EL PASO,TX
398,23047,18.0,37.0,205.3,-101.706,35.219,AMARILLO,TX
399,23048,17.6,38.3,186.8,-103.603,35.182,TUCUMCARI,NM
400,23049,17.0,30.4,275.0,-106.089,35.617,SANTA FE,NM
401,23050,18.2,35.7,222.6,-106.616,35.042,ALBUQUERQUE,NM
402,23051,12.5,39.4,125.2,-103.154,36.446,CLAYTON,NM
403,23052,12.0,30.7,202.2,-104.502,36.741,RATON,NM
404,23054,14.4,31.3,226.3,-105.143,35.654,LAS VEGAS,NM
405,23061,0.2,8.7,340.3,-105.866,37.436,ALAMOSA,CO
406,23064,14.3,33.8,196.1,-100.725,37.927,GARDEN CITY,KS
407,23065,11.5,28.6,220.7,-101.693,39.368,GOODLAND,KS
408,23066,12.1,16.2,438.3,-108.538,39.134,GRAND JUNCTION,CO
409,23067,12.1,30.2,209.6,-103.527,38.051,LA JUNTA,CO
410,23070,10.5,32.3,168.3,-104.341,37.259,TRINIDAD,CO
411,23078,23.0,41.1,220.7,-107.721,32.262,DEMING,NM
412,23081,15.7,28.9,276.8,-108.789,35.511,GALLUP,NM
413,23090,15.5,28.3,282.4,-108.229,36.744,FARMINGTON,NM
414,23110,26.3,46.1,205.3,-119.950,36.333,LEMOORE,CA
415,23129,34.9,58.1,180.1,-118.163,33.828,LONG BEACH,CA
416,23130,24.0,57.8,90.1,-118.489,34.210,VAN NUYS,CA
417,23136,30.1,56.2,149.9,-119.083,34.217,CAMARILLO,CA
418,23152,28.6,58.5,119.7,-118.359,34.201,BURBANK,CA
419,23153,13.5,30.9,219.5,-117.087,38.060,TONOPAH,NV
420,23154,11.9,22.1,320.0,-114.845,39.295,ELY,NV
421,23155,31.8,47.7,255.3,-119.056,35.434,BAKERSFIELD,CA
422,23157,9.3,41.1,87.6,-118.363,37.373,BISHOP,CA
423,23158,24.5,54.6,114.1,-114.717,33.619,BLYTHE,CA
424,23159,7.2,15.3,353.3,-112.146,37.706,BRYCE CANYON,UT
425,23160,29.5,53.3,169.0,-110.955,32.131,TUCSON,AZ
426,23161,22.0,47.7,144.9,-116.787,34.854,DAGGETT,CA
427,23169,20.4,47.4,132.6,-115.155,36.079,LAS VEGAS,NV
428,23174,36.0,59.0,183.1,-118.406,33.938,LOS ANGELES,CA
429,23176,11.3,18.7,369.9,-113.028,38.443,MILFORD,UT
430,23179,22.9,54.3,103.6,-114.623,34.766,NEEDLES,CA
431,23182,20.9,44.7,160.3,-118.084,34.629,PALMDALE,CA
432,23183,29.9,56.3,147.4,-111.990,33.443,PHOENIX,AZ
433,23184,18.8,39.5,188.1,-112.421,34.652,PRESCOTT,AZ
434,23185,19.0,28.7,334.2,-119.771,39.484,RENO,NV
435,23188,37.6,59.4,196.1,-117.169,32.735,SAN DIEGO,CA
436,23190,35.4,53.5,233.1,-119.844,34.426,SANTA BARBARA,CA
437,23191,25.3,58.3,96.2,-118.416,33.405,AVALON,CA
438,23194,19.0,32.9,270.1,-110.722,35.022,WINSLOW,AZ
439,23199,27.7,54.8,139.4,-115.667,32.817,EL CENTRO,CA
440,23213,32.0,47.7,258.3,-122.812,38.509,SANTA ROSA,CA
441,23225,14.5,44.3,106.1,-120.708,39.292,EMIGRANT GAP,CA
442,23230,34.0,46.4,304.6,-122.221,37.755,OAKLAND,CA
443,23232,31.7,45.3,285.5,-121.493,38.513,SACRAMENTO,CA
444,23233,31.9,52.1,206.6,-121.605,36.663,SALINAS,CA
445,23234,36.6,49.9,294.1,-122.398,37.620,SAN FRANCISCO,CA
446,23237,32.9,44.3,318.1,-121.237,37.894,STOCKTON,CA
447,23244,33.5,48.4,270.1,-122.048,37.415,MOUNTAIN VIEW,CA
448,23254,30.7,45.4,270.1,-122.052,37.992,CONCORD,CA
449,23257,31.7,43.1,317.5,-120.513,37.285,MERCED,CA
450,23258,31.9,45.4,287.3,-120.953,37.626,MODESTO,CA
451,23259,34.0,50.4,251.6,-121.845,36.588,MONTEREY,CA
452,23273,32.7,53.2,204.1,-120.465,34.916,SANTA MARIA,CA
453,23275,29.5,43.4,279.3,-123.201,39.126,UKIAH,CA
454,23277,31.8,49.5,233.7,-121.789,36.936,WATSONVILLE,CA
455,23285,30.2,50.4,204.7,-121.817,37.694,LIVERMORE,CA
456,23293,32.5,47.9,262.7,-121.928,37.362,SAN JOSE,CA
457,24011,2.3,7.4,411.2,-100.748,46.774,BISMARCK,ND
458,24012,4.6,9.6,414.9,-102.802,46.797,DICKINSON,ND
459,24013,-1.2,3.9,409.4,-101.281,48.259,MINOT,ND
460,24015,12.7,27.2,255.9,-103.232,40.172,AKRON,CO
461,24017,12.6,18.7,396.4,-103.095,42.838,CHADRON,NE
462,24018,10.5,26.2,237.4,-104.807,41.158,CHEYENNE,WY
463,24021,9.7,20.2,313.2,-108.733,42.817,LANDER,WY
464,24022,9.0,19.6,310.7,-105.674,41.313,LARAMIE,WY
465,24023,12.4,23.8,300.9,-100.668,41.122,NORTH PLATTE,NE
466,24024,8.7,16.0,369.9,-101.601,44.051,PHILIP,SD
467,24025,8.0,13.2,412.4,-100.286,44.383,PIERRE,SD
468,24027,10.6,19.4,343.4,-109.065,41.594,ROCK SPRINGS,WY
469,24028,13.7,25.3,299.0,-103.595,41.874,SCOTTSBLUFF,NE
470,24029,10.7,19.2,349.0,-106.976,44.774,SHERIDAN,WY
471,24032,11.7,22.4,311.4,-100.551,42.859,VALENTINE,NE
472,24033,12.6,22.1,332.3,-108.543,45.808,BILLINGS,MT
473,24036,12.3,26.6,257.7,-109.467,47.049,LEWISTOWN,MT
474,24037,9.0,12.9,441.4,-105.886,46.428,MILES CITY,MT
475,24046,7.1,12.3,411.8,-107.521,40.495,CRAIG,CO
476,24057,9.9,19.5,328.6,-107.200,41.806,RAWLINS,WY
477,24061,8.4,19.5,302.1,-108.459,43.064,RIVERTON,WY
478,24062,8.4,14.4,395.8,-107.951,43.966,WORLAND,WY
479,24089,10.1,20.4,316.9,-106.473,42.898,CASPER,WY
480,24090,11.1,18.8,363.7,-103.054,44.046,RAPID CITY,SD
481,24091,13.1,27.3,260.2,-101.620,40.510,IMPERIAL,NE
482,24110,17.6,24.6,381.6,-119.319,47.208,MOSES LAKE,WA
483,24112,12.2,22.8,313.8,-111.187,47.504,GREAT FALLS,MT
484,24121,12.2,20.9,346.5,-115.792,40.825,ELKO,NV
485,24126,14.4,24.1,330.5,-112.011,41.196,OGDEN,UT
486,24128,12.5,27.4,249.7,-117.807,40.902,WINNEMUCCA,NV
487,24130,14.4,22.4,360.7,-117.810,44.838,BAKER CITY,OR
488,24131,18.6,27.1,354.5,-116.220,43.565,BOISE,ID
489,24132,10.5,16.4,398.9,-111.152,45.794,BOZEMAN,MT
490,24133,16.3,23.7,373.0,-113.772,42.543,BURLEY,ID
491,24135,9.5,17.8,351.4,-112.513,45.953,BUTTE,MT
492,24137,11.6,18.4,381.6,-112.376,48.608,CUT BANK,MT
493,24138,10.3,29.0,201.0,-112.552,45.255,DILLON,MT
494,24141,17.3,26.7,337.9,-119.514,47.304,EPHRATA,WA
495,24143,13.2,21.1,361.9,-111.382,47.473,GREAT FALLS,MT
496,24144,12.6,23.9,302.7,-111.964,46.606,HELENA,MT
497,24145,10.8,15.0,435.9,-112.067,43.516,IDAHO FALLS,ID
498,24146,16.2,21.2,421.1,-114.264,48.304,KALISPELL,MT
499,24149,21.8,30.7,350.2,-117.014,46.375,LEWISTON,ID
500,24150,10.4,24.5,259.0,-110.448,45.699,LIVINGSTON,MT
501,24152,18.4,24.7,395.8,-118.425,45.511,MEACHAM,OR
502,24153,17.2,22.7,411.2,-114.093,46.921,MISSOULA,MT
503,24154,14.6,18.6,442.0,-115.645,47.457,MULLAN PASS,ID
504,24155,23.5,30.0,394.6,-118.834,45.698,PENDLETON,OR
505,24156,13.4,20.0,386.6,-112.571,42.920,POCATELLO,ID
506,24157,19.7,25.7,402.6,-117.528,47.621,SPOKANE,WA
507,24160,24.6,36.7,300.9,-118.287,46.095,WALLA WALLA,WA
508,24162,13.7,19.8,397.0,-117.013,44.021,ONTARIO,OR
509,24163,20.5,30.7,326.8,-119.118,46.265,PASCO,WA
510,24164,4.4,11.4,373.0,-110.108,42.584,BIG PINEY,WY
511,24172,13.8,21.3,369.3,-118.565,40.066,LOVELOCK,NV
512,24215,19.7,34.5,258.3,-122.333,41.333,MOUNT SHASTA,CA
513,24216,25.7,47.0,189.3,-122.254,40.152,RED BLUFF,CA
514,24217,29.3,36.0,394.6,-122.537,48.794,BELLINGHAM,WA
515,24219,27.6,33.5,408.7,-121.167,45.619,THE DALLES,OR
516,24220,22.4,31.7,343.4,-120.530,47.034,ELLENSBURG,WA
517,24221,30.6,39.2,361.3,-123.214,44.133,EUGENE,OR
518,24222,30.9,37.2,402.6,-122.280,47.908,EVERETT,WA
519,24225,26.5,31.3,430.3,-122.871,42.389,MEDFORD,OR
520,24227,32.8,37.4,437.1,-122.903,46.973,OLYMPIA,WA
521,24229,31.7,36.4,434.6,-122.600,45.591,PORTLAND,OR
522,24230,19.9,28.9,347.1,-121.150,44.254,REDMOND,OR
523,24231,32.6,36.3,455.6,-123.355,43.239,ROSEBURG,OR
524,24232,32.4,35.3,472.2,-122.995,44.908,SALEM,OR
525,24233,32.3,40.0,377.9,-122.314,47.461,SEATTLE,WA
526,24234,32.8,39.9,389.0,-122.301,47.530,SEATTLE,WA
527,24235,22.4,38.1,249.1,-123.381,42.617,SEXTON SUMMIT,OR
528,24242,31.3,36.5,424.2,-122.400,45.549,PORTLAND,OR
529,24243,17.9,27.5,334.8,-120.534,46.564,YAKIMA,WA
530,24255,32.1,39.4,385.3,-122.650,48.350,WHIDBEY ISLAND,WA
531,24257,26.7,45.8,213.3,-122.313,40.515,REDDING,CA
532,24259,18.3,27.4,344.0,-122.468,41.781,MONTAGUE,CA
533,24283,36.0,42.6,400.1,-124.109,40.978,ARCATA/EUREKA,CA
534,24286,36.2,43.9,380.4,-124.237,41.780,CRESCENT CITY,CA
535,25309,24.3,27.6,461.1,-134.575,58.355,JUNEAU,AK
536,25323,14.7,21.0,393.3,-135.520,59.245,HAINES,AK
537,25325,33.6,36.7,468.5,-131.712,55.357,KETCHIKAN,AK
538,25331,8.0,12.6,425.4,-149.092,61.596,PALMER,AK
539,25333,32.3,37.6,422.9,-135.360,57.048,SITKA,AK
540,25335,11.9,23.7,294.1,-135.313,59.460,SKAGWAY,AK
541,25339,24.8,27.4,477.2,-139.628,59.510,YAKUTAT,AK
542,25501,26.6,31.2,434.0,-152.492,57.750,KODIAK,AK
543,25503,18.0,21.5,454.4,-156.654,58.684,KING SALMON,AK
544,25506,17.0,20.8,447.6,-154.915,59.753,ILIAMNA,AK
545,25507,17.6,24.3,387.2,-151.477,59.647,HOMER,AK
546,25516,21.5,24.4,469.1,-151.702,59.443,SELDOVIA,AK
547,25624,33.1,38.1,429.1,-162.722,55.207,COLD BAY,AK
548,25628,30.6,32.4,496.9,-169.565,56.600,ST. GEORGE ISLAND,AK
549,26409,9.3,8.1,539.4,-149.855,61.217,ANCHORAGE,AK
550,26410,20.5,24.9,435.9,-145.451,60.489,CORDOVA,AK
551,26438,17.7,26.7,345.3,-149.417,60.128,SEWARD,AK
552,26451,11.5,15.9,431.5,-149.993,61.175,ANCHORAGE,AK
553,26491,10.8,15.3,429.1,-149.961,61.179,ANCHORAGE,AK
554,26492,15.8,18.6,469.8,-148.839,60.785,PORTAGE GLACIER,AK
555,26523,9.9,11.4,500.0,-151.239,60.580,KENAI,AK
556,26528,5.6,11.5,395.8,-150.092,62.322,TALKEETNA,AK
557,26615,11.8,14.9,461.1,-161.826,60.786,BETHEL,AK
558,26616,1.1,5.9,417.4,-162.597,66.885,KOTZEBUE,AK
559,26617,8.6,14.3,402.0,-165.443,64.513,NOME,AK
560,26642,3.8,6.9,458.7,-164.548,67.732,KIVALINA,AK
561,26643,4.8,6.0,507.4,-162.764,66.069,DEERING,AK
562,27502,-5.0,-2.6,472.8,-156.763,71.287,BARROW,AK
563,27503,-5.6,0.7,380.4,-159.995,70.639,WAINWRIGHT,AK
566,53119,31.1,44.0,294.7,-119.629,36.319,HANFORD,CA
567,53120,24.8,51.5,140.0,-116.917,33.033,RAMONA,CA
568,53121,37.5,53.3,262.0,-117.349,33.219,OCEANSIDE,CA
569,53123,20.2,46.5,138.1,-115.196,36.212,LAS VEGAS,NV
570,53144,16.1,41.5,141.2,-117.865,34.988,EDWARDS,CA
571,53802,23.6,28.6,424.8,-88.280,39.478,MATTOON/CHARLESTON,IL
572,53819,40.0,47.0,395.2,-84.567,33.355,ATLANTA,GA
573,53820,44.0,52.2,376.7,-87.044,31.416,EVERGREEN,AL
574,53838,35.2,46.1,327.4,-83.830,34.272,GAINESVILLE,GA
575,53841,29.3,36.3,389.0,-84.903,38.185,FRANKFORT,KY
576,53842,23.0,30.1,382.9,-86.296,39.825,INDIANAPOLIS,IN
577,53843,45.5,55.1,355.1,-86.394,31.309,ANDALUSIA (FT RUCKER),AL
578,53844,26.9,34.3,380.4,-82.657,39.756,LANCASTER,OH
579,53847,46.9,55.3,375.5,-87.023,30.704,MILTON,FL
580,53848,47.2,55.4,378.5,-86.960,30.507,MILTON,FL
581,53850,35.8,49.2,291.6,-82.886,34.672,CLEMSON,SC
582,53852,35.8,44.0,371.8,-86.945,34.653,DECATUR,AL
583,53853,49.5,58.7,364.4,-86.472,30.400,DESTIN,FL
584,53854,42.8,52.6,350.2,-80.858,33.462,ORANGEBURG,SC
585,53855,27.2,33.9,393.3,-84.525,39.364,HAMILTON,OH
586,53858,47.2,54.0,402.6,-88.532,30.464,PASCAGOULA,MS
587,53859,26.3,33.5,383.5,-84.226,39.594,DAYTON,OH
588,53860,53.6,60.3,407.5,-81.515,30.336,JACKSONVILLE,FL
589,53861,46.9,53.9,398.9,-85.751,31.356,FORT RUCKER/OZARK,AL
590,53862,51.6,60.0,378.5,-83.574,30.072,PERRY-FOLEY,FL
591,53863,36.0,45.5,350.2,-84.302,33.875,ATLANTA,GA
592,53865,46.2,53.1,400.1,-89.821,30.345,SLIDELL,LA
593,53867,41.5,51.7,342.8,-80.996,33.971,COLUMBIA,SC
594,53868,33.7,42.4,361.9,-84.233,36.023,OAK RIDGE,TN
595,53869,33.0,39.4,402.0,-89.831,35.940,BLYTHEVILLE,AR
596,53871,37.0,46.2,355.7,-81.058,34.987,ROCK HILL,SC
597,53872,37.4,47.6,340.3,-80.621,35.017,MONROE,NC
598,53873,37.5,44.8,388.4,-84.849,34.123,CARTERSVILLE,GA
599,53874,38.8,48.8,344.0,-82.159,34.249,GREENWOOD,SC
600,53879,19.9,30.3,323.1,-94.371,38.960,LEE'S SUMMIT,MO
601,53902,42.5,48.7,410.6,-95.414,30.352,CONROE,TX
602,53903,41.0,48.8,381.6,-95.587,30.747,HUNTSVILLE,TX
603,53904,22.0,29.8,369.3,-90.428,38.929,ST CHARLES,MO
604,53905,38.1,46.0,378.5,-93.744,32.540,SHREVEPORT,LA
605,53907,32.7,42.3,346.5,-97.094,32.664,ARLINGTON,TX
606,53909,30.6,40.0,347.7,-97.318,32.973,FORT WORTH,TX
607,53910,44.2,50.7,406.3,-95.553,30.062,HOUSTON,TX
608,53913,25.0,36.4,312.0,-97.416,35.850,GUTHRIE,OK
609,53914,32.7,41.0,368.1,-96.590,33.180,MC KINNEY,TX
610,53915,45.1,53.0,382.9,-91.884,30.038,NEW IBERIA,LA
611,53916,17.6,26.1,353.9,-93.579,39.823,CHILLICOTHE,MO
612,53917,48.6,55.9,394.6,-90.028,30.043,NEW ORLEANS,LA
613,53918,26.9,36.3,345.3,-92.470,36.369,MOUNTAIN HOME,AR
614,53919,36.6,44.9,370.5,-91.751,33.638,MONTICELLO,AR
615,53920,31.7,39.8,370.5,-93.095,35.258,RUSSELLVILLE,AR
616,53921,33.3,41.1,376.7,-93.578,34.547,MOUNT IDA,AR
617,53922,26.6,33.9,381.6,-94.307,36.282,FAYETTEVILLE/SPRINGDALE,AR
618,53925,35.3,42.2,393.9,-94.399,34.047,DE QUEEN,AR
619,53959,34.1,40.1,410.0,-90.234,35.135,WEST MEMPHIS,AR
620,53988,41.5,50.2,366.8,-92.967,31.150,FORT POLK,LA
621,54704,24.2,31.1,387.8,-71.174,42.191,NORWOOD,MA
622,54728,14.7,21.1,391.5,-71.545,44.368,WHITEFIELD,NH
623,54733,22.5,30.7,362.5,-70.918,42.584,BEVERLY,MA
624,54734,22.9,31.6,354.5,-73.483,41.371,DANBURY,CT
625,54737,25.9,32.9,386.6,-76.294,40.120,LANCASTER,PA
626,54740,17.7,24.4,387.2,-72.518,43.344,SPRINGFIELD,VT
627,54742,16.3,21.1,425.4,-72.019,44.419,SAINT JOHNSBURY,VT
628,54743,24.5,33.7,347.1,-74.283,40.876,CALDWELL,NJ
629,54756,20.8,25.7,425.4,-72.291,42.570,ORANGE,MA
630,54757,20.4,27.9,374.2,-77.992,42.109,WELLSVILLE,NY
631,54767,23.5,30.2,390.9,-72.184,41.742,WILLIMANTIC,CT
632,54768,20.3,28.1,368.7,-73.171,42.696,NORTH ADAMS,MA
633,54769,25.0,32.9,369.9,-70.729,41.910,PLYMOUTH,MA
634,54770,18.6,24.8,397.6,-72.004,42.805,JAFFREY,NH
635,54772,14.5,20.4,401.3,-70.948,43.991,FRYEBURG,ME
636,54773,20.7,27.4,389.0,-76.385,43.350,FULTON,NY
637,54777,25.6,33.8,365.0,-71.021,41.876,TAUNTON,MA
638,54778,22.4,26.9,434.6,-77.056,42.643,PENN YAN,NY
639,54779,23.9,30.3,397.0,-74.737,41.009,ANDOVER,NJ
640,54780,30.3,38.5,368.1,-71.923,41.073,MONTAUK,NY
641,54781,20.2,28.3,363.1,-73.247,42.891,BENNINGTON,VT
642,54782,26.9,34.2,381.6,-75.557,40.238,POTTSTOWN,PA
643,54785,25.3,32.8,377.3,-74.669,40.624,SOMERVILLE,NJ
644,54786,27.1,33.4,400.7,-75.123,40.330,DOYLESTOWN,PA
645,54787,27.8,36.5,357.6,-73.417,40.734,FARMINGDALE,NY
646,54788,23.4,30.9,376.1,-72.828,41.510,MERIDEN,CT
647,54789,22.1,28.6,393.9,-75.379,41.139,MOUNT POCONO,PA
648,54790,28.9,36.5,377.9,-72.869,40.822,SHIRLEY,NY
649,54791,18.6,25.8,378.5,-70.922,43.278,ROCHESTER,NH
650,54792,23.5,29.2,410.6,-78.412,41.047,CLEARFIELD,PA
651,54793,23.3,29.5,400.7,-74.623,41.200,SUSSEX,NJ
652,63870,47.2,54.9,387.2,-86.312,31.043,FLORALA,AL
653,63872,45.0,52.8,384.1,-85.129,31.951,EUFAULA,AL
654,63874,43.3,51.4,377.9,-86.611,31.846,GREENVILLE,AL
655,64775,20.2,26.0,406.9,-75.412,43.234,ROME,NY
656,64776,15.5,21.3,403.8,-73.468,44.651,PLATTSBURG,NY
657,73805,51.6,58.0,411.8,-85.788,30.349,PANAMA CITY,FL
658,92805,66.0,74.9,379.2,-80.108,26.250,POMPANO BEACH,FL
659,92806,61.7,69.7,390.3,-82.628,27.765,ST PETERSBURG,FL
660,92809,66.3,74.3,393.3,-80.241,25.999,HOLLYWOOD,FL
661,93005,15.0,24.1,341.6,-107.760,37.143,DURANGO,CO
662,93009,4.5,15.4,302.1,-106.316,39.228,LEADVILLE,CO
663,93010,11.1,23.8,279.9,-103.716,39.189,LIMON,CO
664,93013,13.3,20.7,371.1,-107.898,38.505,MONTROSE,CO
665,93026,25.6,43.9,220.7,-109.604,31.469,DOUGLAS BISBEE,AZ
666,93027,17.1,32.6,246.6,-109.379,34.518,ST JOHNS,AZ
667,93033,26.4,42.7,245.4,-104.263,32.338,CARLSBAD,NM
668,93037,10.2,29.3,196.1,-104.711,38.812,COLORADO SPRINGS,CO
669,93042,16.7,32.9,237.4,-102.547,36.023,DALHART,TX
670,93045,21.1,40.6,202.9,-107.268,33.237,TRUTH OR CONSEQUENCES,NM
671,93067,10.6,32.9,163.4,-104.849,39.570,DENVER,CO
672,93069,15.7,25.8,324.9,-108.628,37.303,CORTEZ,CO
673,93073,10.2,15.7,406.9,-106.868,39.223,ASPEN,CO
674,93075,11.4,14.5,461.1,-109.754,38.755,MOAB,UT
675,93084,25.5,46.6,191.2,-109.635,32.855,SAFFORD,AZ
676,93102,17.3,25.7,355.7,-118.700,39.417,FALLON,NV
677,93104,15.8,42.4,131.4,-117.683,35.683,CHINA LAKE,CA
678,93107,30.7,56.1,156.6,-117.150,32.867,MIRAMAR,CA
679,93110,33.0,55.3,186.8,-119.206,34.201,OXNARD,CA
680,93111,34.0,59.5,159.1,-119.117,34.117,POINT MUGU,CA
681,93112,41.5,62.4,209.0,-117.200,32.700,SAN DIEGO,CA
682,93129,12.7,21.9,337.9,-113.097,37.702,CEDAR CITY,UT
683,93134,34.6,58.9,170.2,-118.296,34.028,LOS ANGELES,CA
684,93141,10.9,22.2,301.5,-110.750,39.545,PRICE,UT
685,93167,18.3,40.9,169.0,-113.937,35.259,KINGMAN,AZ
686,93184,38.3,58.9,209.0,-117.866,33.680,SANTA ANA,CA
687,93193,32.6,47.4,270.1,-119.719,36.780,FRESNO,CA
688,93197,33.7,59.0,160.3,-118.451,34.016,SANTA MONICA,CA
689,93205,30.6,44.2,284.8,-121.570,39.098,MARYSVILLE,CA
690,93206,30.5,54.2,171.4,-120.641,35.237,SAN LUIS OBISPO,CA
691,93209,25.0,46.0,191.2,-120.627,35.673,PASO ROBLES,CA
692,93210,31.1,46.7,258.3,-121.618,39.490,OROVILLE,CA
693,93225,29.6,43.8,275.6,-121.590,38.696,SACRAMENTO,CA
694,93227,30.8,43.3,300.3,-122.280,38.213,NAPA,CA
695,93230,14.4,28.4,263.9,-119.995,38.894,SOUTH LAKE TAHOE,CA
696,93241,27.7,44.5,240.5,-121.961,38.377,VACAVILLE,CA
697,93242,31.5,43.8,304.0,-120.111,36.988,MADERA,CA
698,93706,26.1,36.5,328.0,-77.730,39.708,HAGERSTOWN,MD
699,93718,44.6,51.8,393.9,-78.721,33.816,NORTH MYRTLE BEACH,SC
700,93719,43.5,51.8,374.8,-77.047,35.068,NEW BERN,NC
701,93720,34.0,43.4,350.2,-75.510,38.341,SALISBURY,MD
702,93721,28.9,39.6,325.5,-76.684,39.172,BALTIMORE,MD
703,93727,43.5,51.0,388.4,-77.433,34.700,NEW RIVER,NC
704,93729,46.7,52.6,418.6,-75.623,35.232,CAPE HATTERAS,NC
705,93730,30.6,39.1,363.1,-74.457,39.458,ATLANTIC CITY,NJ
706,93736,28.0,41.2,287.9,-78.453,38.139,CHARLOTTESVILLE,VA
707,93738,28.8,39.2,330.5,-77.448,38.935,WASHINGTON,DC
708,93739,34.9,44.1,354.5,-75.496,37.941,WALLOPS ISLAND,VA
709,93740,39.5,49.3,347.7,-78.880,34.991,FAYETTEVILLE,NC
710,93741,36.6,47.4,330.5,-76.493,37.132,NEWPORT NEWS,VA
711,93743,43.5,50.4,398.9,-77.030,34.691,SWANSBORO,NC
712,93759,37.8,46.6,363.1,-77.893,35.855,ROCKY MOUNT,NC
713,93765,46.3,51.9,423.5,-76.661,34.734,BEAUFORT,NC
714,93773,35.7,44.7,358.2,-77.007,36.984,WAKEFIELD,VA
715,93775,33.3,42.4,355.1,-77.434,37.708,RICHMOND/ASHLAND,VA
716,93778,26.3,35.4,349.6,-76.874,39.918,YORK,PA
717,93780,28.5,37.1,360.0,-74.841,39.941,MOUNT HOLLY,NJ
718,93782,40.3,47.7,388.4,-79.366,34.792,MAXTON,NC
719,93783,33.0,44.6,315.0,-79.477,36.047,BURLINGTON,NC
720,93784,29.4,43.2,280.5,-76.610,39.281,BALTIMORE,MD
721,93785,35.5,46.1,332.3,-79.064,35.933,CHAPEL HILL,NC
722,93786,33.9,41.4,382.9,-75.124,38.308,OCEAN CITY,MD
723,93801,38.4,44.6,408.7,-85.161,34.348,ROME,GA
724,93805,49.4,59.0,357.6,-84.353,30.393,TALLAHASSEE,FL
725,93806,39.5,48.1,367.4,-87.616,33.212,TUSCALOOSA,AL
726,93808,30.4,39.1,359.4,-86.436,36.981,BOWLING GREEN,KY
727,93810,25.6,32.5,388.4,-89.250,37.780,CARBONDALE/MURPHYBORO,IL
728,93812,27.5,35.6,368.1,-84.419,39.103,CINCINNATI,OH
729,93814,28.0,35.3,382.9,-84.672,39.043,COVINGTON,KY
730,93815,25.5,32.7,382.9,-84.219,39.906,DAYTON,OH
731,93817,27.1,36.4,347.1,-87.537,38.043,EVANSVILLE,IN
732,93819,23.3,30.0,390.9,-86.272,39.710,INDIANAPOLIS,IN
733,93820,29.6,38.0,364.4,-84.606,38.041,LEXINGTON,KY
734,93821,29.2,38.6,347.1,-85.730,38.177,LOUISVILLE,KY
735,93822,20.7,27.3,391.5,-89.684,39.845,SPRINGFIELD,IL
736,93824,25.5,34.0,359.4,-81.892,39.944,ZANESVILLE,OH
737,93831,47.2,56.0,369.3,-80.717,32.483,BEAUFORT,SC
738,93837,53.7,63.8,353.3,-81.683,30.233,JACKSONVILLE,FL
739,93841,47.8,54.5,404.4,-87.022,30.724,MILTON,FL
740,93842,41.8,51.5,350.8,-84.942,32.516,COLUMBUS,GA
741,93845,50.1,60.6,344.6,-83.277,30.783,VALDOSTA,GA
742,93846,38.3,47.0,365.0,-82.709,34.495,ANDERSON,SC
743,93862,35.7,43.4,380.4,-88.771,34.261,TUPELO,MS
744,93874,45.9,53.9,381.6,-89.070,30.407,GULFPORT,MS
745,93909,19.5,28.2,352.0,-94.890,38.831,OLATHE,KS
746,93915,41.7,48.9,392.7,-92.559,31.335,ALEXANDRIA,LA
747,93950,28.1,36.7,359.4,-95.783,34.899,MC ALESTER,OK
748,93953,28.0,35.9,371.8,-95.361,35.657,MUSKOGEE,OK
749,93967,25.3,33.4,366.2,-95.566,37.091,COFFEYVILLE,KS
750,93986,25.5,34.7,347.7,-99.051,35.008,HOBART,OK
751,93987,40.7,48.7,377.9,-94.750,31.234,LUFKIN,TX
752,93988,35.8,43.0,389.0,-91.935,34.175,PINE BLUFF,AR
753,93989,19.0,26.6,371.1,-91.194,39.943,QUINCY,IL
754,93990,13.8,32.1,209.0,-99.830,39.376,HILL CITY,KS
755,93992,37.5,43.7,408.1,-92.813,33.221,EL DORADO,AR
756,93993,26.8,34.5,374.8,-94.170,36.005,FAYETTEVILLE,AR
757,93997,15.8,30.7,253.4,-98.828,38.872,RUSSELL,KS
758,94008,5.1,7.4,478.4,-106.621,48.214,GLASGOW,MT
759,94012,8.3,12.7,430.3,-109.780,48.559,HAVRE,MT
760,94014,1.6,7.5,393.3,-103.642,48.195,WILLISTON,ND
761,94017,2.4,5.7,453.1,-105.574,48.094,WOLF POINT,MT
762,94023,11.8,19.6,362.5,-105.542,44.339,GILLETTE,WY
763,94030,4.5,11.9,365.0,-109.509,40.441,VERNAL,UT
764,94032,10.0,21.2,302.1,-103.628,43.731,CUSTER,SD
765,94037,8.4,14.9,385.3,-103.546,45.604,BUFFALO,SD
766,94039,13.3,20.7,371.1,-102.518,43.021,PINE RIDGE,SD
767,94040,13.4,30.7,220.1,-100.591,40.206,MC COOK,NE
768,94041,1.4,5.2,440.8,-101.439,47.663,GARRISON,ND
769,94050,9.1,20.0,305.8,-107.885,40.049,MEEKER,CO
770,94052,4.7,10.6,395.8,-100.408,45.546,MOBRIDGE,SD
771,94053,12.4,25.1,281.1,-104.153,42.065,TORRINGTON,WY
772,94055,6.8,12.5,400.7,-104.250,46.358,BAKER,MT
773,94056,7.9,14.2,389.0,-102.019,45.032,FAITH,SD
774,94057,10.0,21.6,295.3,-105.386,42.797,DOUGLAS,WY
775,94107,16.5,26.4,328.6,-117.864,42.591,ROME,OR
776,94119,19.0,23.0,443.9,-117.421,47.969,DEER PARK,WA
777,94128,11.6,17.2,405.7,-111.853,41.787,LOGAN,UT
778,94129,21.6,27.2,411.2,-117.109,46.744,PULLMAN/MOSCOW,WA
779,94173,5.3,9.6,430.9,-110.421,44.544,YELLOWSTONE,WY
780,94176,21.6,28.2,391.5,-117.321,47.683,SPOKANE,WA
781,94178,16.4,26.4,327.4,-114.487,42.482,TWIN FALLS,ID
782,94182,12.9,17.8,421.7,-116.102,44.889,MCCALL,ID
783,94194,10.4,13.9,451.3,-111.881,43.834,REXBURG,ID
784,94197,16.1,22.7,388.4,-119.517,48.464,OMAK,WA
785,94224,34.0,37.9,451.9,-123.878,46.158,ASTORIA,OR
786,94227,32.3,36.0,455.6,-123.148,47.238,SHELTON,WA
787,94236,16.1,22.7,388.4,-121.724,42.147,KLAMATH FALLS,OR
788,94239,18.7,26.2,373.0,-120.207,47.399,WENATCHEE,WA
789,94240,35.6,43.9,369.9,-124.561,47.934,QUILLAYUTE,WA
790,94248,32.6,37.9,422.9,-122.214,47.493,RENTON,WA
791,94261,29.9,33.7,452.5,-122.949,45.541,PORTLAND,OR
792,94266,31.5,37.1,416.8,-123.498,48.120,PORT ANGELES,WA
793,94273,32.1,38.7,397.6,-123.134,45.195,MC MINNVILLE,OR
794,94274,32.8,38.8,409.4,-122.576,47.268,TACOMA,WA
795,94276,31.4,37.1,414.3,-123.023,48.522,FRIDAY HARBOR,WA
796,94281,31.6,35.1,459.3,-122.769,45.249,AURORA,OR
797,94298,30.9,35.8,430.3,-122.657,45.621,VANCOUVER,WA
798,94299,13.8,23.7,326.8,-120.567,41.483,ALTURAS,CA
799,94623,17.4,22.5,419.2,-69.712,43.964,WISCASSET,ME
800,94624,28.8,35.9,386.6,-69.993,41.688,CHATHAM,MA
801,94626,10.6,16.2,405.0,-69.595,45.462,GREENVILLE,ME
802,94700,15.0,20.0,420.5,-71.179,44.576,BERLIN,NH
803,94702,27.4,35.1,374.8,-73.146,41.175,BRIDGEPORT,CT
804,94704,23.3,30.6,379.8,-77.713,42.571,DANSVILLE,NY
805,94705,16.4,21.0,429.7,-72.579,44.203,BARRE/MONTPELIER,VT
806,94720,28.9,35.6,393.9,-70.280,41.669,HYANNIS,MA
807,94723,20.4,27.9,374.2,-71.124,42.717,LAWRENCE,MA
808,94724,29.3,37.4,369.3,-70.615,41.393,VINEYARD HAVEN,MA
809,94725,12.4,17.7,412.4,-74.846,44.936,MASSENA,NY
810,94726,26.8,36.4,341.6,-70.958,41.676,NEW BEDFORD,MA
811,94728,26.2,38.6,297.8,-73.967,40.783,NEW YORK,NY
812,94732,28.9,38.0,351.4,-75.011,40.082,PHILADELPHIA,PA
813,94740,15.4,17.9,476.5,-74.207,44.385,SARANAC LAKE,NY
814,94741,26.3,38.1,307.0,-74.061,40.850,TETERBORO,NJ
815,94745,25.1,34.0,352.7,-73.708,41.067,WHITE PLAINS,NY
816,94746,21.5,27.7,399.5,-71.876,42.267,WORCESTER,MA
817,94765,17.1,24.1,381.0,-72.305,43.626,LEBANON,NH
818,94789,27.6,38.1,328.0,-73.796,40.655,NEW YORK,NY
819,94790,18.2,24.1,403.8,-76.022,43.992,WATERTOWN,NY
820,94814,13.9,18.4,430.3,-84.691,44.368,HOUGHTON LAKE,MI
821,94815,20.4,26.5,400.7,-85.552,42.235,KALAMAZOO,MI
822,94817,18.4,24.4,401.3,-83.418,42.665,PONTIAC,MI
823,94818,15.4,20.8,412.4,-87.814,42.761,RACINE,WI
824,94822,14.5,19.4,422.3,-89.093,42.196,ROCKFORD,IL
825,94823,25.7,34.2,359.4,-80.231,40.501,PITTSBURGH,PA
826,94830,21.2,27.6,395.2,-83.801,41.589,TOLEDO,OH
827,94846,16.9,22.9,400.7,-87.914,41.986,CHICAGO,IL
828,94847,20.4,27.5,381.6,-83.349,42.215,DETROIT,MI
829,94849,13.6,17.2,450.7,-83.581,45.072,ALPENA,MI
830,94855,9.6,13.8,435.2,-88.557,43.984,OSHKOSH,WI
831,94860,19.6,26.1,392.7,-85.523,42.882,GRAND RAPIDS,MI
832,94870,21.9,26.7,427.9,-88.278,40.040,CHAMPAIGN/URBANA,IL
833,94871,21.4,26.6,419.2,-86.422,42.129,BENTON HARBOR,MI
834,94889,19.7,25.4,408.1,-83.744,42.223,ANN ARBOR,MI
835,94892,16.9,21.3,434.0,-88.246,41.914,CHICAGO/WEST CHICAGO,IL
836,94893,5.1,10.7,402.0,-88.114,45.818,IRON MOUNTAIN/KINGSFORD,MI
837,94895,22.9,29.7,389.0,-85.394,40.234,MUNCIE,IN
838,94898,17.4,23.9,390.9,-82.793,44.022,HARBOR BEACH,MI
839,94899,11.8,17.6,402.0,-87.875,47.467,COPPER HARBOR,MI
840,94908,12.6,15.3,471.0,-90.704,42.398,DUBUQUE,IA
841,94910,11.0,15.2,435.9,-92.401,42.554,WATERLOO,IA
842,94929,4.2,8.3,435.2,-90.919,46.549,ASHLAND,WI
843,94938,-0.3,4.7,412.4,-94.131,46.405,BRAINERD,MN
844,94943,8.4,15.5,373.6,-99.318,43.767,CHAMBERLAIN,SD
845,94946,12.6,23.1,315.7,-99.639,41.437,BROKEN BOW,NE
846,94949,13.6,23.1,333.5,-98.427,40.604,HASTINGS,NE
847,94950,7.7,13.0,410.0,-98.038,43.777,MITCHELL,SD
848,94957,15.8,24.4,350.8,-95.592,40.079,FALLS CITY,NE
849,94958,10.2,25.5,242.3,-98.952,41.624,ORD,NE
850,94960,4.9,11.1,389.6,-93.351,45.063,MINNEAPOLIS,MN
851,94961,-6.7,-3.6,454.4,-94.610,48.728,BAUDETTE,MN
852,94963,5.8,11.7,396.4,-93.470,44.832,MINNEAPOLIS,MN
853,94967,-2.2,0.3,471.6,-95.068,46.901,PARK RAPIDS,MN
854,94971,8.9,13.2,432.8,-94.746,43.408,ESTHERVILLE,IA
855,94973,2.4,5.3,463.0,-91.444,46.026,HAYWARD,WI
856,94978,10.1,20.0,323.7,-96.178,41.764,TEKAMAH,NE
857,94982,14.5,19.6,418.0,-90.591,41.614,DAVENPORT,IA
858,94985,6.6,11.3,422.3,-90.189,44.637,MARSHFIELD,WI
859,94988,12.1,16.0,443.3,-92.918,42.113,MARSHALLTOWN,IA
860,94989,11.0,16.2,414.3,-93.622,41.992,AMES,IA
861,94990,10.9,19.4,349.0,-99.842,43.390,WINNER,SD
862,94991,14.8,22.5,366.2,-93.902,40.633,LAMONI,IA
863,94992,1.5,9.1,358.8,-90.344,47.747,GRAND MARAIS,MN
864,94994,10.4,16.6,392.7,-90.678,43.156,BOSCOBEL,WI
