,wban,dewpt,tavg,wp,long,lat,stname,ststate
0,03013,22.9,47.6,154.2,-102.688,38.070,LAMAR,CO
1,03017,21.7,41.7,198.6,-104.658,39.833,DENVER,CO
2,03024,29.5,55.2,152.9,-101.394,35.700,BORGER,TX
3,03026,26.0,43.6,229.4,-102.284,39.245,BURLINGTON,CO
4,03027,15.6,48.9,84.5,-105.663,35.003,CLINES CORNERS,NM
5,03028,23.6,46.3,173.3,-102.614,37.283,SPRINGFIELD,CO
6,03030,28.8,51.6,177.6,-101.505,36.682,GUYMON,OK
7,03031,32.5,64.6,108.6,-102.387,31.921,ODESSA,TX
8,03032,43.1,69.2,163.4,-102.213,30.048,DRYDEN,TX
9,03068,20.3,40.9,190.5,-104.300,38.767,BULLSEYE,CO
10,03102,42.7,64.9,197.3,-117.600,34.056,ONTARIO,CA
11,03103,17.3,44.6,127.0,-111.672,35.140,FLAGSTAFF,AZ
12,03104,35.0,73.6,74.0,-116.160,33.628,PALM SPRINGS,CA
13,03124,15.9,63.7,19.2,-110.344,31.588,FORT HUACHUCA/SIERRA VISTA,AZ
14,03131,47.3,61.8,286.7,-117.139,32.816,SAN DIEGO,CA
15,03144,36.2,73.0,84.5,-115.579,32.834,IMPERIAL,CA
16,03145,31.3,75.1,46.9,-114.617,32.650,YUMA,AZ
17,03154,45.3,60.4,277.4,-117.350,33.300,CAMP PENDLETON,CA
18,03159,31.1,64.7,98.1,-118.219,34.741,LANCASTER,CA
19,03160,16.8,63.2,24.7,-116.028,36.621,MERCURY,NV
20,03162,19.0,60.4,46.3,-111.448,36.926,PAGE,AZ
21,03164,35.3,55.1,214.0,-116.467,32.617,CAMPO,CA
22,03166,47.0,67.1,222.0,-117.979,33.872,FULLERTON,CA
23,03167,48.5,63.0,287.9,-118.334,33.923,HAWTHORNE,CA
24,03177,47.8,60.9,305.8,-117.279,33.128,CARLSBAD,CA
25,03178,47.9,60.3,315.7,-116.979,32.572,SAN DIEGO,CA
26,03179,44.1,62.3,239.8,-117.636,33.975,CHINO,CA
27,03184,25.7,70.6,37.7,-112.082,33.688,PHOENIX,AZ
28,03192,27.0,71.8,38.9,-111.911,33.623,SCOTTSDALE,AZ
29,03195,14.0,43.2,109.8,-112.155,35.946,GRAND CANYON,AZ
30,03196,19.2,62.8,37.1,-110.846,31.421,NOGALES,AZ
31,03749,34.3,59.1,165.3,-77.468,39.645,CAMP DAVID,MD
32,03757,43.0,56.9,291.0,-76.429,38.142,ST INIGOES,MD
33,03802,36.4,54.6,232.5,-80.229,39.296,CLARKSBURG,WV
34,03804,37.3,55.1,238.0,-81.439,39.345,PARKERSBURG,WV
35,03810,43.8,58.5,281.1,-81.390,35.741,HICKORY,NC
36,03811,47.6,58.4,338.5,-88.917,35.593,JACKSON,TN
37,03812,42.1,55.4,298.4,-82.538,35.432,ASHEVILLE,NC
38,03813,52.1,61.9,356.3,-83.654,32.688,MACON,GA
39,03816,44.8,55.8,333.5,-88.774,37.056,PADUCAH,KY
40,03818,56.0,66.7,345.9,-85.184,30.836,MARIANNA,FL
41,03820,51.1,62.4,333.5,-81.965,33.370,AUGUSTA,GA
42,03822,55.7,66.4,345.3,-81.202,32.119,SAVANNAH,GA
43,03847,41.6,55.4,291.6,-85.085,35.951,CROSSVILLE,TN
44,03849,41.3,55.9,280.5,-84.077,37.087,LONDON,KY
45,03853,61.8,68.1,418.6,-81.417,30.400,MAYPORT,FL
46,03855,59.3,65.7,415.5,-87.317,30.350,PENSACOLA,FL
47,03856,49.0,61.2,319.4,-86.786,34.644,HUNTSVILLE,AL
48,03859,37.1,58.6,198.6,-81.208,37.296,BLUEFIELD,WV
49,03860,39.7,57.7,238.0,-82.555,38.382,HUNTINGTON,WV
50,03866,52.0,62.5,345.9,-88.567,32.550,MERIDIAN,MS
51,03868,40.7,52.4,320.0,-87.309,39.452,TERRE HAUTE,IN
52,03870,46.0,60.8,281.8,-82.219,34.899,GREER,SC
53,03872,36.9,53.2,255.3,-81.125,37.795,BECKLEY,WV
54,03878,52.3,63.4,337.2,-86.012,31.861,TROY,AL
55,03887,39.6,51.3,318.7,-88.866,39.984,DECATUR,IL
56,03888,47.7,60.9,304.6,-84.521,33.779,ATLANTA,GA
57,03889,39.1,57.7,230.6,-83.314,37.591,JACKSON,KY
58,03893,40.4,53.2,304.0,-86.617,39.144,BLOOMINGTON,IN
59,03894,45.1,57.4,315.0,-87.415,36.622,CLARKSVILLE,TN
60,03901,51.4,63.5,322.4,-94.711,32.385,LONGVIEW,TX
61,03902,53.1,65.9,313.8,-97.822,31.070,FORT HOOD/KILLEEN,TX
62,03904,54.8,66.4,331.7,-96.364,30.588,COLLEGE STATION,TX
63,03919,37.1,50.4,294.1,-97.661,38.813,SALINA,KS
64,03927,49.2,63.0,297.8,-97.041,32.896,DALLAS-FORT WORTH,TX
65,03928,39.8,51.3,321.8,-97.429,37.647,WICHITA,KS
66,03931,53.5,64.5,339.7,-93.192,31.045,FORT POLK,LA
67,03932,40.6,53.3,305.8,-99.200,35.340,CLINTON,OK
68,03933,52.5,66.8,294.1,-97.713,31.134,FORT HOOD (KILLEEN),TX
69,03935,45.0,55.5,340.9,-89.571,37.225,CAPE GIRARDEAU,MO
70,03936,37.0,49.3,308.3,-96.678,39.135,MANHATTAN,KS
71,03937,57.2,66.7,364.4,-93.228,30.125,LAKE CHARLES,LA
72,03940,53.1,63.9,342.2,-90.078,32.320,JACKSON,MS
73,03945,39.7,53.3,292.2,-92.218,38.817,COLUMBIA,MO
74,03947,36.7,49.9,295.3,-94.718,39.299,KANSAS CITY,MO
75,03949,53.4,65.0,331.1,-93.283,31.400,FORT POLK,LA
76,03950,44.6,57.1,311.4,-98.416,34.568,LAWTON,OK
77,03953,47.8,58.2,344.6,-90.646,35.831,JONESBORO,AR
78,03954,41.0,55.4,283.0,-97.647,35.534,OKLAHOMA CITY,OK
79,03957,38.0,50.6,304.6,-98.553,37.284,MEDICINE LODGE,KS
80,03959,42.6,53.7,330.5,-96.011,36.762,BARTLESVILLE,OK
81,03960,41.3,54.0,305.8,-90.157,38.571,CAHOKIA/ST.LOUIS,IL
82,03962,47.1,60.3,304.0,-93.096,34.478,HOT SPRINGS,AR
83,03963,39.1,53.4,282.4,-92.156,38.591,JEFFERSON CITY,MO
84,03965,42.3,54.9,308.3,-97.086,36.160,STILLWATER,OK
85,03966,40.4,53.5,299.6,-90.656,38.657,ST LOUIS,MO
86,03967,37.6,50.0,307.0,-94.739,38.850,OLATHE,KS
87,03971,50.3,63.2,310.7,-96.868,32.681,DALLAS,TX
88,03975,46.0,57.9,321.2,-90.325,36.773,POPLAR BLUFF,MO
89,03981,43.3,58.3,277.4,-98.984,34.352,FREDERICK,OK
90,03991,49.3,60.5,333.5,-97.199,33.206,DENTON,TX
91,03994,40.3,53.7,295.3,-93.183,38.704,SEDALIA,MO
92,03996,54.1,63.9,357.6,-91.030,32.348,TALLULAH/VICKSBURG,MS
93,03997,37.9,49.6,317.5,-95.212,39.008,LAWRENCE,KS
94,03998,41.3,53.3,316.3,-95.504,37.328,PARSONS,KS
95,03999,50.9,65.2,292.2,-98.235,30.741,BURNET,TX
96,04109,37.5,48.5,328.0,-115.596,46.144,ELK CITY,ID
97,04110,27.3,45.7,221.4,-114.456,42.727,JEROME,ID
98,04111,19.9,36.4,236.8,-111.031,41.273,EVANSTON,WY
99,04112,19.6,33.5,270.7,-114.927,44.171,STANLEY,ID
100,04113,34.9,51.2,253.4,-119.261,45.826,HERMISTON,OR
101,04114,16.4,42.1,139.4,-114.215,41.523,CHALLIS,ID
102,04201,40.5,50.0,353.3,-122.861,45.773,SCAPPOOSE,OR
103,04724,32.0,44.7,298.4,-78.945,43.107,NIAGARA FALLS,NY
104,04725,30.2,44.1,279.9,-75.981,42.208,BINGHAMTON,NY
105,04726,33.2,47.5,277.4,-78.834,40.301,JOHNSTOWN,PA
106,04751,30.9,45.7,268.8,-78.640,41.803,BRADFORD,PA
107,04780,30.3,48.1,231.2,-71.756,42.552,FITCHBURG,MA
108,04781,34.3,49.7,263.9,-73.102,40.794,ISLIP,NY
109,04787,33.0,48.1,267.0,-78.899,41.178,DU BOIS,PA
110,04789,32.3,48.4,253.4,-74.265,41.509,MONTGOMERY,NY
111,04803,25.2,34.6,344.0,-89.465,45.631,RHINELANDER,WI
112,04804,38.3,52.0,289.8,-83.078,40.078,COLUMBUS,OH
113,04808,36.1,46.4,337.2,-88.481,41.770,CHICAGO/AURORA,IL
114,04826,28.6,39.4,323.7,-89.837,44.359,WISCONSIN RAPIDS,WI
115,04836,23.0,36.2,283.6,-68.307,47.286,FRENCHVILLE,ME
116,04838,34.4,46.5,308.9,-87.905,42.121,CHICAGO/PROSPECT HGTS/WHEELI,IL
117,04839,33.1,46.3,292.2,-86.097,42.746,HOLLAND,MI
118,04840,30.7,42.1,316.3,-88.486,43.770,FOND DU LAC,WI
119,04841,32.6,40.4,376.7,-87.851,43.769,SHEBOYGAN,WI
120,04842,37.0,47.9,329.2,-81.887,40.875,WOOSTER,OH
121,04843,33.9,47.7,284.8,-80.215,41.626,MEADVILLE,PA
122,04845,33.1,44.8,313.8,-87.938,42.595,KENOSHA,WI
123,04846,35.7,47.5,314.4,-87.006,41.453,VALPARAISO,IN
124,04847,33.8,45.6,313.2,-84.079,41.868,ADRIAN,MI
125,04848,34.7,46.9,307.7,-83.476,41.563,TOLEDO,OH
126,04849,35.6,48.8,294.7,-82.179,41.179,LORAIN/ELYRIA,OH
127,04850,36.5,50.6,283.0,-84.027,40.708,LIMA,OH
128,04851,35.8,48.1,307.0,-84.429,41.338,DEFIANCE,OH
129,04852,36.6,51.1,277.4,-81.420,40.470,NEW PHILADELPHIA,OH
130,04853,35.7,48.3,302.7,-81.684,41.518,CLEVELAND,OH
131,04854,28.2,36.7,361.3,-84.701,45.013,GAYLORD,MI
132,04857,33.0,48.5,261.4,-80.696,41.778,ASHTABULA,OH
133,04858,38.7,51.6,300.9,-82.463,40.023,NEWARK,OH
135,12812,64.3,75.8,340.3,-81.991,26.917,PUNTA GORDA,FL
136,12815,63.5,74.3,349.6,-81.325,28.434,ORLANDO,FL
137,12816,58.5,69.6,341.6,-82.272,29.690,GAINESVILLE,FL
138,12818,62.1,73.3,342.8,-82.454,28.474,BROOKSVILLE,FL
139,12819,62.4,74.4,331.7,-81.810,28.821,LEESBURG,FL
140,12832,60.0,68.1,387.8,-85.033,29.733,APALACHICOLA,FL
141,12833,58.7,68.3,363.7,-83.105,29.550,CROSS CITY,FL
142,12834,62.8,71.3,383.5,-81.060,29.177,DAYTONA BEACH,FL
143,12835,64.7,77.0,329.2,-81.864,26.586,FORT MYERS,FL
144,12836,69.9,79.7,368.1,-81.754,24.553,KEY WEST,FL
145,12838,64.4,74.0,367.4,-80.646,28.103,MELBOURNE,FL
146,12839,66.8,77.9,347.1,-80.300,25.824,MIAMI,FL
147,12841,63.2,74.0,349.0,-81.333,28.545,ORLANDO,FL
148,12842,63.8,75.5,337.2,-82.540,27.961,TAMPA,FL
149,12843,65.8,74.6,380.4,-80.418,27.656,VERO BEACH,FL
150,12844,65.8,76.7,349.6,-80.099,26.685,WEST PALM BEACH,FL
151,12849,67.6,77.4,366.2,-80.154,26.072,FORT LAUDERDALE,FL
152,12850,69.7,79.2,372.4,-81.683,24.583,KEY WEST,FL
153,12854,62.7,73.0,356.3,-81.244,28.780,ORLANDO,FL
154,12871,64.5,74.5,361.9,-82.559,27.401,SARASOTA/BRADENTON,FL
155,12873,63.9,76.0,331.7,-82.688,27.911,ST PETERSBURG/CLEARWATER,FL
156,12876,62.2,74.7,324.9,-81.754,28.062,WINTER HAVEN,FL
157,12882,66.8,77.3,355.7,-80.280,25.907,MIAMI,FL
158,12884,62.5,67.5,441.4,-89.408,29.350,BOOTHVILLE,LA
159,12885,66.4,76.0,368.7,-80.171,26.197,FORT LAUDERDALE,FL
160,12888,67.3,76.7,372.4,-80.433,25.648,MIAMI,FL
161,12894,64.4,75.0,352.7,-81.755,26.536,FORT MYERS,FL
162,12895,65.2,74.5,372.4,-80.377,27.498,FORT PIERCE,FL
163,12896,67.5,81.7,307.0,-81.052,24.726,MARATHON,FL
164,12897,66.2,76.3,361.3,-81.775,26.153,NAPLES,FL
165,12912,57.5,68.2,346.5,-96.930,28.863,VICTORIA,TX
166,12916,59.2,68.2,373.6,-90.251,29.993,NEW ORLEANS,LA
167,12917,57.8,66.1,383.5,-94.021,29.951,BEAUMONT/PORT ARTHUR,TX
168,12918,57.3,66.8,364.4,-95.279,29.645,HOUSTON,TX
169,12919,64.3,73.5,373.6,-97.426,25.906,BROWNSVILLE,TX
170,12921,55.2,67.7,320.0,-98.464,29.533,SAN ANTONIO,TX
171,12923,61.3,67.9,413.1,-94.860,29.265,GALVESTON,TX
172,12924,60.0,72.6,321.8,-97.513,27.773,CORPUS CHRISTI,TX
173,12926,62.7,70.6,392.7,-97.283,27.700,CORPUS CHRISTI,TX
174,12932,58.2,71.8,307.7,-98.027,27.741,ALICE,TX
175,12935,59.6,68.9,369.3,-96.251,28.728,PALACIOS,TX
176,12947,55.6,71.9,271.9,-99.220,28.458,COTULLA,TX
177,12957,64.0,73.5,368.7,-97.346,26.166,PORT ISABEL,TX
178,12959,61.6,75.3,308.9,-98.238,26.175,MC ALLEN,TX
179,12960,56.7,66.6,358.2,-95.364,29.993,HOUSTON,TX
180,12962,53.8,68.3,292.2,-99.174,29.359,HONDO,TX
181,12968,61.1,68.5,400.1,-91.526,29.562,SALT POINT,LA
182,12970,54.9,68.0,311.4,-98.471,29.337,SAN ANTONIO,TX
183,12971,54.0,66.6,317.5,-98.045,29.709,NEW BRAUNFELS,TX
184,12972,61.0,69.6,380.4,-97.046,28.084,ROCKPORT,TX
185,12975,56.6,65.6,371.8,-95.240,29.521,HOUSTON,TX
186,12976,59.2,65.4,419.2,-95.462,29.110,ANGLETON/LAKE JACKSON,TX
187,12977,57.5,66.7,369.3,-95.656,29.622,HOUSTON,TX
188,13721,43.1,56.4,299.0,-76.400,38.283,PATUXENT RIVER,MD
189,13722,46.4,60.5,291.6,-78.786,35.871,RALEIGH/DURHAM,NC
190,13723,43.3,59.5,262.0,-79.944,36.098,GREENSBORO,NC
191,13728,43.4,59.1,268.8,-79.336,36.573,DANVILLE,VA
192,13729,35.3,52.1,247.9,-79.853,38.885,ELKINS,WV
193,13733,41.1,57.9,253.4,-79.207,37.338,LYNCHBURG,VA
194,13734,37.6,58.5,204.7,-77.984,39.402,MARTINSBURG,WV
195,13735,38.7,52.0,295.9,-75.078,39.366,MILLVILLE,NJ
196,13736,36.7,56.3,217.7,-79.916,39.643,MORGANTOWN,WV
197,13737,47.0,60.0,306.4,-76.192,36.904,NORFOLK,VA
198,13739,36.8,54.8,235.5,-75.231,39.868,PHILADELPHIA,PA
199,13740,43.8,59.9,263.9,-77.323,37.511,RICHMOND,VA
200,13741,39.8,58.2,233.7,-79.974,37.317,ROANOKE,VA
201,13743,40.5,58.9,234.3,-77.034,38.865,WASHINGTON,DC
202,13744,51.4,63.6,321.2,-79.731,34.188,FLORENCE,SC
203,13748,52.2,61.8,359.4,-77.906,34.268,WILMINGTON,NC
204,13750,48.7,61.9,305.2,-76.283,36.933,NORFOLK,VA
205,13752,43.3,55.4,316.3,-76.483,38.991,ANNAPOLIS,MD
206,13754,51.1,60.9,355.7,-76.883,34.900,CHERRY POINT,NC
207,13762,44.2,62.2,242.3,-76.136,36.695,FENTRESS,VA
208,13764,41.1,55.7,280.5,-75.359,38.689,GEORGETOWN,DE
209,13769,47.1,58.3,332.3,-76.033,36.817,OCEANA,VA
210,13776,51.7,60.9,365.6,-79.059,34.610,LUMBERTON,NC
211,13781,39.1,54.0,275.0,-75.601,39.673,WILMINGTON,DE
212,13786,49.4,59.4,351.4,-76.175,36.261,ELIZABETH CITY,NC
213,13809,42.9,54.5,323.1,-87.606,38.764,LAWRENCEVILLE,IL
214,13810,41.1,57.0,263.9,-85.664,38.228,LOUISVILLE,KY
215,13833,55.0,64.6,361.3,-89.253,31.265,HATTIESBURG,MS
216,13837,49.6,64.3,286.1,-82.039,33.467,AUGUSTA,GA
217,13838,58.8,65.9,403.8,-88.068,30.626,MOBILE,AL
218,13839,54.3,65.5,337.2,-85.450,31.321,DOTHAN,AL
219,13841,40.1,53.3,298.4,-83.822,39.420,WILMINGTON,OH
220,13865,53.4,62.5,368.1,-88.751,32.333,MERIDIAN,MS
221,13866,38.2,57.5,222.0,-81.591,38.379,CHARLESTON,WV
222,13869,53.9,65.5,331.1,-84.194,31.536,ALBANY,GA
223,13871,48.8,61.8,308.3,-85.858,33.588,ANNISTON,AL
224,13873,48.2,61.3,306.4,-83.327,33.948,ATHENS,GA
225,13874,47.5,62.1,286.1,-84.427,33.640,ATLANTA,GA
226,13876,48.5,62.8,290.4,-86.754,33.564,BIRMINGHAM,AL
227,13877,41.9,55.5,294.1,-82.399,36.480,BRISTOL/JHNSN CTY/KNGSPRT,TN
228,13878,59.4,66.9,397.6,-81.391,31.252,BRUNSWICK,GA
229,13880,55.4,65.4,355.7,-80.041,32.899,CHARLESTON,SC
230,13881,46.5,60.8,289.2,-80.944,35.214,CHARLOTTE,NC
231,13882,46.6,60.5,294.1,-85.200,35.033,CHATTANOOGA,TN
232,13883,50.4,65.1,287.3,-81.118,33.942,COLUMBIA,SC
233,13884,55.1,65.8,345.3,-86.523,30.780,CRESTVIEW,FL
234,13886,44.6,61.8,251.6,-82.346,34.846,GREENVILLE,SC
235,13891,44.3,58.4,289.8,-83.986,35.818,KNOXVILLE,TN
236,13893,47.6,61.2,299.0,-89.985,35.061,MEMPHIS,TN
237,13894,56.4,65.8,365.6,-88.246,30.688,MOBILE,AL
238,13895,52.3,65.8,304.0,-86.394,32.301,MONTGOMERY,AL
239,13896,47.6,60.9,302.7,-87.610,34.745,MUSCLE SHOALS,AL
240,13897,44.3,59.3,278.1,-86.689,36.119,NASHVILLE,TN
241,13899,58.5,67.6,371.1,-87.188,30.473,PENSACOLA,FL
242,13904,54.9,65.2,350.8,-97.681,30.179,AUSTIN/BERGSTROM,TX
243,13911,47.5,64.6,255.3,-97.441,32.769,FORT WORTH,TX
244,13920,38.1,50.1,313.2,-95.664,38.950,TOPEKA,KS
245,13927,53.2,65.3,323.7,-90.223,32.335,JACKSON,MS
246,13932,41.3,51.6,341.6,-97.037,37.168,WINFIELD/ARKANSAS CITY,KS
247,13935,54.5,64.5,355.1,-92.296,31.395,ALEXANDRIA,LA
248,13939,52.7,61.5,372.4,-90.986,33.483,GREENVILLE,MS
249,13942,53.4,66.0,316.9,-92.038,32.511,MONROE,LA
250,13958,53.6,67.0,306.4,-97.767,30.317,AUSTIN/CITY,TX
251,13959,52.2,63.5,334.2,-97.229,31.611,WACO,TX
252,13960,49.3,65.1,272.5,-96.851,32.847,DALLAS,TX
253,13961,51.4,61.7,348.3,-97.361,32.819,FORT WORTH,TX
254,13962,44.1,63.9,222.6,-99.682,32.411,ABILENE,TX
255,13963,49.0,60.1,334.8,-92.233,34.747,LITTLE ROCK,AR
256,13964,45.9,60.9,279.3,-94.365,35.334,FORT SMITH,AR
257,13966,45.3,59.3,291.6,-98.493,33.979,WICHITA FALLS,TX
258,13967,42.8,55.6,305.8,-97.600,35.389,OKLAHOMA CITY,OK
259,13968,44.3,56.3,318.1,-95.886,36.198,TULSA,OK
260,13969,40.3,53.4,299.6,-97.100,36.731,PONCA CITY,OK
261,13970,57.1,66.1,372.4,-91.147,30.537,BATON ROUGE,LA
262,13971,42.1,56.2,287.9,-93.155,36.261,HARRISON,AR
263,13972,50.4,63.4,309.5,-95.402,32.354,TYLER,TX
264,13973,47.8,66.8,234.3,-99.766,30.511,JUNCTION,TX
265,13975,36.5,52.2,262.0,-99.775,36.297,GAGE,OK
266,13976,57.5,66.6,370.5,-91.988,30.205,LAFAYETTE,LA
267,13977,50.6,61.6,337.9,-94.008,33.454,TEXARKANA,AR
268,13978,52.0,62.1,352.0,-90.084,33.496,GREENWOOD,MS
269,13981,40.7,52.5,318.7,-95.484,37.670,CHANUTE,KS
270,13985,31.2,49.2,230.0,-99.970,37.773,DODGE CITY,KS
271,13986,37.4,50.4,298.4,-97.861,38.068,HUTCHINSON,KS
272,13987,41.3,54.7,296.6,-94.498,37.149,JOPLIN,MO
273,13988,37.2,52.3,270.7,-94.593,39.123,KANSAS CITY,MO
274,13989,38.1,49.9,316.3,-96.190,38.331,EMPORIA,KS
275,13993,36.1,49.2,295.9,-94.907,39.774,ST JOSEPH,MO
276,13994,40.1,55.5,269.4,-90.374,38.753,ST LOUIS,MO
277,13995,41.2,54.2,302.1,-93.390,37.240,SPRINGFIELD,MO
278,13996,37.6,50.6,299.0,-95.626,39.073,TOPEKA,KS
279,13997,40.3,52.3,315.0,-91.769,38.128,ROLLA/VICHY,MO
280,14605,28.1,43.4,259.6,-69.797,44.321,AUGUSTA,ME
281,14606,28.9,41.0,304.6,-68.824,44.808,BANGOR,ME
282,14607,24.8,38.7,275.0,-68.033,46.867,CARIBOU,ME
283,14609,24.8,38.2,282.4,-67.792,46.123,HOULTON,ME
284,14610,26.4,40.6,272.5,-68.686,45.648,MILLINOCKET,ME
285,14702,31.8,46.9,265.7,-71.289,42.470,BEDFORD,MA
286,14707,34.6,47.0,304.6,-72.049,41.328,GROTON NEW LONDON,CT
287,14710,29.1,48.4,213.3,-71.438,42.933,MANCHESTER,NH
288,14711,36.9,52.9,259.0,-76.763,40.194,HARRISBURG,PA
289,14712,36.8,53.3,252.8,-75.959,40.373,READING,PA
290,14719,35.3,47.4,309.5,-72.632,40.844,WESTHAMPTON BEACH,NY
291,14732,33.5,52.7,218.9,-73.881,40.779,NEW YORK,NY
292,14733,32.7,46.4,284.8,-78.736,42.941,BUFFALO,NY
293,14734,34.6,53.1,227.5,-74.169,40.716,NEWARK,NJ
294,14735,30.4,45.9,259.0,-73.803,42.748,ALBANY,NY
295,14736,36.1,50.9,273.1,-78.317,40.300,ALTOONA,PA
296,14737,35.6,51.0,265.1,-75.449,40.651,ALLENTOWN,PA
297,14739,33.3,48.9,260.8,-71.011,42.361,BOSTON,MA
298,14740,31.1,52.3,195.5,-72.683,41.938,WINDSOR LOCKS,CT
299,14742,27.9,44.8,239.8,-73.150,44.468,BURLINGTON,VT
300,14745,28.7,45.3,244.2,-71.501,43.195,CONCORD,NH
301,14747,33.2,45.9,299.6,-79.272,42.493,DUNKIRK,NY
302,14748,31.8,46.0,277.4,-76.892,42.159,ELMIRA/CORNING,NY
303,14750,29.3,44.5,262.0,-73.610,43.341,GLENS FALLS,NY
304,14751,36.9,53.4,252.8,-76.851,40.217,HARRISBURG,PA
305,14752,33.1,49.5,250.3,-72.651,41.736,HARTFORD,CT
306,14756,36.2,46.0,345.3,-70.061,41.253,NANTUCKET,MA
307,14757,32.4,48.7,250.9,-73.884,41.627,POUGHKEEPSIE,NY
308,14758,34.8,49.6,272.5,-72.887,41.264,NEW HAVEN,CT
309,14762,36.0,53.5,240.5,-79.922,40.355,PITTSBURGH,PA
310,14763,29.4,43.5,276.8,-73.289,42.427,PITTSFIELD,MA
311,14764,30.9,44.2,289.2,-70.304,43.642,PORTLAND,ME
312,14765,33.7,49.1,263.3,-71.433,41.722,PROVIDENCE,RI
313,14768,32.4,46.7,276.8,-77.677,43.117,ROCHESTER,NY
314,14770,36.2,50.7,277.4,-76.864,40.821,SELINSGROVE,PA
315,14771,32.0,46.1,278.7,-76.103,43.109,SYRACUSE,NY
316,14775,31.0,48.1,239.8,-72.716,42.158,WESTFIELD/SPRINGFIELD,MA
317,14777,32.0,49.6,235.5,-75.727,41.339,WILKES-BARRE/SCRANTON,PA
318,14778,33.1,50.5,238.6,-76.922,41.243,WILLIAMSPORT,PA
319,14787,35.0,46.4,320.0,-71.284,41.530,NEWPORT,RI
320,14792,36.0,52.3,254.6,-74.814,40.277,TRENTON,NJ
321,14794,35.4,46.7,321.8,-71.799,41.350,WESTERLY,RI
322,14813,35.7,48.9,294.7,-81.464,41.038,AKRON,OH
323,14815,32.4,45.1,299.0,-85.251,42.308,BATTLE CREEK,MI
324,14819,33.9,48.0,280.5,-87.752,41.786,CHICAGO,IL
325,14820,35.3,48.9,288.5,-81.853,41.405,CLEVELAND,OH
326,14821,38.5,54.0,266.4,-82.881,39.991,COLUMBUS,OH
327,14822,33.5,45.4,311.4,-83.010,42.409,DETROIT,MI
328,14825,36.2,48.8,303.3,-83.669,41.014,FINDLAY,OH
329,14826,32.6,45.1,301.5,-83.749,42.967,FLINT,MI
330,14827,37.8,48.2,337.2,-85.206,41.006,FORT WAYNE,IN
331,14829,35.0,48.9,284.2,-85.792,41.527,GOSHEN,IN
332,14833,32.0,44.7,298.4,-84.459,42.260,JACKSON,MI
333,14835,38.3,49.8,321.2,-86.937,40.412,LAFAYETTE,IN
334,14836,31.8,44.2,302.7,-84.579,42.780,LANSING,MI
335,14837,32.3,43.6,319.4,-89.345,43.141,MADISON,WI
336,14839,32.6,43.5,325.5,-87.897,42.947,MILWAUKEE,WI
337,14841,27.5,36.6,350.8,-84.796,45.571,PELLSTON,MI
338,14842,37.1,50.1,298.4,-89.684,40.668,PEORIA,IL
339,14845,33.1,43.7,330.5,-84.080,43.533,SAGINAW,MI
340,14848,34.5,46.8,306.4,-86.333,41.707,SOUTH BEND,IN
341,14850,29.5,41.5,306.4,-85.583,44.741,TRAVERSE CITY,MI
342,14852,34.7,48.6,284.2,-80.674,41.254,YOUNGSTOWN/WARREN,OH
343,14853,33.0,47.2,278.7,-83.230,42.237,DETROIT,MI
344,14858,25.2,31.9,392.1,-88.506,47.169,HANCOCK,MI
345,14860,33.8,53.9,209.6,-80.183,42.080,ERIE,PA
346,14880,34.0,44.4,334.2,-87.868,42.422,CHICAGO/WAUKEGAN,IL
347,14891,36.5,49.0,305.2,-82.518,40.820,MANSFIELD,OH
348,14894,35.3,52.6,241.7,-80.647,40.176,WHEELING,WV
349,14895,36.2,50.3,282.4,-81.443,40.918,AKRON,OH
350,14897,28.1,38.1,336.0,-89.627,44.929,WAUSAU,WI
351,14898,31.1,41.1,338.5,-88.120,44.513,GREEN BAY,WI
352,14910,25.2,33.2,368.1,-95.393,45.883,ALEXANDRIA,MN
353,14914,25.7,33.8,366.8,-96.811,46.925,FARGO,ND
354,14916,25.6,32.1,395.8,-97.176,47.949,GRAND FORKS,ND
355,14919,24.1,31.5,378.5,-98.678,46.930,JAMESTOWN,ND
356,14920,31.4,43.9,300.9,-91.256,43.754,LA CROSSE,WI
357,14921,32.3,44.7,302.7,-90.181,43.212,LONE ROCK,WI
358,14922,29.8,41.0,318.7,-93.229,44.883,MINNEAPOLIS,MN
359,14923,35.9,48.6,301.5,-90.523,41.465,MOLINE,IL
360,14925,31.9,40.2,367.4,-92.492,43.904,ROCHESTER,MN
361,14926,26.4,36.2,338.5,-94.052,45.545,ST CLOUD,MN
362,14927,28.7,40.6,307.0,-93.048,44.930,ST PAUL,MN
363,14929,25.0,34.9,335.4,-98.421,45.450,ABERDEEN,SD
364,14931,37.6,50.2,304.6,-91.125,40.783,BURLINGTON,IA
365,14933,35.0,48.6,288.5,-93.666,41.538,DES MOINES,IA
366,14935,32.7,46.1,289.2,-98.313,40.958,GRAND ISLAND,NE
367,14938,37.7,49.0,323.7,-92.543,40.097,KIRKSVILLE,MO
368,14939,33.6,46.1,302.7,-96.764,40.831,LINCOLN,NE
369,14940,32.2,41.7,347.7,-93.331,43.158,MASON CITY,IA
370,14941,31.1,44.0,294.7,-97.437,41.981,NORFOLK,NE
371,14942,34.4,47.3,297.8,-95.899,41.310,OMAHA,NE
372,14943,32.3,43.7,317.5,-96.379,42.391,SIOUX CITY,IA
373,14944,28.7,39.3,327.4,-96.754,43.577,SIOUX FALLS,SD
374,14950,36.0,47.8,314.4,-92.448,41.107,OTTUMWA,IA
375,14972,31.1,40.9,341.6,-95.202,43.164,SPENCER,IA
376,14990,35.7,46.4,331.1,-91.709,41.884,CEDAR RAPIDS,IA
377,14991,29.1,38.2,352.0,-91.485,44.865,EAU CLAIRE,WI
378,14992,29.3,38.6,348.3,-95.082,44.547,REDWOOD FALLS,MN
379,21504,63.8,73.4,366.8,-155.051,19.723,HILO,HI
380,22010,50.2,71.9,209.0,-100.922,29.367,DEL RIO,TX
381,22516,67.1,75.3,390.3,-156.433,20.902,KAHULUI,HI
382,22519,67.0,76.0,377.9,-157.768,21.451,KANEOHE,HI
383,22521,66.0,75.9,363.7,-157.943,21.328,HONOLULU,HI
384,22534,63.2,70.8,397.6,-157.099,21.157,KAUNAKAKAI,HI
385,22536,66.4,72.9,417.4,-159.341,21.979,LIHUE,HI
386,22551,65.3,72.5,405.0,-158.067,21.317,KAPOLEI,HI
387,23007,36.8,57.9,202.2,-100.288,34.434,CHILDRESS,TX
388,23009,21.4,61.5,54.3,-104.541,33.308,ROSWELL,NM
389,23023,34.2,64.5,122.7,-102.208,31.932,MIDLAND,TX
390,23034,43.7,67.3,185.0,-100.494,31.351,SAN ANGELO,TX
391,23040,28.7,64.1,85.1,-103.201,31.780,WINK,TX
392,23042,29.9,61.2,111.6,-101.821,33.668,LUBBOCK,TX
393,23044,16.1,67.3,8.7,-106.376,31.811,EL PASO,TX
394,23047,28.4,54.9,144.9,-101.706,35.219,AMARILLO,TX
395,23048,21.7,56.3,82.7,-103.603,35.182,TUCUMCARI,NM
396,23049,15.8,51.0,73.4,-106.089,35.617,SANTA FE,NM
397,23050,15.9,57.6,42.0,-106.616,35.042,ALBUQUERQUE,NM
398,23052,19.5,46.3,133.2,-104.502,36.741,RATON,NM
399,23054,16.8,46.5,109.2,-105.143,35.654,LAS VEGAS,NM
400,23061,16.8,41.3,149.9,-105.866,37.436,ALAMOSA,CO
401,23064,28.7,48.1,212.1,-100.725,37.927,GARDEN CITY,KS
402,23065,26.0,44.1,223.8,-101.693,39.368,GOODLAND,KS
403,23066,23.9,48.8,153.6,-108.538,39.134,GRAND JUNCTION,CO
404,23067,23.4,48.7,149.9,-103.527,38.051,LA JUNTA,CO
405,23070,21.8,46.7,151.7,-104.341,37.259,TRINIDAD,CO
406,23078,15.4,61.6,24.1,-107.721,32.262,DEMING,NM
407,23081,15.9,46.4,102.4,-108.789,35.511,GALLUP,NM
408,23090,16.9,50.9,81.4,-108.229,36.744,FARMINGTON,NM
409,23091,31.0,65.9,90.1,-102.912,30.915,FORT STOCKTON,TX
410,23129,47.5,63.7,266.4,-118.163,33.828,LONG BEACH,CA
411,23130,41.2,66.1,171.4,-118.489,34.210,VAN NUYS,CA
412,23136,47.4,62.3,281.8,-119.083,34.217,CAMARILLO,CA
413,23152,42.6,66.6,180.7,-118.359,34.201,BURBANK,CA
414,23153,15.2,52.1,64.2,-117.087,38.060,TONOPAH,NV
415,23154,20.2,43.0,169.0,-114.845,39.295,ELY,NV
416,23155,39.3,66.8,148.0,-119.056,35.434,BAKERSFIELD,CA
417,23157,16.0,58.6,38.3,-118.363,37.373,BISHOP,CA
418,23158,27.0,74.1,30.3,-114.717,33.619,BLYTHE,CA
419,23159,18.2,39.6,180.1,-112.146,37.706,BRYCE CANYON,UT
420,23160,20.1,70.0,15.5,-110.955,32.131,TUCSON,AZ
421,23161,27.4,69.6,50.0,-116.787,34.854,DAGGETT,CA
422,23169,21.6,70.1,21.0,-115.155,36.079,LAS VEGAS,NV
423,23174,49.2,62.2,308.3,-118.406,33.938,LOS ANGELES,CA
424,23176,24.0,46.1,179.4,-113.028,38.443,MILFORD,UT
425,23179,22.6,75.2,9.3,-114.623,34.766,NEEDLES,CA
426,23182,30.6,63.5,101.8,-118.084,34.629,PALMDALE,CA
427,23183,25.6,75.4,20.4,-111.990,33.443,PHOENIX,AZ
428,23184,19.2,54.7,75.3,-112.421,34.652,PRESCOTT,AZ
429,23187,31.0,58.6,138.8,-118.724,34.744,SANDBERG,CA
430,23188,48.3,61.8,300.9,-117.169,32.735,SAN DIEGO,CA
431,23190,48.2,60.1,323.1,-119.844,34.426,SANTA BARBARA,CA
432,23199,34.0,73.1,70.3,-115.667,32.817,EL CENTRO,CA
433,23213,43.8,60.0,262.7,-122.812,38.509,SANTA ROSA,CA
434,23225,28.3,50.5,183.1,-120.708,39.292,EMIGRANT GAP,CA
435,23230,50.2,61.5,332.9,-122.221,37.755,OAKLAND,CA
436,23232,41.2,63.8,191.8,-121.493,38.513,SACRAMENTO,CA
437,23233,45.5,57.7,316.3,-121.605,36.663,SALINAS,CA
438,23234,44.3,58.5,288.5,-122.398,37.620,SAN FRANCISCO,CA
439,23244,45.9,62.1,264.5,-122.048,37.415,MOUNTAIN VIEW,CA
440,23254,42.8,61.8,230.0,-122.052,37.992,CONCORD,CA
441,23257,42.6,64.4,201.0,-120.513,37.285,MERCED,CA
442,23258,42.6,65.3,192.4,-120.953,37.626,MODESTO,CA
443,23259,45.9,55.0,363.1,-121.845,36.588,MONTEREY,CA
444,23273,46.5,58.1,325.5,-120.465,34.916,SANTA MARIA,CA
445,23275,41.7,59.6,241.1,-123.201,39.126,UKIAH,CA
446,23277,45.0,57.0,318.7,-121.789,36.936,WATSONVILLE,CA
447,23285,42.3,62.1,220.7,-121.817,37.694,LIVERMORE,CA
448,23293,45.4,61.6,264.5,-121.928,37.362,SAN JOSE,CA
449,24011,23.5,34.6,315.0,-100.748,46.774,BISMARCK,ND
450,24012,23.2,34.2,316.3,-102.802,46.797,DICKINSON,ND
451,24013,22.5,29.2,390.3,-101.281,48.259,MINOT,ND
452,24017,26.2,38.7,296.6,-103.095,42.838,CHADRON,NE
453,24018,19.9,35.7,245.4,-104.807,41.158,CHEYENNE,WY
454,24021,19.9,38.1,216.4,-108.733,42.817,LANDER,WY
455,24022,19.4,32.2,286.1,-105.674,41.313,LARAMIE,WY
456,24023,27.9,43.0,262.0,-100.668,41.122,NORTH PLATTE,NE
457,24024,26.9,39.1,301.5,-101.601,44.051,PHILIP,SD
458,24025,25.7,37.6,304.6,-100.286,44.383,PIERRE,SD
459,24027,17.9,37.5,198.6,-109.065,41.594,ROCK SPRINGS,WY
460,24028,27.6,41.1,283.0,-103.595,41.874,SCOTTSBLUFF,NE
461,24029,24.9,37.7,291.0,-106.976,44.774,SHERIDAN,WY
462,24030,25.0,40.1,259.6,-102.985,41.101,SIDNEY,NE
463,24032,26.4,40.3,276.8,-100.551,42.859,VALENTINE,NE
464,24033,24.3,41.8,228.8,-108.543,45.808,BILLINGS,MT
465,24036,22.9,36.2,281.8,-109.467,47.049,LEWISTOWN,MT
466,24037,26.0,40.9,262.7,-105.886,46.428,MILES CITY,MT
467,24044,24.8,38.1,283.6,-102.800,42.057,ALLIANCE,NE
468,24046,24.2,38.6,267.6,-107.521,40.495,CRAIG,CO
469,24048,22.6,42.1,204.7,-108.082,44.517,GREYBULL,WY
470,24057,18.4,35.2,231.2,-107.200,41.806,RAWLINS,WY
471,24061,19.1,39.2,194.9,-108.459,43.064,RIVERTON,WY
472,24062,23.8,40.7,235.5,-107.951,43.966,WORLAND,WY
473,24089,20.4,36.3,244.8,-106.473,42.898,CASPER,WY
474,24090,25.3,36.7,312.0,-103.054,44.046,RAPID CITY,SD
475,24091,27.3,44.2,239.2,-101.620,40.510,IMPERIAL,NE
476,24110,30.0,52.2,184.4,-119.319,47.208,MOSES LAKE,WA
477,24112,23.3,40.0,237.4,-111.187,47.504,GREAT FALLS,MT
478,24121,22.4,44.4,178.8,-115.792,40.825,ELKO,NV
479,24126,25.1,47.1,181.3,-112.011,41.196,OGDEN,UT
480,24127,28.6,49.4,197.3,-111.968,40.787,SALT LAKE CITY,UT
481,24128,20.5,46.0,144.9,-117.807,40.902,WINNEMUCCA,NV
482,24130,27.5,41.9,270.7,-117.810,44.838,BAKER CITY,OR
483,24131,26.7,49.9,172.0,-116.220,43.565,BOISE,ID
484,24132,21.7,38.9,230.0,-111.152,45.794,BOZEMAN,MT
485,24133,28.5,44.7,248.5,-113.772,42.543,BURLEY,ID
486,24135,19.7,35.9,240.5,-112.513,45.953,BUTTE,MT
487,24137,23.4,36.9,279.3,-112.376,48.608,CUT BANK,MT
488,24138,18.2,39.3,183.1,-112.552,45.255,DILLON,MT
489,24141,29.9,50.5,200.4,-119.514,47.304,EPHRATA,WA
490,24143,23.6,39.4,249.1,-111.382,47.473,GREAT FALLS,MT
491,24144,22.3,41.0,213.3,-111.964,46.606,HELENA,MT
492,24145,23.0,43.1,198.6,-112.067,43.516,IDAHO FALLS,ID
493,24146,27.5,40.6,288.5,-114.264,48.304,KALISPELL,MT
494,24149,33.9,50.3,251.6,-117.014,46.375,LEWISTON,ID
495,24150,21.2,40.1,209.6,-110.448,45.699,LIVINGSTON,MT
496,24152,30.3,40.4,336.6,-118.425,45.511,MEACHAM,OR
497,24153,27.3,42.7,257.7,-114.093,46.921,MISSOULA,MT
498,24154,23.7,29.8,402.6,-115.645,47.457,MULLAN PASS,ID
499,24155,34.2,49.4,266.4,-118.834,45.698,PENDLETON,OR
500,24156,23.5,43.9,196.1,-112.571,42.920,POCATELLO,ID
501,24157,29.5,46.0,246.0,-117.528,47.621,SPOKANE,WA
502,24160,35.4,52.4,245.4,-118.287,46.095,WALLA WALLA,WA
503,24162,28.1,52.0,167.1,-117.013,44.021,ONTARIO,OR
504,24163,34.2,52.0,234.9,-119.118,46.265,PASCO,WA
505,24164,19.4,33.9,262.0,-110.108,42.584,BIG PINEY,WY
506,24172,19.1,48.6,112.9,-118.565,40.066,LOVELOCK,NV
507,24215,31.7,50.5,221.4,-122.333,41.333,MOUNT SHASTA,CA
508,24216,36.2,65.3,133.2,-122.254,40.152,RED BLUFF,CA
509,24217,40.5,48.4,379.8,-122.537,48.794,BELLINGHAM,WA
510,24219,36.8,53.1,255.3,-121.167,45.619,THE DALLES,OR
511,24220,32.1,49.5,237.4,-120.530,47.034,ELLENSBURG,WA
512,24221,42.9,51.5,369.3,-123.214,44.133,EUGENE,OR
513,24222,39.7,48.5,364.4,-122.280,47.908,EVERETT,WA
514,24225,37.6,54.2,252.2,-122.871,42.389,MEDFORD,OR
515,24227,39.7,48.2,369.3,-122.903,46.973,OLYMPIA,WA
516,24229,41.2,52.4,327.4,-122.600,45.591,PORTLAND,OR
517,24230,27.0,44.2,234.9,-121.150,44.254,REDMOND,OR
518,24231,41.2,54.7,295.3,-123.355,43.239,ROSEBURG,OR
519,24232,41.8,51.6,349.6,-122.995,44.908,SALEM,OR
520,24233,40.1,50.9,332.9,-122.314,47.461,SEATTLE,WA
521,24234,40.0,51.5,322.4,-122.301,47.530,SEATTLE,WA
522,24235,33.8,44.8,324.9,-123.381,42.617,SEXTON SUMMIT,OR
523,24242,41.1,52.1,330.5,-122.400,45.549,PORTLAND,OR
524,24243,31.5,51.6,207.2,-120.534,46.564,YAKIMA,WA
525,24255,41.3,47.5,410.0,-122.650,48.350,WHIDBEY ISLAND,WA
526,24257,36.9,63.9,149.9,-122.313,40.515,REDDING,CA
527,24259,32.5,49.9,238.0,-122.468,41.781,MONTAGUE,CA
528,24283,43.8,49.4,422.3,-124.109,40.978,ARCATA/EUREKA,CA
529,24286,44.6,49.5,435.9,-124.237,41.780,CRESCENT CITY,CA
530,25308,34.9,43.1,371.1,-131.570,55.043,ANNETTE,AK
531,25309,28.2,36.1,371.8,-134.575,58.355,JUNEAU,AK
532,25323,24.2,35.9,306.4,-135.520,59.245,HAINES,AK
533,25325,35.8,41.8,411.2,-131.712,55.357,KETCHIKAN,AK
534,25331,12.0,26.7,252.2,-149.092,61.596,PALMER,AK
535,25333,32.5,39.5,390.9,-135.360,57.048,SITKA,AK
536,25335,22.4,36.4,271.9,-135.313,59.460,SKAGWAY,AK
537,25339,24.9,32.5,375.5,-139.628,59.510,YAKUTAT,AK
538,25367,33.5,40.6,389.6,-133.075,55.580,KLAWOCK,AK
539,25501,21.6,33.8,296.6,-152.492,57.750,KODIAK,AK
540,25503,17.5,28.4,313.2,-156.654,58.684,KING SALMON,AK
541,25506,15.7,28.7,279.9,-154.915,59.753,ILIAMNA,AK
542,25507,16.5,31.7,249.7,-151.477,59.647,HOMER,AK
543,25516,20.0,30.9,315.7,-151.702,59.443,SELDOVIA,AK
544,25713,20.9,23.9,466.7,-170.220,57.163,ST PAUL ISLAND,AK
545,26409,14.3,29.1,252.8,-149.855,61.217,ANCHORAGE,AK
546,26410,20.4,32.6,295.9,-145.451,60.489,CORDOVA,AK
547,26411,5.9,18.0,284.2,-147.855,64.817,FAIRBANKS,AK
548,26412,4.8,16.2,294.1,-141.946,62.961,NORTHWAY,AK
549,26415,5.1,17.1,284.8,-145.718,63.995,DELTA JUNCTION/FT GREELY,AK
550,26425,8.0,20.4,281.1,-145.458,62.160,GULKANA,AK
551,26435,4.5,17.7,266.4,-149.072,64.550,NENANA,AK
552,26438,17.0,33.5,233.7,-149.417,60.128,SEWARD,AK
553,26451,14.7,29.3,255.9,-149.993,61.175,ANCHORAGE,AK
554,26491,15.4,29.0,270.7,-149.961,61.179,ANCHORAGE,AK
555,26492,17.9,26.4,353.9,-148.839,60.785,PORTAGE GLACIER,AK
556,26502,5.6,18.4,273.1,-158.742,64.327,KALTAG,AK
557,26510,7.2,19.2,286.7,-155.603,62.953,MC GRATH,AK
558,26523,15.8,25.4,333.5,-151.239,60.580,KENAI,AK
559,26528,9.8,25.7,234.3,-150.092,62.322,TALKEETNA,AK
560,26529,4.1,14.8,305.2,-152.107,65.174,TANANA,AK
561,26533,0.5,11.6,295.3,-151.509,66.916,BETTLES,AK
562,26615,12.1,17.3,414.3,-161.826,60.786,BETHEL,AK
563,26616,4.4,9.4,414.9,-162.597,66.885,KOTZEBUE,AK
564,26617,9.2,16.3,374.2,-165.443,64.513,NOME,AK
565,26642,3.9,7.1,456.2,-164.548,67.732,KIVALINA,AK
566,26643,2.8,7.3,425.4,-162.764,66.069,DEERING,AK
567,27406,-5.5,-4.0,496.9,-148.477,70.192,DEADHORSE,AK
568,27502,-3.3,0.7,434.0,-156.763,71.287,BARROW,AK
569,27503,-3.3,1.1,424.2,-159.995,70.639,WAINWRIGHT,AK
570,27515,-5.3,-5.2,537.0,-151.002,70.212,NUIQSUT,AK
572,53119,42.1,64.4,195.5,-119.629,36.319,HANFORD,CA
573,53120,44.1,57.8,294.7,-116.917,33.033,RAMONA,CA
574,53121,48.6,60.2,327.4,-117.349,33.219,OCEANSIDE,CA
575,53123,20.8,68.8,22.3,-115.196,36.212,LAS VEGAS,NV
576,53144,27.4,63.1,82.1,-117.865,34.988,EDWARDS,CA
577,53802,41.8,51.6,349.6,-88.280,39.478,MATTOON/CHARLESTON,IL
578,53819,48.4,60.4,321.8,-84.567,33.355,ATLANTA,GA
579,53820,54.7,65.2,347.7,-87.044,31.416,EVERGREEN,AL
580,53838,44.8,60.2,273.8,-83.830,34.272,GAINESVILLE,GA
581,53841,41.6,54.1,308.9,-84.903,38.185,FRANKFORT,KY
582,53842,39.9,51.4,322.4,-86.296,39.825,INDIANAPOLIS,IN
583,53843,53.8,67.8,299.0,-86.394,31.309,ANDALUSIA (FT RUCKER),AL
584,53844,38.5,52.4,287.3,-82.657,39.756,LANCASTER,OH
585,53847,56.0,66.2,353.3,-87.023,30.704,MILTON,FL
586,53848,56.0,66.2,353.3,-86.960,30.507,MILTON,FL
587,53850,45.3,62.5,252.2,-82.886,34.672,CLEMSON,SC
588,53852,48.7,59.3,342.2,-86.945,34.653,DECATUR,AL
589,53853,58.3,72.0,306.4,-86.472,30.400,DESTIN,FL
590,53854,52.3,63.9,329.8,-80.858,33.462,ORANGEBURG,SC
591,53855,40.5,54.3,290.4,-84.525,39.364,HAMILTON,OH
592,53858,57.9,66.0,386.6,-88.532,30.464,PASCAGOULA,MS
593,53859,39.1,53.2,285.5,-84.226,39.594,DAYTON,OH
594,53860,59.6,69.1,366.2,-81.515,30.336,JACKSONVILLE,FL
595,53862,57.4,67.8,350.8,-83.574,30.072,PERRY-FOLEY,FL
596,53863,47.3,60.8,300.3,-84.302,33.875,ATLANTA,GA
597,53864,50.2,63.2,308.9,-86.782,33.178,ALABASTER,AL
598,53865,60.0,66.4,416.1,-89.821,30.345,SLIDELL,LA
599,53866,40.5,53.9,295.9,-85.803,39.578,SHELBYVILLE,IN
600,53867,50.9,64.6,300.3,-80.996,33.971,COLUMBIA,SC
601,53868,42.8,58.6,267.0,-84.233,36.023,OAK RIDGE,TN
602,53869,48.0,58.9,337.2,-89.831,35.940,BLYTHEVILLE,AR
603,53870,46.7,60.8,291.6,-81.156,35.197,GASTONIA,NC
604,53871,48.0,60.7,311.4,-81.058,34.987,ROCK HILL,SC
605,53872,47.7,61.6,295.3,-80.621,35.017,MONROE,NC
606,53873,48.1,59.4,331.1,-84.849,34.123,CARTERSVILLE,GA
607,53874,48.6,61.1,314.4,-82.159,34.249,GREENWOOD,SC
608,53879,37.3,51.5,282.4,-94.371,38.960,LEE'S SUMMIT,MO
609,53901,41.5,54.9,296.6,-91.903,36.878,WEST PLAINS,MO
610,53902,55.2,64.4,368.1,-95.414,30.352,CONROE,TX
611,53903,54.5,65.3,343.4,-95.587,30.747,HUNTSVILLE,TX
612,53904,41.4,53.4,316.3,-90.428,38.929,ST CHARLES,MO
613,53905,51.8,62.4,344.0,-93.744,32.540,SHREVEPORT,LA
614,53907,50.8,62.7,324.9,-97.094,32.664,ARLINGTON,TX
615,53908,42.4,56.5,287.9,-95.984,36.039,TULSA,OK
616,53909,49.4,61.1,326.8,-97.318,32.973,FORT WORTH,TX
617,53910,57.0,66.4,365.6,-95.553,30.062,HOUSTON,TX
618,53911,50.4,62.4,323.1,-96.267,32.710,TERRELL,TX
619,53912,52.2,63.6,332.9,-96.398,32.027,CORSICANA,TX
620,53913,41.7,56.0,284.8,-97.416,35.850,GUTHRIE,OK
621,53914,50.3,60.8,344.6,-96.590,33.180,MC KINNEY,TX
622,53915,58.6,68.5,359.4,-91.884,30.038,NEW IBERIA,LA
623,53916,37.7,51.1,293.5,-93.579,39.823,CHILLICOTHE,MO
624,53917,59.8,70.1,353.9,-90.028,30.043,NEW ORLEANS,LA
625,53918,42.3,57.2,277.4,-92.470,36.369,MOUNTAIN HOME,AR
626,53919,51.0,61.8,340.9,-91.751,33.638,MONTICELLO,AR
627,53920,46.6,59.9,302.1,-93.095,35.258,RUSSELLVILLE,AR
628,53921,46.8,59.1,316.3,-93.578,34.547,MOUNT IDA,AR
629,53922,44.2,54.8,339.1,-94.307,36.282,FAYETTEVILLE/SPRINGDALE,AR
630,53925,48.5,60.0,328.6,-94.399,34.047,DE QUEEN,AR
631,53959,49.1,59.3,348.3,-90.234,35.135,WEST MEMPHIS,AR
632,53988,54.4,65.4,340.3,-92.967,31.150,FORT POLK,LA
633,54704,33.6,47.9,277.4,-71.174,42.191,NORWOOD,MA
634,54728,26.8,41.2,270.1,-71.545,44.368,WHITEFIELD,NH
635,54733,31.7,47.0,263.3,-70.918,42.584,BEVERLY,MA
636,54734,31.8,47.8,254.0,-73.483,41.371,DANBURY,CT
637,54737,36.8,51.1,280.5,-76.294,40.120,LANCASTER,PA
638,54740,27.8,43.5,254.0,-72.518,43.344,SPRINGFIELD,VT
639,54742,27.2,41.9,266.4,-72.019,44.419,SAINT JOHNSBURY,VT
640,54743,33.0,51.4,226.9,-74.283,40.876,CALDWELL,NJ
641,54756,29.7,45.1,259.6,-72.291,42.570,ORANGE,MA
642,54757,30.0,43.9,279.9,-77.992,42.109,WELLSVILLE,NY
643,54767,32.3,48.2,255.9,-72.184,41.742,WILLIMANTIC,CT
644,54768,26.9,44.7,228.1,-73.171,42.696,NORTH ADAMS,MA
645,54769,33.2,46.9,285.5,-70.729,41.910,PLYMOUTH,MA
646,54770,28.8,43.1,273.1,-72.004,42.805,JAFFREY,NH
647,54771,27.8,41.6,279.3,-72.614,44.534,MORRISVILLE,VT
648,54772,27.7,42.9,260.8,-70.948,43.991,FRYEBURG,ME
649,54773,32.1,45.2,292.9,-76.385,43.350,FULTON,NY
650,54777,32.7,48.6,256.5,-71.021,41.876,TAUNTON,MA
651,54778,32.3,45.6,290.4,-77.056,42.643,PENN YAN,NY
652,54779,33.1,49.9,246.0,-74.737,41.009,ANDOVER,NJ
653,54780,36.8,47.7,328.6,-71.923,41.073,MONTAUK,NY
654,54781,28.7,45.1,246.6,-73.247,42.891,BENNINGTON,VT
655,54785,35.4,50.9,263.9,-74.669,40.624,SOMERVILLE,NJ
656,54786,35.6,51.1,263.9,-75.123,40.330,DOYLESTOWN,PA
657,54787,35.0,50.3,265.7,-73.417,40.734,FARMINGDALE,NY
658,54788,32.4,48.7,250.9,-72.828,41.510,MERIDEN,CT
659,54789,31.4,45.7,275.6,-75.379,41.139,MOUNT POCONO,PA
660,54790,35.3,48.9,288.5,-72.869,40.822,SHIRLEY,NY
661,54791,29.9,45.9,252.2,-70.922,43.278,ROCHESTER,NH
662,54792,33.0,48.1,267.0,-78.412,41.047,CLEARFIELD,PA
663,54813,26.6,36.2,341.6,-86.651,46.429,MUNISING,MI
664,63870,55.6,66.2,347.1,-86.312,31.043,FLORALA,AL
665,63872,53.8,65.2,334.2,-85.129,31.951,EUFAULA,AL
666,63873,55.5,66.2,345.3,-85.654,31.346,FORT RUCKER/OZARK,AL
667,63874,53.1,64.6,332.3,-86.611,31.846,GREENVILLE,AL
668,63890,57.1,67.0,358.2,-81.883,30.350,JACKSONVILLE,FL
669,64775,32.3,43.6,319.4,-75.412,43.234,ROME,NY
670,64776,28.7,42.5,279.9,-73.468,44.651,PLATTSBURG,NY
671,73805,58.2,67.1,374.2,-85.788,30.349,PANAMA CITY,FL
672,92805,68.1,77.0,380.4,-80.108,26.250,POMPANO BEACH,FL
673,92806,65.6,76.5,349.6,-82.628,27.765,ST PETERSBURG,FL
674,92809,66.6,77.1,355.7,-80.241,25.999,HOLLYWOOD,FL
675,93005,18.0,44.7,132.6,-107.760,37.143,DURANGO,CO
676,93009,14.6,27.5,279.9,-106.316,39.228,LEADVILLE,CO
677,93010,23.3,39.1,248.5,-103.716,39.189,LIMON,CO
678,93013,24.1,47.5,167.1,-107.898,38.505,MONTROSE,CO
679,93026,15.9,61.8,25.3,-109.604,31.469,DOUGLAS BISBEE,AZ
680,93027,17.8,53.3,74.0,-109.379,34.518,ST JOHNS,AZ
681,93033,21.5,63.4,46.3,-104.263,32.338,CARLSBAD,NM
682,93037,20.0,42.7,169.6,-104.711,38.812,COLORADO SPRINGS,CO
683,93042,24.3,51.0,139.4,-102.547,36.023,DALHART,TX
684,93045,14.2,62.3,16.7,-107.268,33.237,TRUTH OR CONSEQUENCES,NM
685,93058,21.0,46.7,143.7,-104.498,38.290,PUEBLO,CO
686,93067,22.9,41.3,217.0,-104.849,39.570,DENVER,CO
687,93069,17.2,46.6,111.6,-108.628,37.303,CORTEZ,CO
688,93075,20.1,50.8,105.5,-109.754,38.755,MOAB,UT
689,93084,16.1,65.8,13.0,-109.635,32.855,SAFFORD,AZ
690,93102,20.6,51.9,101.8,-118.700,39.417,FALLON,NV
691,93104,24.1,66.2,47.5,-117.683,35.683,CHINA LAKE,CA
692,93107,45.6,60.1,285.5,-117.150,32.867,MIRAMAR,CA
693,93110,48.8,58.5,355.7,-119.206,34.201,OXNARD,CA
694,93112,50.0,62.4,316.9,-117.200,32.700,SAN DIEGO,CA
695,93115,50.4,59.0,374.2,-117.117,32.567,IMPERIAL BEACH,CA
696,93129,23.2,46.3,169.0,-113.097,37.702,CEDAR CITY,UT
697,93134,46.0,64.0,243.5,-118.296,34.028,LOS ANGELES,CA
698,93138,33.1,74.7,58.0,-116.505,33.828,PALM SPRINGS,CA
699,93141,18.5,53.9,75.3,-110.750,39.545,PRICE,UT
700,93167,18.3,61.2,38.9,-113.937,35.259,KINGMAN,AZ
701,93184,47.5,62.6,279.3,-117.866,33.680,SANTA ANA,CA
702,93193,42.7,67.6,172.7,-119.719,36.780,FRESNO,CA
703,93197,47.8,61.7,295.3,-118.451,34.016,SANTA MONICA,CA
704,93205,42.8,63.9,207.8,-121.570,39.098,MARYSVILLE,CA
705,93206,47.0,59.5,313.2,-120.641,35.237,SAN LUIS OBISPO,CA
706,93209,39.8,62.5,189.9,-120.627,35.673,PASO ROBLES,CA
707,93210,42.0,63.2,206.6,-121.618,39.490,OROVILLE,CA
708,93225,42.8,63.1,216.4,-121.590,38.696,SACRAMENTO,CA
709,93227,45.2,58.9,295.9,-122.280,38.213,NAPA,CA
710,93228,46.3,60.7,287.3,-122.121,37.659,HAYWARD,CA
711,93230,25.3,44.7,208.4,-119.995,38.894,SOUTH LAKE TAHOE,CA
712,93241,39.9,64.1,176.4,-121.961,38.377,VACAVILLE,CA
713,93242,42.9,63.1,217.0,-120.111,36.988,MADERA,CA
714,93706,38.2,54.3,259.0,-77.730,39.708,HAGERSTOWN,MD
715,93718,54.4,61.7,398.3,-78.721,33.816,NORTH MYRTLE BEACH,SC
716,93719,51.2,61.9,342.2,-77.047,35.068,NEW BERN,NC
717,93720,42.0,57.2,273.8,-75.510,38.341,SALISBURY,MD
718,93721,39.2,55.4,258.3,-76.684,39.172,BALTIMORE,MD
719,93727,50.3,61.6,332.9,-77.433,34.700,NEW RIVER,NC
720,93729,51.0,59.2,381.0,-75.623,35.232,CAPE HATTERAS,NC
721,93730,38.9,51.6,304.0,-74.457,39.458,ATLANTIC CITY,NJ
722,93736,39.1,57.4,234.3,-78.453,38.139,CHARLOTTESVILLE,VA
723,93738,39.3,56.1,251.6,-77.448,38.935,WASHINGTON,DC
724,93739,41.9,56.1,286.1,-75.496,37.941,WALLOPS ISLAND,VA
725,93740,48.9,62.8,295.9,-78.880,34.991,FAYETTEVILLE,NC
726,93741,44.8,61.0,263.9,-76.493,37.132,NEWPORT NEWS,VA
727,93743,51.7,60.0,379.8,-77.030,34.691,SWANSBORO,NC
728,93759,47.2,61.2,293.5,-77.893,35.855,ROCKY MOUNT,NC
729,93762,36.7,53.6,247.9,-77.43333,39.73333,SITE R,PA
730,93765,53.1,60.8,390.9,-76.661,34.734,BEAUFORT,NC
731,93773,45.8,59.2,300.3,-77.007,36.984,WAKEFIELD,VA
732,93775,43.2,57.9,281.1,-77.434,37.708,RICHMOND/ASHLAND,VA
733,93778,36.8,51.6,273.8,-76.874,39.918,YORK,PA
734,93780,37.2,52.5,268.2,-74.841,39.941,MOUNT HOLLY,NJ
735,93782,50.0,61.5,329.8,-79.366,34.792,MAXTON,NC
736,93783,45.4,59.6,289.2,-79.477,36.047,BURLINGTON,NC
737,93784,39.4,60.3,206.6,-76.610,39.281,BALTIMORE,MD
738,93785,45.2,60.4,276.2,-79.064,35.933,CHAPEL HILL,NC
739,93786,44.6,52.0,390.9,-75.124,38.308,OCEAN CITY,MD
740,93801,47.8,60.0,318.1,-85.161,34.348,ROME,GA
741,93805,55.3,68.1,315.7,-84.353,30.393,TALLAHASSEE,FL
742,93806,51.3,63.8,316.9,-87.616,33.212,TUSCALOOSA,AL
743,93807,42.7,59.5,254.6,-80.222,36.134,WINSTON SALEM,NC
744,93808,44.1,58.4,286.7,-86.436,36.981,BOWLING GREEN,KY
745,93810,43.3,54.6,328.0,-89.250,37.780,CARBONDALE/MURPHYBORO,IL
746,93812,41.7,53.9,313.2,-84.419,39.103,CINCINNATI,OH
747,93814,40.7,54.7,287.9,-84.672,39.043,COVINGTON,KY
748,93815,39.6,52.8,297.8,-84.219,39.906,DAYTON,OH
749,93817,42.1,55.8,292.9,-87.537,38.043,EVANSVILLE,IN
750,93819,39.1,52.6,293.5,-86.272,39.710,INDIANAPOLIS,IN
751,93821,41.2,58.4,248.5,-85.730,38.177,LOUISVILLE,KY
752,93822,39.9,51.5,320.6,-89.684,39.845,SPRINGFIELD,IL
753,93824,37.4,52.2,274.4,-81.892,39.944,ZANESVILLE,OH
754,93831,56.1,65.3,368.1,-80.717,32.483,BEAUFORT,SC
755,93837,60.3,70.2,360.7,-81.683,30.233,JACKSONVILLE,FL
756,93841,55.0,66.0,340.9,-87.022,30.724,MILTON,FL
757,93842,50.1,65.6,276.8,-84.942,32.516,COLUMBUS,GA
758,93845,56.0,69.5,307.0,-83.277,30.783,VALDOSTA,GA
759,93846,47.9,60.7,310.1,-82.709,34.495,ANDERSON,SC
760,93862,49.3,61.1,324.9,-88.771,34.261,TUPELO,MS
761,93874,58.8,66.4,395.2,-89.070,30.407,GULFPORT,MS
762,93909,37.7,49.5,316.3,-94.890,38.831,OLATHE,KS
763,93915,55.2,64.4,368.1,-92.559,31.335,ALEXANDRIA,LA
764,93919,55.3,64.4,369.3,-90.472,31.178,MCCOMB,MS
765,93950,45.2,60.0,281.1,-95.783,34.899,MC ALESTER,OK
766,93953,45.5,57.0,326.8,-95.361,35.657,MUSKOGEE,OK
767,93967,43.0,54.6,323.1,-95.566,37.091,COFFEYVILLE,KS
768,93986,42.5,54.7,313.8,-99.051,35.008,HOBART,OK
769,93987,53.7,66.2,318.7,-94.750,31.234,LUFKIN,TX
770,93988,50.8,60.2,361.9,-91.935,34.175,PINE BLUFF,AR
771,93989,38.3,50.8,306.4,-91.194,39.943,QUINCY,IL
772,93990,31.4,47.9,247.9,-99.830,39.376,HILL CITY,KS
773,93992,51.3,61.0,357.6,-92.813,33.221,EL DORADO,AR
774,93993,43.6,55.4,320.6,-94.170,36.005,FAYETTEVILLE,AR
775,93997,34.7,48.8,281.1,-98.828,38.872,RUSSELL,KS
776,94008,25.6,38.2,294.1,-106.621,48.214,GLASGOW,MT
777,94012,24.3,40.1,249.7,-109.780,48.559,HAVRE,MT
778,94014,24.0,34.5,324.9,-103.642,48.195,WILLISTON,ND
779,94017,25.4,37.3,304.6,-105.574,48.094,WOLF POINT,MT
780,94023,24.7,35.6,319.4,-105.542,44.339,GILLETTE,WY
781,94030,22.6,44.2,183.1,-109.509,40.441,VERNAL,UT
782,94032,19.7,32.3,289.2,-103.628,43.731,CUSTER,SD
783,94037,24.8,37.1,297.8,-103.546,45.604,BUFFALO,SD
784,94038,22.8,35.4,291.6,-102.655,46.014,HETTINGER,ND
785,94039,25.3,38.9,279.9,-102.518,43.021,PINE RIDGE,SD
786,94040,29.1,45.9,241.7,-100.591,40.206,MC COOK,NE
787,94041,23.5,32.1,356.3,-101.439,47.663,GARRISON,ND
788,94050,23.3,39.0,249.7,-107.885,40.049,MEEKER,CO
789,94051,25.8,38.3,295.9,-106.948,47.326,JORDAN,MT
790,94052,23.8,35.6,304.6,-100.408,45.546,MOBRIDGE,SD
791,94053,23.5,39.5,246.6,-104.153,42.065,TORRINGTON,WY
792,94054,22.5,37.4,259.6,-106.721,44.381,BUFFALO,WY
793,94055,22.8,36.6,275.0,-104.250,46.358,BAKER,MT
794,94056,25.5,37.0,310.7,-102.019,45.032,FAITH,SD
795,94057,22.4,37.3,259.6,-105.386,42.797,DOUGLAS,WY
796,94107,21.7,46.3,154.2,-117.864,42.591,ROME,OR
797,94119,30.8,44.3,286.1,-117.421,47.969,DEER PARK,WA
798,94128,28.0,43.5,257.1,-111.853,41.787,LOGAN,UT
799,94129,32.0,44.4,302.7,-117.109,46.744,PULLMAN/MOSCOW,WA
800,94173,15.6,25.9,321.2,-110.421,44.544,YELLOWSTONE,WY
801,94176,30.1,47.6,234.3,-117.321,47.683,SPOKANE,WA
802,94178,27.2,48.0,195.5,-114.487,42.482,TWIN FALLS,ID
803,94182,23.7,38.1,267.6,-116.102,44.889,MCCALL,ID
804,94185,25.3,43.0,227.5,-118.954,43.592,BURNS,OR
805,94194,22.2,42.0,201.0,-111.881,43.834,REXBURG,ID
806,94197,29.9,48.7,219.5,-119.517,48.464,OMAK,WA
807,94225,42.5,48.2,419.8,-123.937,46.971,HOQUIAM,WA
808,94227,40.2,47.6,388.4,-123.148,47.238,SHELTON,WA
809,94236,29.3,44.0,268.8,-121.724,42.147,KLAMATH FALLS,OR
810,94239,30.0,51.2,194.2,-120.207,47.399,WENATCHEE,WA
811,94240,40.3,48.8,369.3,-124.561,47.934,QUILLAYUTE,WA
812,94248,41.6,50.4,365.6,-122.214,47.493,RENTON,WA
813,94261,40.6,50.1,353.3,-122.949,45.541,PORTLAND,OR
814,94266,39.1,47.3,373.6,-123.498,48.120,PORT ANGELES,WA
815,94273,40.9,51.2,340.9,-123.134,45.195,MC MINNVILLE,OR
816,94274,39.2,49.6,338.5,-122.576,47.268,TACOMA,WA
817,94276,40.2,47.6,388.4,-123.023,48.522,FRIDAY HARBOR,WA
818,94281,41.4,51.5,344.6,-122.769,45.249,AURORA,OR
819,94298,40.6,51.6,330.5,-122.657,45.621,VANCOUVER,WA
820,94299,27.7,44.3,242.9,-120.567,41.483,ALTURAS,CA
821,94623,29.8,42.8,292.2,-69.712,43.964,WISCASSET,ME
822,94624,36.2,46.1,344.0,-69.993,41.688,CHATHAM,MA
823,94626,24.4,37.5,286.1,-69.595,45.462,GREENVILLE,ME
824,94700,26.2,39.4,286.1,-71.179,44.576,BERLIN,NH
825,94702,35.3,49.7,278.1,-73.146,41.175,BRIDGEPORT,CT
826,94704,33.3,47.5,278.7,-77.713,42.571,DANSVILLE,NY
827,94705,26.8,40.6,278.7,-72.579,44.203,BARRE/MONTPELIER,VT
828,94720,36.6,46.0,352.0,-70.280,41.669,HYANNIS,MA
829,94723,30.8,49.1,226.3,-71.124,42.717,LAWRENCE,MA
830,94724,35.7,45.1,351.4,-70.615,41.393,VINEYARD HAVEN,MA
831,94725,29.7,42.8,291.0,-74.846,44.936,MASSENA,NY
832,94726,34.7,47.3,302.1,-70.958,41.676,NEW BEDFORD,MA
833,94728,35.4,53.0,238.6,-73.967,40.783,NEW YORK,NY
834,94732,36.4,52.8,253.4,-75.011,40.082,PHILADELPHIA,PA
835,94740,26.8,36.9,333.5,-74.207,44.385,SARANAC LAKE,NY
836,94741,34.8,52.3,239.2,-74.061,40.850,TETERBORO,NJ
837,94745,32.5,49.1,247.9,-73.708,41.067,WHITE PLAINS,NY
838,94746,30.1,46.2,251.6,-71.876,42.267,WORCESTER,MA
839,94765,27.2,44.3,236.8,-72.305,43.626,LEBANON,NH
840,94789,34.6,50.7,255.9,-73.796,40.655,NEW YORK,NY
841,94790,31.8,43.8,308.3,-76.022,43.992,WATERTOWN,NY
842,94814,29.2,39.3,335.4,-84.691,44.368,HOUGHTON LAKE,MI
843,94815,33.7,46.0,305.8,-85.552,42.235,KALAMAZOO,MI
844,94817,32.0,44.0,308.3,-83.418,42.665,PONTIAC,MI
845,94818,33.0,45.8,297.8,-87.814,42.761,RACINE,WI
846,94822,34.8,46.8,310.7,-89.093,42.196,ROCKFORD,IL
847,94823,35.2,52.4,242.9,-80.231,40.501,PITTSBURGH,PA
848,94830,32.8,46.5,284.8,-83.801,41.589,TOLEDO,OH
849,94846,35.1,46.9,313.8,-87.914,41.986,CHICAGO,IL
850,94847,33.2,46.4,292.2,-83.349,42.215,DETROIT,MI
851,94849,28.6,38.4,339.7,-83.581,45.072,ALPENA,MI
852,94855,31.0,41.5,330.5,-88.557,43.984,OSHKOSH,WI
853,94860,33.5,44.6,323.1,-85.523,42.882,GRAND RAPIDS,MI
854,94870,40.0,50.6,336.0,-88.278,40.040,CHAMPAIGN/URBANA,IL
855,94871,34.4,45.6,322.4,-86.422,42.129,BENTON HARBOR,MI
856,94889,33.2,44.7,316.9,-83.744,42.223,ANN ARBOR,MI
857,94892,35.1,46.6,318.1,-88.246,41.914,CHICAGO/WEST CHICAGO,IL
858,94893,26.2,36.1,336.6,-88.114,45.818,IRON MOUNTAIN/KINGSFORD,MI
859,94895,39.0,53.0,286.7,-85.394,40.234,MUNCIE,IN
860,94899,27.2,34.1,389.6,-87.875,47.467,COPPER HARBOR,MI
861,94908,34.8,44.4,347.7,-90.704,42.398,DUBUQUE,IA
862,94910,33.7,44.2,332.3,-92.401,42.554,WATERLOO,IA
863,94929,25.9,35.0,349.6,-90.919,46.549,ASHLAND,WI
864,94931,21.3,32.6,310.1,-92.839,47.387,HIBBING,MN
865,94938,23.1,35.4,296.6,-94.131,46.405,BRAINERD,MN
866,94943,26.0,39.5,281.8,-99.318,43.767,CHAMBERLAIN,SD
867,94946,28.6,42.0,285.5,-99.639,41.437,BROKEN BOW,NE
868,94949,32.1,45.3,291.6,-98.427,40.604,HASTINGS,NE
869,94950,27.8,39.4,310.7,-98.038,43.777,MITCHELL,SD
870,94957,35.8,48.9,295.9,-95.592,40.079,FALLS CITY,NE
871,94958,28.8,42.7,278.7,-98.952,41.624,ORD,NE
872,94960,27.8,39.5,309.5,-93.351,45.063,MINNEAPOLIS,MN
873,94961,21.7,31.5,334.8,-94.610,48.728,BAUDETTE,MN
874,94963,29.1,45.7,244.2,-93.470,44.832,MINNEAPOLIS,MN
875,94967,22.4,31.6,345.3,-95.068,46.901,PARK RAPIDS,MN
876,94971,31.2,40.3,353.3,-94.746,43.408,ESTHERVILLE,IA
877,94973,25.0,35.2,330.5,-91.444,46.026,HAYWARD,WI
878,94978,33.5,45.9,304.0,-96.178,41.764,TEKAMAH,NE
879,94982,36.0,47.5,319.4,-90.591,41.614,DAVENPORT,IA
880,94985,29.5,37.4,373.0,-90.189,44.637,MARSHFIELD,WI
881,94988,35.8,44.7,360.0,-92.918,42.113,MARSHALLTOWN,IA
882,94989,35.5,45.1,348.3,-93.622,41.992,AMES,IA
883,94990,27.5,40.6,288.5,-99.842,43.390,WINNER,SD
884,94991,35.8,47.9,310.1,-93.902,40.633,LAMONI,IA
885,94992,24.3,34.2,334.8,-90.344,47.747,GRAND MARAIS,MN
886,94993,27.2,34.5,382.2,-96.991,45.669,SISSETON,SD
887,94994,32.3,44.8,301.5,-90.678,43.156,BOSCOBEL,WI
