,wban,dewpt,tavg,wp,long,lat,stname,ststate
0,03013,19.8,31.1,308.9,-102.688,38.070,LAMAR,CO
1,03016,21.3,30.3,347.7,-107.726,39.526,RIFLE,CO
2,03017,16.8,31.3,259.6,-104.658,39.833,DENVER,CO
3,03024,26.8,41.2,270.1,-101.394,35.700,BORGER,TX
4,03026,18.5,29.7,309.5,-102.284,39.245,BURLINGTON,CO
5,03027,20.6,32.9,294.1,-105.663,35.003,CLINES CORNERS,NM
6,03028,21.5,33.2,304.0,-102.614,37.283,SPRINGFIELD,CO
7,03029,21.7,33.4,304.6,-109.061,35.658,WINDOW ROCK,AZ
8,03030,26.3,38.4,302.1,-101.505,36.682,GUYMON,OK
9,03031,33.7,48.8,267.6,-102.387,31.921,ODESSA,TX
10,03032,40.9,53.4,308.9,-102.213,30.048,DRYDEN,TX
11,03102,41.5,56.7,273.1,-117.600,34.056,ONTARIO,CA
12,03103,22.7,33.2,323.7,-111.672,35.140,FLAGSTAFF,AZ
13,03104,37.5,55.2,239.2,-116.160,33.628,PALM SPRINGS,CA
14,03124,28.8,49.2,201.6,-110.344,31.588,FORT HUACHUCA/SIERRA VISTA,AZ
15,03131,47.6,58.7,334.2,-117.139,32.816,SAN DIEGO,CA
16,03144,40.2,57.1,250.9,-115.579,32.834,IMPERIAL,CA
17,03159,36.4,46.5,340.9,-118.219,34.741,LANCASTER,CA
18,03160,30.3,45.2,267.0,-116.028,36.621,MERCURY,NV
19,03162,26.6,40.9,271.3,-111.448,36.926,PAGE,AZ
20,03164,36.6,48.3,316.9,-116.467,32.617,CAMPO,CA
21,03166,45.8,59.3,299.0,-117.979,33.872,FULLERTON,CA
22,03167,46.7,60.4,297.2,-118.334,33.923,HAWTHORNE,CA
23,03170,22.8,32.1,344.0,-116.006,39.601,EUREKA,NV
24,03171,41.2,56.6,270.1,-117.439,33.952,RIVERSIDE,CA
25,03177,47.0,58.3,330.5,-117.279,33.128,CARLSBAD,CA
26,03179,43.8,55.1,328.0,-117.636,33.975,CHINO,CA
27,03184,36.9,54.8,236.8,-112.082,33.688,PHOENIX,AZ
28,03192,38.2,55.2,247.9,-111.911,33.623,SCOTTSDALE,AZ
29,03195,23.2,32.7,340.9,-112.155,35.946,GRAND CANYON,AZ
30,03196,30.0,50.1,205.9,-110.846,31.421,NOGALES,AZ
31,03757,31.8,42.6,326.8,-76.429,38.142,ST INIGOES,MD
32,03802,31.1,37.9,393.9,-80.229,39.296,CLARKSBURG,WV
33,03804,30.0,38.3,366.2,-81.439,39.345,PARKERSBURG,WV
34,03810,33.1,44.4,320.0,-81.390,35.741,HICKORY,NC
35,03811,36.7,43.6,395.2,-88.917,35.593,JACKSON,TN
36,03812,33.3,44.2,326.1,-82.538,35.432,ASHEVILLE,NC
37,03813,42.8,51.0,376.1,-83.654,32.688,MACON,GA
38,03816,34.0,40.7,397.0,-88.774,37.056,PADUCAH,KY
39,03818,48.7,55.7,400.1,-85.184,30.836,MARIANNA,FL
40,03820,40.9,49.8,363.1,-81.965,33.370,AUGUSTA,GA
41,03822,45.3,55.8,340.9,-81.202,32.119,SAVANNAH,GA
42,03847,35.3,42.3,392.7,-85.085,35.951,CROSSVILLE,TN
43,03849,32.0,41.4,349.0,-84.077,37.087,LONDON,KY
44,03853,52.7,59.8,400.1,-81.417,30.400,MAYPORT,FL
45,03856,39.3,47.3,377.3,-86.786,34.644,HUNTSVILLE,AL
46,03859,30.3,39.5,350.8,-81.208,37.296,BLUEFIELD,WV
47,03860,32.0,39.2,387.2,-82.555,38.382,HUNTINGTON,WV
48,03866,43.6,49.9,409.4,-88.567,32.550,MERIDIAN,MS
49,03868,29.5,34.7,423.5,-87.309,39.452,TERRE HAUTE,IN
50,03870,36.6,47.8,324.3,-82.219,34.899,GREER,SC
51,03872,29.7,37.3,378.5,-81.125,37.795,BECKLEY,WV
52,03878,43.6,51.7,378.5,-86.012,31.861,TROY,AL
53,03887,28.9,34.0,425.4,-88.866,39.984,DECATUR,IL
54,03888,38.9,48.6,349.0,-84.521,33.779,ATLANTA,GA
55,03889,32.2,40.4,369.3,-83.314,37.591,JACKSON,KY
56,03893,30.4,35.0,435.9,-86.617,39.144,BLOOMINGTON,IN
57,03894,35.3,41.2,413.1,-87.415,36.622,CLARKSVILLE,TN
58,03901,43.4,50.6,393.3,-94.711,32.385,LONGVIEW,TX
59,03904,46.8,55.0,378.5,-96.364,30.588,COLLEGE STATION,TX
60,03919,27.4,35.9,360.7,-97.661,38.813,SALINA,KS
61,03927,41.1,50.1,361.9,-97.041,32.896,DALLAS-FORT WORTH,TX
62,03928,28.8,38.2,346.5,-97.429,37.647,WICHITA,KS
63,03932,32.5,41.7,352.7,-99.200,35.340,CLINTON,OK
64,03935,34.1,39.4,423.5,-89.571,37.225,CAPE GIRARDEAU,MO
65,03936,28.1,34.7,395.8,-96.678,39.135,MANHATTAN,KS
66,03937,50.2,56.2,418.6,-93.228,30.125,LAKE CHARLES,LA
67,03940,44.3,51.0,402.6,-90.078,32.320,JACKSON,MS
68,03945,30.5,36.7,404.4,-92.218,38.817,COLUMBIA,MO
69,03947,28.5,34.3,411.2,-94.718,39.299,KANSAS CITY,MO
70,03949,46.8,53.2,409.4,-93.283,31.400,FORT POLK,LA
71,03950,36.5,44.1,382.2,-98.416,34.568,LAWTON,OK
72,03953,37.5,41.7,447.0,-90.646,35.831,JONESBORO,AR
73,03954,34.3,42.4,372.4,-97.647,35.534,OKLAHOMA CITY,OK
74,03957,29.0,37.0,370.5,-98.553,37.284,MEDICINE LODGE,KS
75,03959,32.3,39.5,387.2,-96.011,36.762,BARTLESVILLE,OK
76,03960,32.0,38.6,397.6,-90.157,38.571,CAHOKIA/ST.LOUIS,IL
77,03962,38.6,44.8,408.7,-93.096,34.478,HOT SPRINGS,AR
78,03963,30.2,37.8,378.5,-92.156,38.591,JEFFERSON CITY,MO
79,03965,32.8,41.5,361.3,-97.086,36.160,STILLWATER,OK
80,03967,29.2,35.5,402.0,-94.739,38.850,OLATHE,KS
81,03971,41.4,52.4,331.1,-96.868,32.681,DALLAS,TX
82,03974,29.0,36.7,376.1,-97.219,37.750,WICHITA,KS
83,03975,33.5,40.7,387.8,-90.325,36.773,POPLAR BLUFF,MO
84,03981,36.0,44.3,369.9,-98.984,34.352,FREDERICK,OK
85,03991,40.1,48.4,373.0,-97.199,33.206,DENTON,TX
86,03994,30.3,37.7,382.2,-93.183,38.704,SEDALIA,MO
87,03996,43.8,50.0,411.8,-91.030,32.348,TALLULAH/VICKSBURG,MS
88,03997,28.3,34.6,401.3,-95.212,39.008,LAWRENCE,KS
89,03998,33.0,39.1,407.5,-95.504,37.328,PARSONS,KS
90,03999,43.1,52.0,365.0,-98.235,30.741,BURNET,TX
91,04109,31.8,35.9,447.0,-115.596,46.144,ELK CITY,ID
92,04110,27.0,34.1,385.9,-114.456,42.727,JEROME,ID
93,04111,18.6,27.5,347.7,-111.031,41.273,EVANSTON,WY
94,04112,15.2,20.8,408.1,-114.927,44.171,STANLEY,ID
95,04113,31.2,37.3,406.9,-119.261,45.826,HERMISTON,OR
96,04114,19.0,24.7,408.1,-114.215,41.523,CHALLIS,ID
97,04201,38.0,42.8,435.2,-122.861,45.773,SCAPPOOSE,OR
98,04724,26.2,32.4,402.0,-78.945,43.107,NIAGARA FALLS,NY
99,04725,25.7,30.3,434.0,-75.981,42.208,BINGHAMTON,NY
100,04726,25.6,32.3,392.1,-78.834,40.301,JOHNSTOWN,PA
101,04751,24.4,30.2,408.7,-78.640,41.803,BRADFORD,PA
102,04780,25.6,34.8,347.7,-71.756,42.552,FITCHBURG,MA
103,04781,30.7,39.6,356.3,-73.102,40.794,ISLIP,NY
104,04787,26.6,31.9,419.8,-78.899,41.178,DU BOIS,PA
105,04789,26.6,34.9,363.7,-74.265,41.509,MONTGOMERY,NY
106,04803,17.0,18.6,498.7,-89.465,45.631,RHINELANDER,WI
107,04804,28.5,35.4,390.3,-83.078,40.078,COLUMBUS,OH
108,04808,24.9,31.6,392.1,-88.481,41.770,CHICAGO/AURORA,IL
109,04826,19.3,24.1,426.6,-89.837,44.359,WISCONSIN RAPIDS,WI
110,04836,15.8,18.5,472.2,-68.307,47.286,FRENCHVILLE,ME
111,04838,24.8,32.0,382.2,-87.905,42.121,CHICAGO/PROSPECT HGTS/WHEELI,IL
112,04839,26.7,34.6,371.1,-86.097,42.746,HOLLAND,MI
113,04840,22.1,27.9,407.5,-88.486,43.770,FOND DU LAC,WI
114,04841,22.3,28.5,400.1,-87.851,43.769,SHEBOYGAN,WI
115,04842,28.3,33.6,421.1,-81.887,40.875,WOOSTER,OH
116,04843,26.5,33.7,383.5,-80.215,41.626,MEADVILLE,PA
117,04845,25.3,30.9,413.7,-87.938,42.595,KENOSHA,WI
118,04846,26.9,32.2,420.5,-87.006,41.453,VALPARAISO,IN
119,04848,26.9,34.4,378.5,-83.476,41.563,TOLEDO,OH
120,04849,28.4,34.4,407.5,-82.179,41.179,LORAIN/ELYRIA,OH
121,04850,28.6,35.6,388.4,-84.027,40.708,LIMA,OH
122,04851,27.8,33.5,412.4,-84.429,41.338,DEFIANCE,OH
123,04852,28.5,36.2,375.5,-81.420,40.470,NEW PHILADELPHIA,OH
124,04853,28.4,37.2,356.3,-81.684,41.518,CLEVELAND,OH
125,04854,22.3,25.2,469.8,-84.701,45.013,GAYLORD,MI
126,04855,27.9,34.1,403.2,-83.064,40.616,MARION,OH
127,04857,27.9,34.6,393.3,-80.696,41.778,ASHTABULA,OH
128,04858,28.8,36.3,379.8,-82.463,40.023,NEWARK,OH
132,12812,57.5,65.6,386.6,-81.991,26.917,PUNTA GORDA,FL
133,12815,56.4,65.1,376.1,-81.325,28.434,ORLANDO,FL
134,12816,51.5,59.0,392.7,-82.272,29.690,GAINESVILLE,FL
135,12818,54.3,61.8,394.6,-82.454,28.474,BROOKSVILLE,FL
136,12819,54.8,63.1,381.6,-81.810,28.821,LEESBURG,FL
137,12832,51.0,60.4,361.9,-85.033,29.733,APALACHICOLA,FL
138,12833,51.2,59.3,382.9,-83.105,29.550,CROSS CITY,FL
139,12834,55.9,63.7,390.3,-81.060,29.177,DAYTONA BEACH,FL
140,12835,58.6,67.7,371.8,-81.864,26.586,FORT MYERS,FL
141,12836,64.6,72.8,389.0,-81.754,24.553,KEY WEST,FL
142,12838,58.0,66.3,383.5,-80.646,28.103,MELBOURNE,FL
143,12839,60.7,71.3,350.2,-80.300,25.824,MIAMI,FL
144,12841,55.8,65.0,368.1,-81.333,28.545,ORLANDO,FL
145,12842,55.9,64.9,371.1,-82.540,27.961,TAMPA,FL
146,12843,57.8,66.2,382.2,-80.418,27.656,VERO BEACH,FL
147,12844,60.8,70.2,368.1,-80.099,26.685,WEST PALM BEACH,FL
148,12849,61.5,71.1,365.6,-80.154,26.072,FORT LAUDERDALE,FL
149,12850,64.2,72.4,389.0,-81.683,24.583,KEY WEST,FL
150,12854,54.9,64.0,369.3,-81.244,28.780,ORLANDO,FL
151,12871,57.9,64.4,413.1,-82.559,27.401,SARASOTA/BRADENTON,FL
152,12873,56.5,64.2,392.7,-82.688,27.911,ST PETERSBURG/CLEARWATER,FL
153,12876,56.1,65.3,368.1,-81.754,28.062,WINTER HAVEN,FL
154,12882,60.6,69.6,374.2,-80.280,25.907,MIAMI,FL
155,12884,55.1,60.1,438.3,-89.408,29.350,BOOTHVILLE,LA
156,12885,58.6,70.2,334.8,-80.171,26.197,FORT LAUDERDALE,FL
157,12894,57.8,66.9,371.1,-81.755,26.536,FORT MYERS,FL
158,12895,58.5,66.3,392.1,-80.377,27.498,FORT PIERCE,FL
159,12896,65.1,72.0,410.0,-81.052,24.726,MARATHON,FL
160,12897,59.3,68.0,377.9,-81.775,26.153,NAPLES,FL
161,12904,59.4,64.9,431.5,-97.654,26.228,HARLINGEN,TX
162,12912,52.3,59.4,400.1,-96.930,28.863,VICTORIA,TX
163,12916,50.5,58.9,377.3,-90.251,29.993,NEW ORLEANS,LA
164,12917,51.4,57.4,418.6,-94.021,29.951,BEAUMONT/PORT ARTHUR,TX
165,12918,52.0,58.2,415.5,-95.279,29.645,HOUSTON,TX
166,12919,59.9,65.9,422.9,-97.426,25.906,BROWNSVILLE,TX
167,12921,47.2,56.7,358.2,-98.464,29.533,SAN ANTONIO,TX
168,12923,55.0,59.2,453.7,-94.860,29.265,GALVESTON,TX
169,12924,54.8,61.7,405.0,-97.513,27.773,CORPUS CHRISTI,TX
170,12926,57.4,62.0,447.0,-97.283,27.700,CORPUS CHRISTI,TX
171,12928,57.5,62.2,445.1,-97.817,27.500,KINGSVILLE,TX
172,12935,53.8,59.4,427.2,-96.251,28.728,PALACIOS,TX
173,12957,59.9,65.5,429.7,-97.346,26.166,PORT ISABEL,TX
174,12959,57.6,64.1,413.1,-98.238,26.175,MC ALLEN,TX
175,12960,50.7,57.0,413.1,-95.364,29.993,HOUSTON,TX
176,12962,46.8,54.7,383.5,-99.174,29.359,HONDO,TX
177,12968,52.8,63.4,345.3,-91.526,29.562,SALT POINT,LA
178,12970,47.3,56.9,356.3,-98.471,29.337,SAN ANTONIO,TX
179,12971,47.1,56.0,367.4,-98.045,29.709,NEW BRAUNFELS,TX
180,12972,54.6,61.0,413.7,-97.046,28.084,ROCKPORT,TX
181,12975,52.2,58.9,406.9,-95.240,29.521,HOUSTON,TX
182,12976,53.3,57.3,456.8,-95.462,29.110,ANGLETON/LAKE JACKSON,TX
183,12977,51.0,58.2,397.6,-95.656,29.622,HOUSTON,TX
184,13721,32.3,41.7,349.0,-76.400,38.283,PATUXENT RIVER,MD
185,13722,35.0,44.7,346.5,-78.786,35.871,RALEIGH/DURHAM,NC
186,13723,33.1,43.8,329.2,-79.944,36.098,GREENSBORO,NC
187,13728,32.7,43.5,327.4,-79.336,36.573,DANVILLE,VA
188,13729,30.8,36.6,412.4,-79.853,38.885,ELKINS,WV
189,13733,31.4,40.4,355.1,-79.207,37.338,LYNCHBURG,VA
190,13734,26.6,38.6,304.0,-77.984,39.402,MARTINSBURG,WV
191,13735,32.3,39.3,390.9,-75.078,39.366,MILLVILLE,NJ
192,13736,27.6,38.1,328.0,-79.916,39.643,MORGANTOWN,WV
193,13737,36.9,45.6,363.7,-76.192,36.904,NORFOLK,VA
194,13739,30.0,41.1,320.6,-75.231,39.868,PHILADELPHIA,PA
195,13740,32.5,43.9,318.1,-77.323,37.511,RICHMOND,VA
196,13741,30.1,42.3,304.0,-79.974,37.317,ROANOKE,VA
197,13743,30.2,43.7,285.5,-77.034,38.865,WASHINGTON,DC
198,13744,40.1,49.6,353.3,-79.731,34.188,FLORENCE,SC
199,13748,41.8,49.8,379.2,-77.906,34.268,WILMINGTON,NC
200,13750,37.3,47.9,333.5,-76.283,36.933,NORFOLK,VA
201,13752,31.6,41.3,344.0,-76.483,38.991,ANNAPOLIS,MD
202,13754,41.0,49.1,376.7,-76.883,34.900,CHERRY POINT,NC
203,13762,37.3,48.5,324.9,-76.136,36.695,FENTRESS,VA
204,13764,33.0,42.4,349.6,-75.359,38.689,GEORGETOWN,DE
205,13769,38.1,46.7,366.2,-76.033,36.817,OCEANA,VA
206,13773,31.0,41.1,336.6,-77.300,38.500,QUANTICO,VA
207,13776,39.5,48.2,365.6,-79.059,34.610,LUMBERTON,NC
208,13781,30.9,40.1,351.4,-75.601,39.673,WILMINGTON,DE
209,13786,39.2,49.7,336.6,-76.175,36.261,ELIZABETH CITY,NC
210,13809,31.8,36.5,434.6,-87.606,38.764,LAWRENCEVILLE,IL
211,13810,32.3,40.1,376.1,-85.664,38.228,LOUISVILLE,KY
212,13833,47.2,54.2,398.9,-89.253,31.265,HATTIESBURG,MS
213,13837,42.3,53.0,336.0,-82.039,33.467,AUGUSTA,GA
214,13838,49.6,56.4,403.8,-88.068,30.626,MOBILE,AL
215,13839,45.6,54.3,369.9,-85.450,31.321,DOTHAN,AL
216,13841,29.2,35.5,402.0,-83.822,39.420,WILMINGTON,OH
217,13865,43.9,50.4,406.3,-88.751,32.333,MERIDIAN,MS
218,13866,32.2,40.1,374.8,-81.591,38.379,CHARLESTON,WV
219,13869,45.5,54.1,371.1,-84.194,31.536,ALBANY,GA
220,13870,46.2,54.5,376.7,-82.507,31.536,ALMA,GA
221,13871,40.2,48.3,376.1,-85.858,33.588,ANNISTON,AL
222,13873,38.8,48.5,349.0,-83.327,33.948,ATHENS,GA
223,13874,39.6,50.0,338.5,-84.427,33.640,ATLANTA,GA
224,13876,41.0,48.7,383.5,-86.754,33.564,BIRMINGHAM,AL
225,13877,35.2,41.2,410.6,-82.399,36.480,BRISTOL/JHNSN CTY/KNGSPRT,TN
226,13878,49.5,56.7,397.0,-81.391,31.252,BRUNSWICK,GA
227,13880,45.0,53.1,379.2,-80.041,32.899,CHARLESTON,SC
228,13881,34.2,45.7,317.5,-80.944,35.214,CHARLOTTE,NC
229,13882,38.5,45.9,387.2,-85.200,35.033,CHATTANOOGA,TN
230,13883,40.1,50.0,346.5,-81.118,33.942,COLUMBIA,SC
231,13884,46.8,54.5,387.2,-86.523,30.780,CRESTVIEW,FL
232,13886,35.4,48.3,298.4,-82.346,34.846,GREENVILLE,SC
233,13889,51.5,58.1,408.1,-81.693,30.494,JACKSONVILLE,FL
234,13891,36.8,43.2,404.4,-83.986,35.818,KNOXVILLE,TN
235,13893,37.7,46.2,368.1,-89.985,35.061,MEMPHIS,TN
236,13894,48.6,54.6,417.4,-88.246,30.688,MOBILE,AL
237,13895,42.7,52.4,351.4,-86.394,32.301,MONTGOMERY,AL
238,13896,38.7,46.6,378.5,-87.610,34.745,MUSCLE SHOALS,AL
239,13897,36.6,43.2,400.7,-86.689,36.119,NASHVILLE,TN
240,13899,48.9,56.4,391.5,-87.188,30.473,PENSACOLA,FL
241,13904,46.0,53.3,393.3,-97.681,30.179,AUSTIN/BERGSTROM,TX
242,13911,39.5,54.5,273.8,-97.441,32.769,FORT WORTH,TX
243,13920,28.3,35.8,379.2,-95.664,38.950,TOPEKA,KS
244,13927,44.0,51.0,397.6,-90.223,32.335,JACKSON,MS
245,13932,31.3,38.4,388.4,-97.037,37.168,WINFIELD/ARKANSAS CITY,KS
246,13935,45.7,51.9,412.4,-92.296,31.395,ALEXANDRIA,LA
247,13939,41.8,47.8,414.3,-90.986,33.483,GREENVILLE,MS
248,13942,44.2,49.9,421.1,-92.038,32.511,MONROE,LA
249,13957,44.5,50.6,413.7,-93.824,32.447,SHREVEPORT,LA
250,13958,46.1,55.0,366.8,-97.767,30.317,AUSTIN/CITY,TX
251,13959,43.0,51.0,379.8,-97.229,31.611,WACO,TX
252,13960,41.5,51.6,344.6,-96.851,32.847,DALLAS,TX
253,13961,41.2,51.2,345.9,-97.361,32.819,FORT WORTH,TX
254,13962,37.5,50.1,304.6,-99.682,32.411,ABILENE,TX
255,13963,37.1,45.2,374.2,-92.233,34.747,LITTLE ROCK,AR
256,13964,36.6,43.5,395.2,-94.365,35.334,FORT SMITH,AR
257,13966,37.2,45.7,367.4,-98.493,33.979,WICHITA FALLS,TX
258,13967,33.9,42.8,358.8,-97.600,35.389,OKLAHOMA CITY,OK
259,13968,34.9,42.5,381.6,-95.886,36.198,TULSA,OK
260,13969,31.5,40.4,357.0,-97.100,36.731,PONCA CITY,OK
261,13970,48.1,56.0,384.1,-91.147,30.537,BATON ROUGE,LA
262,13971,35.4,39.7,443.9,-93.155,36.261,HARRISON,AR
263,13972,43.2,51.4,376.1,-95.402,32.354,TYLER,TX
264,13973,41.8,52.2,340.3,-99.766,30.511,JUNCTION,TX
265,13975,29.8,38.9,352.0,-99.775,36.297,GAGE,OK
266,13976,48.8,56.5,388.4,-91.988,30.205,LAFAYETTE,LA
267,13977,42.1,47.0,435.2,-94.008,33.454,TEXARKANA,AR
268,13978,41.9,48.3,406.9,-90.084,33.496,GREENWOOD,MS
269,13981,31.8,37.8,408.7,-95.484,37.670,CHANUTE,KS
270,13984,26.3,33.3,387.2,-97.652,39.549,CONCORDIA,KS
271,13985,25.4,34.7,345.9,-99.970,37.773,DODGE CITY,KS
272,13986,27.1,35.7,358.8,-97.861,38.068,HUTCHINSON,KS
273,13987,33.5,39.8,404.4,-94.498,37.149,JOPLIN,MO
274,13988,28.6,36.9,365.0,-94.593,39.123,KANSAS CITY,MO
275,13989,28.7,34.8,405.7,-96.190,38.331,EMPORIA,KS
276,13993,27.6,33.5,408.7,-94.907,39.774,ST JOSEPH,MO
277,13994,30.2,38.9,359.4,-90.374,38.753,ST LOUIS,MO
278,13995,32.3,38.3,409.4,-93.390,37.240,SPRINGFIELD,MO
279,13996,28.6,36.3,375.5,-95.626,39.073,TOPEKA,KS
280,13997,30.8,36.6,412.4,-91.769,38.128,ROLLA/VICHY,MO
281,14605,21.2,29.0,369.3,-69.797,44.321,AUGUSTA,ME
282,14606,23.2,28.9,410.0,-68.824,44.808,BANGOR,ME
283,14607,17.8,22.3,432.2,-68.033,46.867,CARIBOU,ME
284,14609,19.7,24.7,422.9,-67.792,46.123,HOULTON,ME
285,14610,20.0,26.4,394.6,-68.686,45.648,MILLINOCKET,ME
286,14702,27.1,34.4,382.2,-71.289,42.470,BEDFORD,MA
287,14707,30.6,37.2,397.0,-72.049,41.328,GROTON NEW LONDON,CT
288,14710,25.5,33.8,363.1,-71.438,42.933,MANCHESTER,NH
289,14711,28.2,36.3,368.7,-76.763,40.194,HARRISBURG,PA
290,14712,27.8,36.7,354.5,-75.959,40.373,READING,PA
291,14719,31.0,38.4,382.9,-72.632,40.844,WESTHAMPTON BEACH,NY
292,14732,29.7,40.6,323.1,-73.881,40.779,NEW YORK,NY
293,14733,26.1,33.5,379.8,-78.736,42.941,BUFFALO,NY
294,14734,29.9,40.1,334.2,-74.169,40.716,NEWARK,NJ
295,14735,24.6,32.5,369.3,-73.803,42.748,ALBANY,NY
296,14736,27.3,33.9,395.2,-78.317,40.300,ALTOONA,PA
297,14737,27.4,37.0,342.2,-75.449,40.651,ALLENTOWN,PA
298,14739,29.4,38.2,357.0,-71.011,42.361,BOSTON,MA
299,14740,26.4,35.7,346.5,-72.683,41.938,WINDSOR LOCKS,CT
300,14742,22.0,30.0,366.2,-73.150,44.468,BURLINGTON,VT
301,14745,25.5,31.3,409.4,-71.501,43.195,CONCORD,NH
302,14747,27.5,34.7,384.1,-79.272,42.493,DUNKIRK,NY
303,14748,27.3,33.5,402.6,-76.892,42.159,ELMIRA/CORNING,NY
304,14750,23.8,30.3,395.2,-73.610,43.341,GLENS FALLS,NY
305,14751,28.3,37.3,352.7,-76.851,40.217,HARRISBURG,PA
306,14752,27.3,35.6,364.4,-72.651,41.736,HARTFORD,CT
307,14753,28.8,35.6,392.1,-71.115,42.212,MILTON,MA
308,14756,34.6,42.4,377.9,-70.061,41.253,NANTUCKET,MA
309,14757,26.6,35.7,350.2,-73.884,41.627,POUGHKEEPSIE,NY
310,14758,28.9,39.8,322.4,-72.887,41.264,NEW HAVEN,CT
311,14762,26.1,35.7,341.6,-79.922,40.355,PITTSBURGH,PA
312,14763,25.0,30.2,421.1,-73.289,42.427,PITTSFIELD,MA
313,14764,25.3,33.7,361.3,-70.304,43.642,PORTLAND,ME
314,14765,29.2,37.9,358.8,-71.433,41.722,PROVIDENCE,RI
315,14768,26.8,34.4,376.7,-77.677,43.117,ROCHESTER,NY
316,14770,27.7,35.3,376.7,-76.864,40.821,SELINSGROVE,PA
317,14771,26.7,32.1,418.0,-76.103,43.109,SYRACUSE,NY
318,14775,25.9,34.3,361.3,-72.716,42.158,WESTFIELD/SPRINGFIELD,MA
319,14777,26.8,35.6,355.1,-75.727,41.339,WILKES-BARRE/SCRANTON,PA
320,14778,26.4,35.7,346.5,-76.922,41.243,WILLIAMSPORT,PA
321,14787,31.2,38.5,384.7,-71.284,41.530,NEWPORT,RI
322,14792,29.0,39.0,337.2,-74.814,40.277,TRENTON,NJ
323,14794,30.8,38.5,377.3,-71.799,41.350,WESTERLY,RI
324,14813,27.9,35.7,373.6,-81.464,41.038,AKRON,OH
325,14815,25.9,33.2,381.0,-85.251,42.308,BATTLE CREEK,MI
326,14819,26.6,34.6,369.3,-87.752,41.786,CHICAGO,IL
327,14820,28.0,35.5,379.2,-81.853,41.405,CLEVELAND,OH
328,14821,28.7,36.0,382.9,-82.881,39.991,COLUMBUS,OH
329,14822,25.7,35.2,342.8,-83.010,42.409,DETROIT,MI
330,14825,28.2,34.4,403.2,-83.669,41.014,FINDLAY,OH
331,14826,25.4,32.8,379.2,-83.749,42.967,FLINT,MI
332,14827,28.0,32.6,434.6,-85.206,41.006,FORT WAYNE,IN
333,14829,27.4,32.6,422.3,-85.792,41.527,GOSHEN,IN
334,14833,26.1,31.9,410.0,-84.459,42.260,JACKSON,MI
335,14835,28.3,32.2,449.4,-86.937,40.412,LAFAYETTE,IN
336,14836,25.3,31.6,399.5,-84.579,42.780,LANSING,MI
337,14837,22.8,28.4,411.8,-89.345,43.141,MADISON,WI
338,14839,23.4,31.4,366.8,-87.897,42.947,MILWAUKEE,WI
339,14840,25.6,32.7,384.7,-86.237,43.171,MUSKEGON,MI
340,14841,21.5,25.9,436.5,-84.796,45.571,PELLSTON,MI
341,14842,25.8,33.5,374.2,-89.684,40.668,PEORIA,IL
342,14845,24.8,32.1,380.4,-84.080,43.533,SAGINAW,MI
343,14847,20.5,25.1,431.5,-84.367,46.467,SAULT STE MARIE,MI
344,14848,27.2,33.2,406.3,-86.333,41.707,SOUTH BEND,IN
345,14850,24.0,30.6,393.3,-85.583,44.741,TRAVERSE CITY,MI
346,14852,27.9,34.6,393.3,-80.674,41.254,YOUNGSTOWN/WARREN,OH
347,14853,26.0,35.8,337.9,-83.230,42.237,DETROIT,MI
348,14858,18.6,22.7,441.4,-88.506,47.169,HANCOCK,MI
349,14860,27.0,36.0,352.0,-80.183,42.080,ERIE,PA
350,14880,24.5,31.0,395.2,-87.868,42.422,CHICAGO/WAUKEGAN,IL
351,14891,28.5,33.7,422.9,-82.518,40.820,MANSFIELD,OH
352,14894,28.3,36.0,375.5,-80.647,40.176,WHEELING,WV
353,14895,27.5,35.0,378.5,-81.443,40.918,AKRON,OH
354,14897,19.3,22.0,473.5,-89.627,44.929,WAUSAU,WI
355,14898,22.1,25.9,449.4,-88.120,44.513,GREEN BAY,WI
356,14910,17.5,21.4,445.1,-95.393,45.883,ALEXANDRIA,MN
357,14913,15.9,21.5,408.1,-92.194,46.844,DULUTH,MN
358,14914,16.1,21.1,421.1,-96.811,46.925,FARGO,ND
359,14916,14.2,17.9,448.2,-97.176,47.949,GRAND FORKS,ND
360,14918,13.4,17.6,437.1,-93.403,48.566,INTERNATIONAL FALLS,MN
361,14919,14.4,17.6,459.9,-98.678,46.930,JAMESTOWN,ND
362,14920,21.8,28.0,399.5,-91.256,43.754,LA CROSSE,WI
363,14921,22.1,31.2,346.5,-90.181,43.212,LONE ROCK,WI
364,14922,19.3,24.3,422.3,-93.229,44.883,MINNEAPOLIS,MN
365,14923,24.5,31.3,389.6,-90.523,41.465,MOLINE,IL
366,14925,20.2,23.6,457.4,-92.492,43.904,ROCHESTER,MN
367,14926,18.0,24.1,399.5,-94.052,45.545,ST CLOUD,MN
368,14927,20.1,24.4,437.7,-93.048,44.930,ST PAUL,MN
369,14929,17.5,22.4,423.5,-98.421,45.450,ABERDEEN,SD
370,14931,26.8,32.6,410.0,-91.125,40.783,BURLINGTON,IA
371,14933,24.8,31.8,385.9,-93.666,41.538,DES MOINES,IA
372,14935,22.2,29.1,386.6,-98.313,40.958,GRAND ISLAND,NE
373,14936,18.2,22.9,428.5,-98.229,44.385,HURON,SD
374,14937,25.0,30.5,415.5,-91.543,41.633,IOWA CITY,IA
375,14938,28.5,33.6,424.8,-92.543,40.097,KIRKSVILLE,MO
376,14939,26.1,31.4,419.8,-96.764,40.831,LINCOLN,NE
377,14940,21.7,25.1,458.1,-93.331,43.158,MASON CITY,IA
378,14941,22.5,28.2,410.0,-97.437,41.981,NORFOLK,NE
379,14942,25.5,31.5,405.7,-95.899,41.310,OMAHA,NE
380,14943,23.0,28.3,418.0,-96.379,42.391,SIOUX CITY,IA
381,14944,20.3,24.4,442.0,-96.754,43.577,SIOUX FALLS,SD
382,14946,18.0,21.8,447.6,-97.154,44.931,WATERTOWN,SD
383,14950,24.8,31.0,401.3,-92.448,41.107,OTTUMWA,IA
384,14972,21.3,26.0,429.7,-95.202,43.164,SPENCER,IA
385,14990,24.5,28.7,442.0,-91.709,41.884,CEDAR RAPIDS,IA
386,14991,18.9,23.4,432.8,-91.485,44.865,EAU CLAIRE,WI
387,14992,20.0,24.3,437.7,-95.082,44.547,REDWOOD FALLS,MN
388,21504,63.3,72.5,373.0,-155.051,19.723,HILO,HI
389,21510,62.6,75.9,314.4,-156.049,19.736,KAILUA/KONA,HI
390,22010,46.4,56.3,351.4,-100.922,29.367,DEL RIO,TX
391,22501,61.2,72.5,340.9,-159.789,22.025,"KEKAHA, KAUAI",HI
392,22516,62.3,73.1,348.3,-156.433,20.902,KAHULUI,HI
393,22519,64.1,73.9,364.4,-157.768,21.451,KANEOHE,HI
394,22521,63.0,74.0,346.5,-157.943,21.328,HONOLULU,HI
395,22534,63.0,70.5,399.5,-157.099,21.157,KAUNAKAKAI,HI
396,22536,61.7,71.7,360.0,-159.341,21.979,LIHUE,HI
397,22551,62.2,71.7,367.4,-158.067,21.317,KAPOLEI,HI
398,23007,32.5,44.4,310.1,-100.288,34.434,CHILDRESS,TX
399,23009,26.7,42.6,250.9,-104.541,33.308,ROSWELL,NM
400,23023,35.6,49.1,290.4,-102.208,31.932,MIDLAND,TX
401,23034,39.3,52.2,301.5,-100.494,31.351,SAN ANGELO,TX
402,23040,31.8,48.4,246.6,-103.201,31.780,WINK,TX
403,23042,31.4,43.5,306.4,-101.821,33.668,LUBBOCK,TX
404,23044,29.5,48.8,214.0,-106.376,31.811,EL PASO,TX
405,23047,27.6,39.8,302.1,-101.706,35.219,AMARILLO,TX
406,23048,23.8,38.9,258.3,-103.603,35.182,TUCUMCARI,NM
407,23049,20.7,33.7,284.2,-106.089,35.617,SANTA FE,NM
408,23050,24.6,39.4,262.7,-106.616,35.042,ALBUQUERQUE,NM
409,23051,21.5,36.0,263.9,-103.154,36.446,CLAYTON,NM
410,23052,16.5,30.6,264.5,-104.502,36.741,RATON,NM
411,23054,16.9,33.2,236.2,-105.143,35.654,LAS VEGAS,NM
412,23061,11.1,22.5,299.6,-105.866,37.436,ALAMOSA,CO
413,23064,24.9,33.1,364.4,-100.725,37.927,GARDEN CITY,KS
414,23065,20.4,30.6,326.8,-101.693,39.368,GOODLAND,KS
415,23066,24.1,32.0,369.3,-108.538,39.134,GRAND JUNCTION,CO
416,23067,19.5,32.1,289.2,-103.527,38.051,LA JUNTA,CO
417,23070,17.7,33.1,248.5,-104.341,37.259,TRINIDAD,CO
418,23078,28.9,44.7,254.0,-107.721,32.262,DEMING,NM
419,23081,22.8,32.6,335.4,-108.789,35.511,GALLUP,NM
420,23090,24.0,34.3,328.0,-108.229,36.744,FARMINGTON,NM
421,23091,34.9,50.8,258.3,-102.912,30.915,FORT STOCKTON,TX
422,23110,45.8,50.9,432.8,-119.950,36.333,LEMOORE,CA
423,23129,48.1,59.0,337.2,-118.163,33.828,LONG BEACH,CA
424,23130,41.8,57.0,273.1,-118.489,34.210,VAN NUYS,CA
425,23136,45.2,57.6,313.2,-119.083,34.217,CAMARILLO,CA
426,23152,42.0,57.1,275.0,-118.359,34.201,BURBANK,CA
427,23153,23.9,36.1,299.0,-117.087,38.060,TONOPAH,NV
428,23154,21.3,30.3,347.7,-114.845,39.295,ELY,NV
429,23155,44.0,53.7,352.7,-119.056,35.434,BAKERSFIELD,CA
430,23157,25.5,40.2,265.1,-118.363,37.373,BISHOP,CA
431,23158,37.9,55.8,237.4,-114.717,33.619,BLYTHE,CA
432,23159,18.6,24.8,397.6,-112.146,37.706,BRYCE CANYON,UT
433,23160,35.4,54.1,226.3,-110.955,32.131,TUCSON,AZ
434,23161,34.5,49.6,268.2,-116.787,34.854,DAGGETT,CA
435,23169,31.4,51.0,212.1,-115.155,36.079,LAS VEGAS,NV
436,23174,46.7,58.2,327.4,-118.406,33.938,LOS ANGELES,CA
437,23176,24.8,33.7,352.0,-113.028,38.443,MILFORD,UT
438,23179,34.5,55.6,199.8,-114.623,34.766,NEEDLES,CA
439,23182,36.6,47.5,328.6,-118.084,34.629,PALMDALE,CA
440,23183,39.2,57.7,231.8,-111.990,33.443,PHOENIX,AZ
441,23184,26.4,41.4,262.0,-112.421,34.652,PRESCOTT,AZ
442,23185,28.7,40.0,316.3,-119.771,39.484,RENO,NV
443,23187,31.5,46.3,269.4,-118.724,34.744,SANDBERG,CA
444,23188,48.1,60.5,315.7,-117.169,32.735,SAN DIEGO,CA
445,23190,47.0,56.9,351.4,-119.844,34.426,SANTA BARBARA,CA
446,23191,44.7,55.9,330.5,-118.416,33.405,AVALON,CA
447,23194,27.5,38.0,328.0,-110.722,35.022,WINSLOW,AZ
448,23199,38.2,56.5,233.1,-115.667,32.817,EL CENTRO,CA
449,23213,47.3,52.8,426.0,-122.812,38.509,SANTA ROSA,CA
450,23225,27.5,39.5,304.6,-120.708,39.292,EMIGRANT GAP,CA
451,23230,47.5,55.0,390.9,-122.221,37.755,OAKLAND,CA
452,23232,46.4,53.5,397.0,-121.493,38.513,SACRAMENTO,CA
453,23233,47.1,56.5,359.4,-121.605,36.663,SALINAS,CA
454,23234,51.5,56.8,431.5,-122.398,37.620,SAN FRANCISCO,CA
455,23237,46.9,52.8,418.6,-121.237,37.894,STOCKTON,CA
456,23244,47.7,55.4,387.2,-122.048,37.415,MOUNTAIN VIEW,CA
457,23254,46.9,54.6,387.2,-122.052,37.992,CONCORD,CA
458,23257,45.7,52.4,403.8,-120.513,37.285,MERCED,CA
459,23258,46.2,52.8,405.7,-120.953,37.626,MODESTO,CA
460,23259,46.7,55.3,371.8,-121.845,36.588,MONTEREY,CA
461,23273,46.0,57.3,329.8,-120.465,34.916,SANTA MARIA,CA
462,23275,45.3,51.4,414.3,-123.201,39.126,UKIAH,CA
463,23285,45.7,55.0,360.0,-121.817,37.694,LIVERMORE,CA
464,23293,46.7,54.4,387.2,-121.928,37.362,SAN JOSE,CA
465,24011,15.5,19.8,435.9,-100.748,46.774,BISMARCK,ND
466,24012,17.3,24.6,375.5,-102.802,46.797,DICKINSON,ND
467,24013,13.4,18.4,419.2,-101.281,48.259,MINOT,ND
468,24015,17.9,28.3,321.8,-103.232,40.172,AKRON,CO
469,24017,17.8,26.6,349.0,-103.095,42.838,CHADRON,NE
470,24018,14.4,29.2,253.4,-104.807,41.158,CHEYENNE,WY
471,24021,13.4,23.2,328.0,-108.733,42.817,LANDER,WY
472,24022,13.8,22.4,349.6,-105.674,41.313,LARAMIE,WY
473,24023,18.5,27.0,354.5,-100.668,41.122,NORTH PLATTE,NE
474,24024,17.3,26.4,343.4,-101.601,44.051,PHILIP,SD
475,24025,17.8,23.7,403.2,-100.286,44.383,PIERRE,SD
476,24027,17.5,24.3,385.3,-109.065,41.594,ROCK SPRINGS,WY
477,24028,17.4,25.8,355.7,-103.595,41.874,SCOTTSBLUFF,NE
478,24029,16.9,25.0,360.7,-106.976,44.774,SHERIDAN,WY
479,24030,17.0,26.0,344.6,-102.985,41.101,SIDNEY,NE
480,24032,17.8,26.0,359.4,-100.551,42.859,VALENTINE,NE
481,24033,18.7,29.9,309.5,-108.543,45.808,BILLINGS,MT
482,24036,19.4,29.3,331.1,-109.467,47.049,LEWISTOWN,MT
483,24037,19.6,26.1,392.7,-105.886,46.428,MILES CITY,MT
484,24044,16.7,24.2,371.8,-102.800,42.057,ALLIANCE,NE
485,24046,17.3,23.8,390.9,-107.521,40.495,CRAIG,CO
486,24048,13.5,18.3,424.2,-108.082,44.517,GREYBULL,WY
487,24057,16.6,24.7,360.7,-107.200,41.806,RAWLINS,WY
488,24061,14.1,22.7,349.6,-108.459,43.064,RIVERTON,WY
489,24062,13.0,17.9,421.7,-107.951,43.966,WORLAND,WY
490,24089,17.4,28.5,310.1,-106.473,42.898,CASPER,WY
491,24090,18.7,28.3,335.4,-103.054,44.046,RAPID CITY,SD
492,24091,18.0,27.9,329.8,-101.620,40.510,IMPERIAL,NE
493,24110,28.8,34.7,409.4,-119.319,47.208,MOSES LAKE,WA
494,24121,24.4,32.5,365.6,-115.792,40.825,ELKO,NV
495,24126,26.7,35.9,348.3,-112.011,41.196,OGDEN,UT
496,24127,27.4,37.3,337.2,-111.968,40.787,SALT LAKE CITY,UT
497,24128,27.6,36.1,361.3,-117.807,40.902,WINNEMUCCA,NV
498,24130,27.6,31.8,443.3,-117.810,44.838,BAKER CITY,OR
499,24131,30.3,37.4,387.8,-116.220,43.565,BOISE,ID
500,24132,17.7,23.1,413.7,-111.152,45.794,BOZEMAN,MT
501,24133,26.2,34.5,363.7,-113.772,42.543,BURLEY,ID
502,24135,15.9,22.3,392.1,-112.513,45.953,BUTTE,MT
503,24137,17.9,23.7,405.7,-112.376,48.608,CUT BANK,MT
504,24141,28.2,34.8,395.8,-119.514,47.304,EPHRATA,WA
505,24143,19.9,28.4,355.7,-111.382,47.473,GREAT FALLS,MT
506,24144,18.6,26.1,373.0,-111.964,46.606,HELENA,MT
507,24145,23.8,28.6,429.1,-112.067,43.516,IDAHO FALLS,ID
508,24146,22.4,25.0,476.5,-114.264,48.304,KALISPELL,MT
509,24149,31.4,37.9,399.5,-117.014,46.375,LEWISTON,ID
510,24150,17.7,31.0,276.8,-110.448,45.699,LIVINGSTON,MT
511,24152,28.4,32.0,456.2,-118.425,45.511,MEACHAM,OR
512,24153,21.8,26.3,434.0,-114.093,46.921,MISSOULA,MT
513,24154,21.3,24.1,471.6,-115.645,47.457,MULLAN PASS,ID
514,24155,30.5,36.0,418.0,-118.834,45.698,PENDLETON,OR
515,24156,26.7,32.2,416.1,-112.571,42.920,POCATELLO,ID
516,24157,28.2,32.8,435.2,-117.528,47.621,SPOKANE,WA
517,24160,31.8,38.7,392.1,-118.287,46.095,WALLA WALLA,WA
518,24162,30.6,36.3,414.3,-117.013,44.021,ONTARIO,OR
519,24163,32.4,36.5,447.0,-119.118,46.265,PASCO,WA
520,24164,14.3,20.0,405.7,-110.108,42.584,BIG PINEY,WY
521,24215,35.3,41.1,414.9,-122.333,41.333,MOUNT SHASTA,CA
522,24216,44.7,51.4,403.2,-122.254,40.152,RED BLUFF,CA
523,24217,34.2,42.4,370.5,-122.537,48.794,BELLINGHAM,WA
524,24219,33.0,39.0,410.0,-121.167,45.619,THE DALLES,OR
525,24220,27.5,35.2,374.8,-120.530,47.034,ELLENSBURG,WA
526,24221,40.2,44.3,450.0,-123.214,44.133,EUGENE,OR
527,24222,36.3,43.3,393.3,-122.280,47.908,EVERETT,WA
528,24225,40.4,45.7,426.6,-122.871,42.389,MEDFORD,OR
529,24227,38.0,41.4,463.6,-122.903,46.973,OLYMPIA,WA
530,24229,38.1,44.1,412.4,-122.600,45.591,PORTLAND,OR
531,24230,29.0,33.9,429.1,-121.150,44.254,REDMOND,OR
532,24231,42.4,47.8,425.4,-123.355,43.239,ROSEBURG,OR
533,24232,39.1,45.0,414.9,-122.995,44.908,SALEM,OR
534,24233,36.4,45.3,360.0,-122.314,47.461,SEATTLE,WA
535,24234,37.4,46.8,352.7,-122.301,47.530,SEATTLE,WA
536,24235,34.9,38.5,458.7,-123.381,42.617,SEXTON SUMMIT,OR
537,24242,36.0,43.9,376.7,-122.400,45.549,PORTLAND,OR
538,24243,28.1,35.9,373.6,-120.534,46.564,YAKIMA,WA
539,24255,37.3,45.9,365.6,-122.650,48.350,WHIDBEY ISLAND,WA
540,24257,44.6,50.7,413.7,-122.313,40.515,REDDING,CA
541,24259,35.5,41.1,418.6,-122.468,41.781,MONTAGUE,CA
542,24283,45.2,52.2,398.3,-124.109,40.978,ARCATA/EUREKA,CA
543,24284,47.2,50.9,460.5,-124.250,43.417,NORTH BEND,OR
544,24286,46.7,53.1,409.4,-124.237,41.780,CRESCENT CITY,CA
545,25308,36.2,41.7,421.1,-131.570,55.043,ANNETTE,AK
546,25309,30.8,33.4,478.4,-134.575,58.355,JUNEAU,AK
547,25323,26.1,30.4,440.2,-135.520,59.245,HAINES,AK
548,25325,35.4,40.8,422.3,-131.712,55.357,KETCHIKAN,AK
549,25331,19.5,27.3,368.1,-149.092,61.596,PALMER,AK
550,25333,34.1,39.8,416.1,-135.360,57.048,SITKA,AK
551,25335,26.5,33.4,389.0,-135.313,59.460,SKAGWAY,AK
552,25501,35.2,38.2,471.0,-152.492,57.750,KODIAK,AK
553,25503,27.0,31.6,434.6,-156.654,58.684,KING SALMON,AK
554,25506,27.1,32.4,420.5,-154.915,59.753,ILIAMNA,AK
555,25507,31.5,37.0,418.6,-151.477,59.647,HOMER,AK
556,25516,34.7,35.8,513.5,-151.702,59.443,SELDOVIA,AK
557,25624,31.1,33.6,480.9,-162.722,55.207,COLD BAY,AK
558,25713,29.9,33.6,454.4,-170.220,57.163,ST PAUL ISLAND,AK
559,26409,21.9,25.5,453.7,-149.855,61.217,ANCHORAGE,AK
560,26410,30.8,34.7,450.7,-145.451,60.489,CORDOVA,AK
561,26411,2.8,8.0,409.4,-147.855,64.817,FAIRBANKS,AK
562,26412,-7.3,-3.8,443.9,-141.946,62.961,NORTHWAY,AK
563,26415,6.4,12.8,385.9,-145.718,63.995,DELTA JUNCTION/FT GREELY,AK
564,26422,1.4,8.0,378.5,-141.148,64.777,EAGLE,AK
565,26425,3.6,7.8,432.2,-145.458,62.160,GULKANA,AK
566,26435,2.6,8.4,396.4,-149.072,64.550,NENANA,AK
567,26438,30.1,40.0,339.1,-149.417,60.128,SEWARD,AK
568,26451,22.9,27.8,426.6,-149.993,61.175,ANCHORAGE,AK
569,26491,22.4,26.8,436.5,-149.961,61.179,ANCHORAGE,AK
570,26492,31.4,33.7,485.8,-148.839,60.785,PORTAGE GLACIER,AK
571,26502,6.9,10.6,445.7,-158.742,64.327,KALTAG,AK
572,26510,6.8,10.7,440.8,-155.603,62.953,MC GRATH,AK
573,26523,25.9,28.8,470.4,-151.239,60.580,KENAI,AK
574,26528,19.2,26.3,381.0,-150.092,62.322,TALKEETNA,AK
575,26529,1.8,7.2,404.4,-152.107,65.174,TANANA,AK
576,26533,0.5,3.8,452.5,-151.509,66.916,BETTLES,AK
577,26615,16.6,19.4,469.8,-161.826,60.786,BETHEL,AK
578,26616,2.7,7.8,411.8,-162.597,66.885,KOTZEBUE,AK
579,26617,9.6,15.6,396.4,-165.443,64.513,NOME,AK
580,26642,-0.5,4.9,403.2,-164.548,67.732,KIVALINA,AK
581,26643,3.5,8.2,421.1,-162.764,66.069,DEERING,AK
582,27406,-11.0,-7.5,442.6,-148.477,70.192,DEADHORSE,AK
583,27502,-9.9,-6.8,453.1,-156.763,71.287,BARROW,AK
584,27503,-11.7,-7.2,417.4,-159.995,70.639,WAINWRIGHT,AK
585,27515,-11.7,-8.9,459.9,-151.002,70.212,NUIQSUT,AK
586,53119,45.5,50.6,432.8,-119.629,36.319,HANFORD,CA
587,53121,47.0,56.0,365.6,-117.349,33.219,OCEANSIDE,CA
588,53123,30.5,49.2,221.4,-115.196,36.212,LAS VEGAS,NV
589,53146,27.8,47.9,203.5,-110.428,31.607,FORT HUACHUCA,AZ
590,53802,28.9,33.9,427.2,-88.280,39.478,MATTOON/CHARLESTON,IL
591,53819,40.5,49.1,368.1,-84.567,33.355,ATLANTA,GA
592,53820,45.8,54.1,376.1,-87.044,31.416,EVERGREEN,AL
593,53838,37.9,47.7,346.5,-83.830,34.272,GAINESVILLE,GA
594,53841,31.5,38.5,390.3,-84.903,38.185,FRANKFORT,KY
595,53842,28.6,33.6,427.2,-86.296,39.825,INDIANAPOLIS,IN
596,53844,30.1,37.6,380.4,-82.657,39.756,LANCASTER,OH
597,53847,47.9,57.2,361.3,-87.023,30.704,MILTON,FL
598,53848,48.6,56.5,384.7,-86.960,30.507,MILTON,FL
599,53850,37.5,49.8,308.9,-82.886,34.672,CLEMSON,SC
600,53852,38.9,45.5,402.0,-86.945,34.653,DECATUR,AL
601,53853,50.6,58.2,390.9,-86.472,30.400,DESTIN,FL
602,53854,41.3,51.1,349.0,-80.858,33.462,ORANGEBURG,SC
603,53855,30.6,35.9,422.3,-84.525,39.364,HAMILTON,OH
604,53858,48.6,55.0,410.6,-88.532,30.464,PASCAGOULA,MS
605,53859,30.0,35.8,411.8,-84.226,39.594,DAYTON,OH
606,53860,51.4,59.7,379.8,-81.515,30.336,JACKSONVILLE,FL
607,53861,44.7,53.4,369.3,-85.751,31.356,FORT RUCKER/OZARK,AL
608,53863,38.7,47.7,360.0,-84.302,33.875,ATLANTA,GA
609,53864,42.6,50.4,382.9,-86.782,33.178,ALABASTER,AL
610,53865,49.2,56.5,395.2,-89.821,30.345,SLIDELL,LA
611,53866,29.8,35.8,408.1,-85.803,39.578,SHELBYVILLE,IN
612,53867,40.0,50.5,337.2,-80.996,33.971,COLUMBIA,SC
613,53868,36.7,43.8,391.5,-84.233,36.023,OAK RIDGE,TN
614,53869,38.0,43.6,419.8,-89.831,35.940,BLYTHEVILLE,AR
615,53870,34.9,46.1,323.1,-81.156,35.197,GASTONIA,NC
616,53871,36.6,45.6,358.8,-81.058,34.987,ROCK HILL,SC
617,53872,36.1,46.3,339.1,-80.621,35.017,MONROE,NC
618,53873,38.2,46.0,379.8,-84.849,34.123,CARTERSVILLE,GA
619,53874,38.6,47.1,368.7,-82.159,34.249,GREENWOOD,SC
620,53879,28.6,35.7,386.6,-94.371,38.960,LEE'S SUMMIT,MO
621,53901,32.2,38.1,411.2,-91.903,36.878,WEST PLAINS,MO
622,53902,48.3,54.4,415.5,-95.414,30.352,CONROE,TX
623,53903,47.7,54.3,406.3,-95.587,30.747,HUNTSVILLE,TX
624,53904,31.2,37.0,412.4,-90.428,38.929,ST CHARLES,MO
625,53905,42.3,49.5,392.7,-93.744,32.540,SHREVEPORT,LA
626,53907,39.5,51.0,321.8,-97.094,32.664,ARLINGTON,TX
627,53908,34.7,41.9,388.4,-95.984,36.039,TULSA,OK
628,53909,40.3,48.7,371.1,-97.318,32.973,FORT WORTH,TX
629,53910,49.7,56.5,403.8,-95.553,30.062,HOUSTON,TX
630,53911,42.8,51.8,363.1,-96.267,32.710,TERRELL,TX
631,53912,43.3,52.1,366.8,-96.398,32.027,CORSICANA,TX
632,53913,33.6,41.6,373.6,-97.416,35.850,GUTHRIE,OK
633,53914,41.1,48.9,381.6,-96.590,33.180,MC KINNEY,TX
634,53915,50.3,57.6,395.8,-91.884,30.038,NEW IBERIA,LA
635,53916,28.0,34.9,390.3,-93.579,39.823,CHILLICOTHE,MO
636,53917,51.5,60.0,376.7,-90.028,30.043,NEW ORLEANS,LA
637,53918,34.6,39.4,434.0,-92.470,36.369,MOUNTAIN HOME,AR
638,53919,40.8,47.2,406.3,-91.751,33.638,MONTICELLO,AR
639,53920,37.3,43.4,410.0,-93.095,35.258,RUSSELLVILLE,AR
640,53921,38.7,44.1,424.2,-93.578,34.547,MOUNT IDA,AR
641,53922,36.1,40.9,434.6,-94.307,36.282,FAYETTEVILLE/SPRINGDALE,AR
642,53925,40.9,45.5,440.2,-94.399,34.047,DE QUEEN,AR
643,53959,39.7,44.3,440.2,-90.234,35.135,WEST MEMPHIS,AR
644,53988,47.1,55.3,378.5,-92.967,31.150,FORT POLK,LA
645,54704,29.0,36.7,376.1,-71.174,42.191,NORWOOD,MA
646,54728,21.5,27.4,405.7,-71.545,44.368,WHITEFIELD,NH
647,54733,27.7,36.2,361.3,-70.918,42.584,BEVERLY,MA
648,54734,25.7,35.2,342.8,-73.483,41.371,DANBURY,CT
649,54737,28.6,36.6,370.5,-76.294,40.120,LANCASTER,PA
650,54740,23.2,29.5,398.3,-72.518,43.344,SPRINGFIELD,VT
651,54742,21.9,27.7,407.5,-72.019,44.419,SAINT JOHNSBURY,VT
652,54743,27.2,37.9,324.3,-74.283,40.876,CALDWELL,NJ
653,54756,25.5,32.2,392.1,-72.291,42.570,ORANGE,MA
654,54757,24.5,30.6,403.2,-77.992,42.109,WELLSVILLE,NY
655,54767,28.0,36.5,361.3,-72.184,41.742,WILLIMANTIC,CT
656,54768,25.0,31.8,390.3,-73.171,42.696,NORTH ADAMS,MA
657,54769,32.2,38.5,403.8,-70.729,41.910,PLYMOUTH,MA
658,54770,24.4,30.1,411.2,-72.004,42.805,JAFFREY,NH
659,54771,21.0,27.0,403.2,-72.614,44.534,MORRISVILLE,VT
660,54772,21.8,29.0,380.4,-70.948,43.991,FRYEBURG,ME
661,54773,25.6,32.6,386.6,-76.385,43.350,FULTON,NY
662,54777,30.7,38.2,380.4,-71.021,41.876,TAUNTON,MA
663,54778,26.3,33.2,389.0,-77.056,42.643,PENN YAN,NY
664,54779,27.3,35.0,374.8,-74.737,41.009,ANDOVER,NJ
665,54780,33.3,41.9,363.1,-71.923,41.073,MONTAUK,NY
666,54781,25.1,31.8,392.1,-73.247,42.891,BENNINGTON,VT
667,54782,28.9,37.0,368.7,-75.557,40.238,POTTSTOWN,PA
668,54785,28.4,38.5,334.8,-74.669,40.624,SOMERVILLE,NJ
669,54786,29.4,36.8,381.6,-75.123,40.330,DOYLESTOWN,PA
670,54787,30.6,40.2,344.6,-73.417,40.734,FARMINGDALE,NY
671,54788,27.2,35.5,364.4,-72.828,41.510,MERIDEN,CT
672,54789,24.9,31.3,397.6,-75.379,41.139,MOUNT POCONO,PA
673,54790,31.3,39.4,370.5,-72.869,40.822,SHIRLEY,NY
674,54791,24.5,32.3,371.1,-70.922,43.278,ROCHESTER,NH
675,54792,26.6,32.6,406.3,-78.412,41.047,CLEARFIELD,PA
676,54793,27.0,35.1,367.4,-74.623,41.200,SUSSEX,NJ
677,54813,21.2,27.0,406.9,-86.651,46.429,MUNISING,MI
679,63870,46.7,55.1,375.5,-86.312,31.043,FLORALA,AL
680,63872,44.4,52.8,373.6,-85.129,31.951,EUFAULA,AL
681,63873,45.3,53.5,377.9,-85.654,31.346,FORT RUCKER/OZARK,AL
682,63874,44.0,52.8,366.8,-86.611,31.846,GREENVILLE,AL
683,64775,26.2,31.2,426.0,-75.412,43.234,ROME,NY
684,64776,22.1,28.5,395.8,-73.468,44.651,PLATTSBURG,NY
685,73805,48.6,56.9,377.9,-85.788,30.349,PANAMA CITY,FL
686,92805,60.4,71.0,350.2,-80.108,26.250,POMPANO BEACH,FL
687,92806,58.0,65.6,395.2,-82.628,27.765,ST PETERSBURG,FL
688,92809,60.5,70.4,360.7,-80.241,25.999,HOLLYWOOD,FL
689,93005,21.0,29.5,356.3,-107.760,37.143,DURANGO,CO
690,93009,6.8,17.9,300.9,-106.316,39.228,LEADVILLE,CO
691,93010,14.1,25.8,297.8,-103.716,39.189,LIMON,CO
692,93013,22.1,32.2,329.8,-107.898,38.505,MONTROSE,CO
693,93026,29.6,46.8,237.4,-109.604,31.469,DOUGLAS BISBEE,AZ
694,93027,26.1,37.8,308.3,-109.379,34.518,ST JOHNS,AZ
695,93033,31.0,45.7,270.1,-104.263,32.338,CARLSBAD,NM
696,93037,14.7,31.5,227.5,-104.711,38.812,COLORADO SPRINGS,CO
697,93042,23.9,36.9,287.3,-102.547,36.023,DALHART,TX
698,93045,24.2,44.3,199.8,-107.268,33.237,TRUTH OR CONSEQUENCES,NM
699,93058,17.2,30.3,279.3,-104.498,38.290,PUEBLO,CO
700,93067,15.9,31.0,250.3,-104.849,39.570,DENVER,CO
701,93069,23.2,32.1,350.8,-108.628,37.303,CORTEZ,CO
702,93073,15.3,23.9,350.2,-106.868,39.223,ASPEN,CO
703,93075,25.3,33.5,365.0,-109.754,38.755,MOAB,UT
704,93084,32.0,49.2,239.8,-109.635,32.855,SAFFORD,AZ
705,93102,26.6,38.1,311.4,-118.700,39.417,FALLON,NV
706,93104,34.2,46.4,307.7,-117.683,35.683,CHINA LAKE,CA
707,93110,45.4,58.9,298.4,-119.206,34.201,OXNARD,CA
708,93111,47.7,60.6,308.3,-119.117,34.117,POINT MUGU,CA
709,93112,49.9,59.1,364.4,-117.200,32.700,SAN DIEGO,CA
710,93129,23.5,33.1,339.1,-113.097,37.702,CEDAR CITY,UT
711,93134,45.2,59.1,292.9,-118.296,34.028,LOS ANGELES,CA
712,93138,36.6,58.7,192.4,-116.505,33.828,PALM SPRINGS,CA
713,93141,20.4,31.4,313.8,-110.750,39.545,PRICE,UT
714,93167,31.1,44.0,294.7,-113.937,35.259,KINGMAN,AZ
715,93184,46.4,61.9,273.8,-117.866,33.680,SANTA ANA,CA
716,93193,45.1,51.9,401.3,-119.719,36.780,FRESNO,CA
717,93197,44.8,59.2,286.1,-118.451,34.016,SANTA MONICA,CA
718,93205,45.7,52.4,403.8,-121.570,39.098,MARYSVILLE,CA
719,93206,46.9,55.6,370.5,-120.641,35.237,SAN LUIS OBISPO,CA
720,93209,44.9,52.2,392.7,-120.627,35.673,PASO ROBLES,CA
721,93210,45.0,52.0,397.6,-121.618,39.490,OROVILLE,CA
722,93225,46.1,52.1,416.1,-121.590,38.696,SACRAMENTO,CA
723,93227,47.2,51.8,442.6,-122.280,38.213,NAPA,CA
724,93228,47.7,56.3,372.4,-122.121,37.659,HAYWARD,CA
725,93230,23.1,35.6,293.5,-119.995,38.894,SOUTH LAKE TAHOE,CA
726,93241,45.5,53.0,389.6,-121.961,38.377,VACAVILLE,CA
727,93242,44.5,51.9,390.9,-120.111,36.988,MADERA,CA
728,93706,27.6,38.2,326.1,-77.730,39.708,HAGERSTOWN,MD
729,93718,42.5,50.4,381.0,-78.721,33.816,NORTH MYRTLE BEACH,SC
730,93719,40.3,49.6,356.3,-77.047,35.068,NEW BERN,NC
731,93720,34.5,44.0,349.0,-75.510,38.341,SALISBURY,MD
732,93721,30.1,39.9,340.9,-76.684,39.172,BALTIMORE,MD
733,93727,40.9,48.7,381.6,-77.433,34.700,NEW RIVER,NC
734,93729,45.0,49.8,438.3,-75.623,35.232,CAPE HATTERAS,NC
735,93730,32.8,39.9,389.0,-74.457,39.458,ATLANTIC CITY,NJ
736,93736,29.9,41.4,314.4,-78.453,38.139,CHARLOTTESVILLE,VA
737,93738,29.5,38.3,357.0,-77.448,38.935,WASHINGTON,DC
738,93739,35.7,42.9,389.0,-75.496,37.941,WALLOPS ISLAND,VA
739,93740,38.8,47.4,366.8,-78.880,34.991,FAYETTEVILLE,NC
740,93741,35.9,46.6,331.1,-76.493,37.132,NEWPORT NEWS,VA
741,93759,37.1,45.1,376.1,-77.893,35.855,ROCKY MOUNT,NC
742,93762,27.2,37.5,330.5,-77.43333,39.73333,SITE R,PA
743,93765,43.4,49.5,413.1,-76.661,34.734,BEAUFORT,NC
744,93773,34.9,44.0,355.7,-77.007,36.984,WAKEFIELD,VA
745,93775,32.5,41.6,354.5,-77.434,37.708,RICHMOND/ASHLAND,VA
746,93778,28.6,36.8,366.8,-76.874,39.918,YORK,PA
747,93780,30.7,39.6,356.3,-74.841,39.941,MOUNT HOLLY,NJ
748,93782,38.6,46.7,375.5,-79.366,34.792,MAXTON,NC
749,93783,32.9,43.7,327.4,-79.477,36.047,BURLINGTON,NC
750,93784,30.8,41.2,331.7,-76.610,39.281,BALTIMORE,MD
751,93785,35.3,44.9,348.3,-79.064,35.933,CHAPEL HILL,NC
752,93786,35.1,42.2,390.3,-75.124,38.308,OCEAN CITY,MD
753,93801,39.5,46.2,400.1,-85.161,34.348,ROME,GA
754,93805,46.6,57.1,342.2,-84.353,30.393,TALLAHASSEE,FL
755,93806,42.5,49.8,391.5,-87.616,33.212,TUSCALOOSA,AL
756,93807,31.5,43.5,308.3,-80.222,36.134,WINSTON SALEM,NC
757,93808,33.8,41.6,377.3,-86.436,36.981,BOWLING GREEN,KY
758,93810,32.0,38.6,397.6,-89.250,37.780,CARBONDALE/MURPHYBORO,IL
759,93812,30.4,36.3,410.0,-84.419,39.103,CINCINNATI,OH
760,93814,29.1,37.5,363.7,-84.672,39.043,COVINGTON,KY
761,93815,29.7,35.3,415.5,-84.219,39.906,DAYTON,OH
762,93817,32.3,39.5,387.2,-87.537,38.043,EVANSVILLE,IN
763,93819,28.4,33.3,429.1,-86.272,39.710,INDIANAPOLIS,IN
764,93820,32.5,38.6,407.5,-84.606,38.041,LEXINGTON,KY
765,93821,32.6,41.0,366.2,-85.730,38.177,LOUISVILLE,KY
766,93822,28.7,34.5,411.2,-89.684,39.845,SPRINGFIELD,IL
767,93824,28.5,35.4,390.3,-81.892,39.944,ZANESVILLE,OH
768,93831,46.3,53.9,388.4,-80.717,32.483,BEAUFORT,SC
769,93837,51.4,63.1,328.0,-81.683,30.233,JACKSONVILLE,FL
770,93841,47.3,55.1,385.3,-87.022,30.724,MILTON,FL
771,93842,42.2,52.1,348.3,-84.942,32.516,COLUMBUS,GA
772,93846,38.1,47.1,360.0,-82.709,34.495,ANDERSON,SC
773,93862,39.7,46.7,395.2,-88.771,34.261,TUPELO,MS
774,93874,49.4,56.2,403.8,-89.070,30.407,GULFPORT,MS
775,93909,29.1,35.0,409.4,-94.890,38.831,OLATHE,KS
776,93915,46.4,52.4,416.8,-92.559,31.335,ALEXANDRIA,LA
777,93919,46.7,54.1,392.1,-90.472,31.178,MCCOMB,MS
778,93950,37.6,44.8,390.3,-95.783,34.899,MC ALESTER,OK
779,93953,35.4,42.8,385.3,-95.361,35.657,MUSKOGEE,OK
780,93967,32.8,39.7,392.7,-95.566,37.091,COFFEYVILLE,KS
781,93985,39.9,49.3,354.5,-98.061,32.782,MINERAL WELLS,TX
782,93986,34.5,42.1,381.0,-99.051,35.008,HOBART,OK
783,93987,46.2,54.7,373.0,-94.750,31.234,LUFKIN,TX
784,93988,38.7,45.4,399.5,-91.935,34.175,PINE BLUFF,AR
785,93989,27.3,33.7,398.9,-91.194,39.943,QUINCY,IL
786,93990,23.0,32.5,340.3,-99.830,39.376,HILL CITY,KS
787,93992,41.7,47.3,421.7,-92.813,33.221,EL DORADO,AR
788,93993,36.3,40.5,446.3,-94.170,36.005,FAYETTEVILLE,AR
789,93997,26.5,34.1,376.1,-98.828,38.872,RUSSELL,KS
790,94008,16.6,22.3,406.9,-106.621,48.214,GLASGOW,MT
791,94012,18.6,24.3,407.5,-109.780,48.559,HAVRE,MT
792,94014,14.9,19.6,426.6,-103.642,48.195,WILLISTON,ND
793,94017,15.5,21.2,406.3,-105.574,48.094,WOLF POINT,MT
794,94023,18.3,27.8,337.2,-105.542,44.339,GILLETTE,WY
795,94030,20.6,28.6,365.0,-109.509,40.441,VERNAL,UT
796,94032,15.5,27.9,288.5,-103.628,43.731,CUSTER,SD
797,94037,18.8,26.6,367.4,-103.546,45.604,BUFFALO,SD
798,94038,17.3,23.0,406.9,-102.655,46.014,HETTINGER,ND
799,94039,17.5,26.5,345.3,-102.518,43.021,PINE RIDGE,SD
800,94040,20.7,30.1,340.3,-100.591,40.206,MC COOK,NE
801,94041,15.5,19.2,448.8,-101.439,47.663,GARRISON,ND
802,94050,18.4,26.1,368.7,-107.885,40.049,MEEKER,CO
803,94051,19.1,25.5,393.9,-106.948,47.326,JORDAN,MT
804,94052,17.5,23.4,403.2,-100.408,45.546,MOBRIDGE,SD
805,94056,17.2,25.5,357.0,-102.019,45.032,FAITH,SD
806,94057,16.8,27.1,322.4,-105.386,42.797,DOUGLAS,WY
807,94107,27.0,35.2,365.6,-117.864,42.591,ROME,OR
808,94119,27.7,31.6,449.4,-117.421,47.969,DEER PARK,WA
809,94128,25.2,32.5,381.0,-111.853,41.787,LOGAN,UT
810,94129,29.7,34.7,427.9,-117.109,46.744,PULLMAN/MOSCOW,WA
811,94173,13.9,18.0,439.6,-110.421,44.544,YELLOWSTONE,WY
812,94176,28.6,34.7,405.7,-117.321,47.683,SPOKANE,WA
813,94178,26.5,36.3,338.5,-114.487,42.482,TWIN FALLS,ID
814,94182,24.2,27.1,470.4,-116.102,44.889,MCCALL,ID
815,94185,26.9,32.2,420.5,-118.954,43.592,BURNS,OR
816,94194,22.9,27.0,443.3,-111.881,43.834,REXBURG,ID
817,94197,26.1,30.8,432.2,-119.517,48.464,OMAK,WA
818,94224,40.8,47.1,408.1,-123.878,46.158,ASTORIA,OR
819,94225,41.1,45.6,442.6,-123.937,46.971,HOQUIAM,WA
820,94227,38.1,41.6,461.8,-123.148,47.238,SHELTON,WA
821,94239,27.9,34.8,389.6,-120.207,47.399,WENATCHEE,WA
822,94240,41.1,44.5,464.8,-124.561,47.934,QUILLAYUTE,WA
823,94248,38.1,45.3,390.3,-122.214,47.493,RENTON,WA
824,94261,39.1,43.4,445.7,-122.949,45.541,PORTLAND,OR
825,94266,37.1,42.0,432.8,-123.498,48.120,PORT ANGELES,WA
826,94273,39.0,44.5,422.3,-123.134,45.195,MC MINNVILLE,OR
827,94274,38.4,44.3,414.3,-122.576,47.268,TACOMA,WA
828,94276,37.1,43.0,413.7,-123.023,48.522,FRIDAY HARBOR,WA
829,94281,38.7,44.1,424.2,-122.769,45.249,AURORA,OR
830,94298,36.5,43.3,397.0,-122.657,45.621,VANCOUVER,WA
831,94299,30.6,37.3,395.2,-120.567,41.483,ALTURAS,CA
832,94623,25.0,31.9,388.4,-69.712,43.964,WISCASSET,ME
833,94624,34.0,40.2,406.3,-69.993,41.688,CHATHAM,MA
834,94626,19.5,24.1,430.9,-69.595,45.462,GREENVILLE,ME
835,94700,19.2,25.6,393.9,-71.179,44.576,BERLIN,NH
836,94702,30.2,39.0,357.6,-73.146,41.175,BRIDGEPORT,CT
837,94704,27.5,34.4,389.6,-77.713,42.571,DANSVILLE,NY
838,94705,21.5,26.1,432.2,-72.579,44.203,BARRE/MONTPELIER,VT
839,94720,33.4,40.3,393.3,-70.280,41.669,HYANNIS,MA
840,94723,27.0,34.7,374.8,-71.124,42.717,LAWRENCE,MA
841,94724,32.3,40.0,377.9,-70.615,41.393,VINEYARD HAVEN,MA
842,94725,20.5,26.7,398.9,-74.846,44.936,MASSENA,NY
843,94726,32.3,38.8,400.1,-70.958,41.676,NEW BEDFORD,MA
844,94728,28.4,40.5,304.0,-73.967,40.783,NEW YORK,NY
845,94732,28.8,41.0,302.7,-75.011,40.082,PHILADELPHIA,PA
846,94741,28.6,39.3,325.5,-74.061,40.850,TETERBORO,NJ
847,94746,25.8,32.0,402.0,-71.876,42.267,WORCESTER,MA
848,94765,23.8,29.6,408.7,-72.305,43.626,LEBANON,NH
849,94789,29.8,41.4,312.6,-73.796,40.655,NEW YORK,NY
850,94790,22.9,32.8,334.2,-76.022,43.992,WATERTOWN,NY
851,94814,22.2,27.0,427.9,-84.691,44.368,HOUGHTON LAKE,MI
852,94815,26.1,32.9,390.9,-85.552,42.235,KALAMAZOO,MI
853,94817,24.7,31.1,397.6,-83.418,42.665,PONTIAC,MI
854,94818,24.4,31.6,382.2,-87.814,42.761,RACINE,WI
855,94822,24.0,30.5,395.2,-89.093,42.196,ROCKFORD,IL
856,94823,28.7,35.5,392.1,-80.231,40.501,PITTSBURGH,PA
857,94830,27.1,33.0,408.7,-83.801,41.589,TOLEDO,OH
858,94846,25.0,32.0,386.6,-87.914,41.986,CHICAGO,IL
859,94847,26.5,33.6,385.3,-83.349,42.215,DETROIT,MI
860,94849,22.9,28.0,422.3,-83.581,45.072,ALPENA,MI
861,94855,22.0,27.0,424.2,-88.557,43.984,OSHKOSH,WI
862,94860,25.7,31.9,402.0,-85.523,42.882,GRAND RAPIDS,MI
863,94870,28.6,33.4,430.9,-88.278,40.040,CHAMPAIGN/URBANA,IL
864,94871,27.2,32.7,416.1,-86.422,42.129,BENTON HARBOR,MI
865,94889,25.7,32.4,392.1,-83.744,42.223,ANN ARBOR,MI
866,94892,25.1,31.1,405.7,-88.246,41.914,CHICAGO/WEST CHICAGO,IL
867,94893,17.5,21.0,454.4,-88.114,45.818,IRON MOUNTAIN/KINGSFORD,MI
868,94895,28.8,33.9,425.4,-85.394,40.234,MUNCIE,IN
869,94898,25.1,32.1,386.6,-82.793,44.022,HARBOR BEACH,MI
870,94899,21.6,27.2,411.2,-87.875,47.467,COPPER HARBOR,MI
871,94908,22.9,28.0,422.3,-90.704,42.398,DUBUQUE,IA
872,94910,23.5,28.0,435.2,-92.401,42.554,WATERLOO,IA
873,94929,18.7,23.0,437.1,-90.919,46.549,ASHLAND,WI
874,94931,14.4,20.0,407.5,-92.839,47.387,HIBBING,MN
875,94938,16.8,20.7,445.1,-94.131,46.405,BRAINERD,MN
876,94946,20.0,28.5,355.7,-99.639,41.437,BROKEN BOW,NE
877,94949,22.1,30.2,364.4,-98.427,40.604,HASTINGS,NE
878,94950,20.1,25.2,421.1,-98.038,43.777,MITCHELL,SD
879,94957,26.1,33.0,389.0,-95.592,40.079,FALLS CITY,NE
880,94958,20.1,26.7,390.9,-98.952,41.624,ORD,NE
881,94960,19.6,24.8,418.6,-93.351,45.063,MINNEAPOLIS,MN
882,94961,13.2,17.7,430.3,-94.610,48.728,BAUDETTE,MN
883,94963,19.7,24.2,433.4,-93.470,44.832,MINNEAPOLIS,MN
884,94967,15.6,20.2,429.1,-95.068,46.901,PARK RAPIDS,MN
885,94971,21.2,24.5,459.9,-94.746,43.408,ESTHERVILLE,IA
886,94973,17.1,21.2,440.8,-91.444,46.026,HAYWARD,WI
887,94978,24.2,30.8,393.3,-96.178,41.764,TEKAMAH,NE
888,94982,23.8,30.1,398.9,-90.591,41.614,DAVENPORT,IA
889,94985,19.5,23.5,443.9,-90.189,44.637,MARSHFIELD,WI
890,94988,24.1,28.3,441.4,-92.918,42.113,MARSHALLTOWN,IA
891,94989,23.5,28.8,418.6,-93.622,41.992,AMES,IA
892,94990,19.0,29.0,329.2,-99.842,43.390,WINNER,SD
893,94991,26.3,31.6,419.8,-93.902,40.633,LAMONI,IA
894,94992,17.7,24.4,387.2,-90.344,47.747,GRAND MARAIS,MN
895,94993,18.3,21.9,452.5,-96.991,45.669,SISSETON,SD
896,94994,22.2,28.8,392.1,-90.678,43.156,BOSCOBEL,WI
