,wban,dewpt,tavg,wp,long,lat,stname,ststate
0,03013,16.9,29.3,289.8,-102.688,38.070,LAMAR,CO
1,03017,14.4,28.2,267.0,-104.658,39.833,DENVER,CO
2,03024,17.1,38.8,176.4,-101.394,35.700,BORGER,TX
3,03026,15.0,25.5,317.5,-102.284,39.245,BURLINGTON,CO
4,03027,14.6,38.0,157.3,-105.663,35.003,CLINES CORNERS,NM
5,03028,16.2,33.5,223.2,-102.614,37.283,SPRINGFIELD,CO
6,03029,15.3,37.4,170.2,-109.061,35.658,WINDOW ROCK,AZ
7,03030,16.9,34.4,221.4,-101.505,36.682,GUYMON,OK
8,03032,31.2,55.8,164.0,-102.213,30.048,DRYDEN,TX
9,03068,13.1,27.8,253.4,-104.300,38.767,BULLSEYE,CO
10,03102,41.3,61.5,215.8,-117.600,34.056,ONTARIO,CA
11,03103,18.6,36.9,214.0,-111.672,35.140,FLAGSTAFF,AZ
12,03104,34.6,60.9,152.9,-116.160,33.628,PALM SPRINGS,CA
13,03124,18.5,56.2,62.9,-110.344,31.588,FORT HUACHUCA/SIERRA VISTA,AZ
14,03131,46.9,59.0,318.7,-117.139,32.816,SAN DIEGO,CA
15,03144,36.7,63.3,152.9,-115.579,32.834,IMPERIAL,CA
16,03145,31.8,66.3,93.1,-114.617,32.650,YUMA,AZ
17,03159,27.9,52.9,157.3,-118.219,34.741,LANCASTER,CA
18,03160,18.6,50.1,98.7,-116.028,36.621,MERCURY,NV
19,03162,19.3,48.3,116.6,-111.448,36.926,PAGE,AZ
20,03164,32.9,51.2,228.1,-116.467,32.617,CAMPO,CA
21,03166,47.4,62.9,274.4,-117.979,33.872,FULLERTON,CA
22,03167,46.9,60.2,302.7,-118.334,33.923,HAWTHORNE,CA
23,03170,21.4,34.7,280.5,-116.006,39.601,EUREKA,NV
24,03171,40.6,60.1,222.6,-117.439,33.952,RIVERSIDE,CA
25,03177,47.5,58.0,342.8,-117.279,33.128,CARLSBAD,CA
26,03179,44.2,58.8,283.0,-117.636,33.975,CHINO,CA
27,03184,26.4,60.4,90.7,-112.082,33.688,PHOENIX,AZ
28,03192,30.2,61.1,114.7,-111.911,33.623,SCOTTSDALE,AZ
29,03196,21.8,55.4,88.8,-110.846,31.421,NOGALES,AZ
30,03757,24.8,36.8,302.7,-76.429,38.142,ST INIGOES,MD
31,03802,19.1,29.3,326.1,-80.229,39.296,CLARKSBURG,WV
32,03810,26.4,43.6,234.3,-81.390,35.741,HICKORY,NC
33,03811,25.9,38.2,299.0,-88.917,35.593,JACKSON,TN
34,03812,26.5,40.4,276.8,-82.538,35.432,ASHEVILLE,NC
35,03813,38.9,49.5,334.8,-83.654,32.688,MACON,GA
36,03816,21.8,32.0,328.0,-88.774,37.056,PADUCAH,KY
37,03820,38.3,48.4,342.2,-81.965,33.370,AUGUSTA,GA
38,03822,43.4,54.9,324.9,-81.202,32.119,SAVANNAH,GA
39,03847,25.8,37.4,309.5,-85.085,35.951,CROSSVILLE,TN
40,03849,23.6,37.1,279.9,-84.077,37.087,LONDON,KY
41,03853,49.6,57.8,380.4,-81.417,30.400,MAYPORT,FL
42,03855,48.1,53.8,422.9,-87.317,30.350,PENSACOLA,FL
43,03856,32.5,42.9,333.5,-86.786,34.644,HUNTSVILLE,AL
44,03859,20.5,38.6,218.3,-81.208,37.296,BLUEFIELD,WV
45,03860,21.6,34.4,287.9,-82.555,38.382,HUNTINGTON,WV
46,03866,37.7,47.1,353.3,-88.567,32.550,MERIDIAN,MS
47,03870,31.3,46.6,262.7,-82.219,34.899,GREER,SC
48,03878,40.9,51.3,339.7,-86.012,31.861,TROY,AL
49,03888,33.5,45.7,307.0,-84.521,33.779,ATLANTA,GA
50,03889,22.0,35.6,276.8,-83.314,37.591,JACKSON,KY
51,03893,14.8,24.8,325.5,-86.617,39.144,BLOOMINGTON,IN
52,03894,24.0,35.4,310.7,-87.415,36.622,CLARKSVILLE,TN
53,03901,36.8,47.7,328.6,-94.711,32.385,LONGVIEW,TX
54,03902,36.5,50.0,291.0,-97.822,31.070,FORT HOOD/KILLEEN,TX
55,03904,43.3,52.3,363.1,-96.364,30.588,COLLEGE STATION,TX
56,03919,16.6,28.4,298.4,-97.661,38.813,SALINA,KS
57,03927,33.1,47.0,282.4,-97.041,32.896,DALLAS-FORT WORTH,TX
58,03928,18.5,39.1,188.7,-97.429,37.647,WICHITA,KS
59,03931,43.0,50.0,397.0,-93.192,31.045,FORT POLK,LA
60,03932,21.7,35.5,273.8,-99.200,35.340,CLINTON,OK
61,03933,36.9,52.1,268.8,-97.713,31.134,FORT HOOD (KILLEEN),TX
62,03935,21.4,31.0,337.9,-89.571,37.225,CAPE GIRARDEAU,MO
63,03936,16.1,26.1,326.8,-96.678,39.135,MANHATTAN,KS
64,03937,46.6,52.5,418.6,-93.228,30.125,LAKE CHARLES,LA
65,03940,38.5,47.7,357.0,-90.078,32.320,JACKSON,MS
66,03945,14.6,25.1,317.5,-92.218,38.817,COLUMBIA,MO
67,03947,13.2,24.7,300.3,-94.718,39.299,KANSAS CITY,MO
68,03949,42.5,50.0,387.8,-93.283,31.400,FORT POLK,LA
69,03950,25.6,38.8,285.5,-98.416,34.568,LAWTON,OK
70,03957,18.8,30.5,302.1,-98.553,37.284,MEDICINE LODGE,KS
71,03959,20.7,33.1,292.9,-96.011,36.762,BARTLESVILLE,OK
72,03962,27.6,41.4,279.3,-93.096,34.478,HOT SPRINGS,AR
73,03963,14.1,26.4,288.5,-92.156,38.591,JEFFERSON CITY,MO
74,03965,21.6,36.1,263.9,-97.086,36.160,STILLWATER,OK
75,03966,14.4,25.8,302.7,-90.656,38.657,ST LOUIS,MO
76,03967,14.5,25.7,305.8,-94.739,38.850,OLATHE,KS
77,03971,33.9,48.0,280.5,-96.868,32.681,DALLAS,TX
78,03974,18.5,30.5,297.2,-97.219,37.750,WICHITA,KS
79,03981,24.7,39.8,259.0,-98.984,34.352,FREDERICK,OK
80,03991,32.0,43.3,318.7,-97.199,33.206,DENTON,TX
81,03994,15.9,26.7,313.8,-93.183,38.704,SEDALIA,MO
82,03996,38.1,46.5,369.9,-91.030,32.348,TALLULAH/VICKSBURG,MS
83,03997,15.1,26.0,311.4,-95.212,39.008,LAWRENCE,KS
84,03999,36.6,50.2,289.8,-98.235,30.741,BURNET,TX
85,04109,26.7,32.4,412.4,-115.596,46.144,ELK CITY,ID
86,04110,27.2,35.5,364.4,-114.456,42.727,JEROME,ID
87,04111,19.1,26.7,371.1,-111.031,41.273,EVANSTON,WY
88,04112,15.7,20.9,416.8,-114.927,44.171,STANLEY,ID
89,04113,27.1,35.1,369.3,-119.261,45.826,HERMISTON,OR
90,04114,16.8,26.2,337.2,-114.215,41.523,CHALLIS,ID
91,04201,33.7,38.3,437.1,-122.861,45.773,SCAPPOOSE,OR
92,04724,11.6,22.3,311.4,-78.945,43.107,NIAGARA FALLS,NY
93,04725,11.6,19.8,355.1,-75.981,42.208,BINGHAMTON,NY
94,04726,14.0,21.7,366.2,-78.834,40.301,JOHNSTOWN,PA
95,04751,8.9,16.8,358.8,-78.640,41.803,BRADFORD,PA
96,04780,12.5,23.3,310.7,-71.756,42.552,FITCHBURG,MA
97,04781,18.8,29.7,314.4,-73.102,40.794,ISLIP,NY
98,04789,13.0,22.2,337.9,-74.265,41.509,MONTGOMERY,NY
99,04803,-0.4,4.3,418.6,-89.465,45.631,RHINELANDER,WI
100,04804,15.1,23.6,352.0,-83.078,40.078,COLUMBUS,OH
101,04808,7.1,12.2,414.3,-88.481,41.770,CHICAGO/AURORA,IL
102,04836,5.1,11.2,391.5,-68.307,47.286,FRENCHVILLE,ME
103,04838,8.3,17.4,336.0,-87.905,42.121,CHICAGO/PROSPECT HGTS/WHEELI,IL
104,04841,5.3,10.8,404.4,-87.851,43.769,SHEBOYGAN,WI
105,04843,11.9,20.2,353.3,-80.215,41.626,MEADVILLE,PA
106,04845,6.9,14.9,355.1,-87.938,42.595,KENOSHA,WI
107,04846,10.7,15.6,420.5,-87.006,41.453,VALPARAISO,IN
108,04848,11.5,18.7,373.6,-83.476,41.563,TOLEDO,OH
109,04849,12.7,21.5,344.6,-82.179,41.179,LORAIN/ELYRIA,OH
110,04850,12.8,27.3,255.9,-84.027,40.708,LIMA,OH
111,04851,11.1,13.8,470.4,-84.429,41.338,DEFIANCE,OH
112,04852,13.7,23.8,323.1,-81.420,40.470,NEW PHILADELPHIA,OH
113,04857,10.4,17.4,376.7,-80.696,41.778,ASHTABULA,OH
114,04858,13.6,23.2,331.7,-82.463,40.023,NEWARK,OH
117,12812,59.9,68.8,375.5,-81.991,26.917,PUNTA GORDA,FL
118,12815,54.6,65.2,346.5,-81.325,28.434,ORLANDO,FL
119,12816,50.3,58.8,376.1,-82.272,29.690,GAINESVILLE,FL
120,12819,54.6,67.4,315.0,-81.810,28.821,LEESBURG,FL
121,12832,50.6,58.4,387.8,-85.033,29.733,APALACHICOLA,FL
122,12834,54.4,61.5,401.3,-81.060,29.177,DAYTONA BEACH,FL
123,12835,60.6,70.5,360.7,-81.864,26.586,FORT MYERS,FL
124,12836,67.6,74.4,413.1,-81.754,24.553,KEY WEST,FL
125,12838,59.0,65.9,406.9,-80.646,28.103,MELBOURNE,FL
126,12839,64.4,73.7,371.8,-80.300,25.824,MIAMI,FL
127,12841,55.4,68.4,313.2,-81.333,28.545,ORLANDO,FL
128,12842,56.6,65.0,381.0,-82.540,27.961,TAMPA,FL
129,12843,61.4,66.6,437.7,-80.418,27.656,VERO BEACH,FL
130,12844,63.0,72.3,371.1,-80.099,26.685,WEST PALM BEACH,FL
131,12849,65.0,73.5,384.7,-80.154,26.072,FORT LAUDERDALE,FL
132,12854,55.9,67.0,339.7,-81.244,28.780,ORLANDO,FL
133,12871,58.3,65.8,397.0,-82.559,27.401,SARASOTA/BRADENTON,FL
134,12873,57.5,65.0,396.4,-82.688,27.911,ST PETERSBURG/CLEARWATER,FL
135,12882,64.8,73.0,389.0,-80.280,25.907,MIAMI,FL
136,12884,50.6,55.8,432.8,-89.408,29.350,BOOTHVILLE,LA
137,12885,63.5,73.1,366.8,-80.171,26.197,FORT LAUDERDALE,FL
138,12888,66.1,72.9,412.4,-80.433,25.648,MIAMI,FL
139,12894,59.8,69.9,357.0,-81.755,26.536,FORT MYERS,FL
140,12896,67.1,76.3,374.8,-81.052,24.726,MARATHON,FL
141,12904,53.6,61.7,384.1,-97.654,26.228,HARLINGEN,TX
142,12912,48.2,62.0,296.6,-96.930,28.863,VICTORIA,TX
143,12916,48.4,56.2,385.9,-90.251,29.993,NEW ORLEANS,LA
144,12917,47.4,54.9,390.9,-94.021,29.951,BEAUMONT/PORT ARTHUR,TX
145,12918,47.3,55.9,372.4,-95.279,29.645,HOUSTON,TX
146,12919,55.8,62.4,410.6,-97.426,25.906,BROWNSVILLE,TX
147,12921,42.5,66.5,180.7,-98.464,29.533,SAN ANTONIO,TX
148,12923,50.4,54.4,455.6,-94.860,29.265,GALVESTON,TX
149,12924,50.0,59.1,366.2,-97.513,27.773,CORPUS CHRISTI,TX
150,12926,51.5,58.0,410.0,-97.283,27.700,CORPUS CHRISTI,TX
151,12935,49.4,55.1,423.5,-96.251,28.728,PALACIOS,TX
152,12957,55.9,62.4,412.4,-97.346,26.166,PORT ISABEL,TX
153,12959,53.5,62.6,368.1,-98.238,26.175,MC ALLEN,TX
154,12960,46.6,54.7,380.4,-95.364,29.993,HOUSTON,TX
155,12962,40.0,56.8,252.2,-99.174,29.359,HONDO,TX
156,12968,49.2,53.5,449.4,-91.526,29.562,SALT POINT,LA
157,12970,43.1,56.3,300.9,-98.471,29.337,SAN ANTONIO,TX
158,12972,50.5,59.6,366.2,-97.046,28.084,ROCKPORT,TX
159,12975,47.0,56.9,351.4,-95.240,29.521,HOUSTON,TX
160,12976,49.1,55.0,419.8,-95.462,29.110,ANGLETON/LAKE JACKSON,TX
161,12977,47.8,55.7,384.1,-95.656,29.622,HOUSTON,TX
162,13721,23.3,35.6,296.6,-76.400,38.283,PATUXENT RIVER,MD
163,13722,29.2,43.5,273.8,-78.786,35.871,RALEIGH/DURHAM,NC
164,13723,25.9,41.9,248.5,-79.944,36.098,GREENSBORO,NC
165,13728,25.9,37.1,315.7,-79.336,36.573,DANVILLE,VA
166,13729,18.8,28.5,334.2,-79.853,38.885,ELKINS,WV
167,13733,21.8,37.2,252.2,-79.207,37.338,LYNCHBURG,VA
168,13734,16.9,31.7,255.9,-77.984,39.402,MARTINSBURG,WV
169,13735,22.7,31.3,355.7,-75.078,39.366,MILLVILLE,NJ
170,13736,18.9,33.1,265.7,-79.916,39.643,MORGANTOWN,WV
171,13737,30.2,41.5,317.5,-76.192,36.904,NORFOLK,VA
172,13739,18.0,32.1,266.4,-75.231,39.868,PHILADELPHIA,PA
173,13740,24.9,40.2,256.5,-77.323,37.511,RICHMOND,VA
174,13741,20.6,37.6,231.2,-79.974,37.317,ROANOKE,VA
175,13743,21.1,37.9,234.3,-77.034,38.865,WASHINGTON,DC
176,13744,36.8,54.3,241.1,-79.731,34.188,FLORENCE,SC
177,13748,38.5,47.4,361.9,-77.906,34.268,WILMINGTON,NC
178,13750,30.4,42.1,311.4,-76.283,36.933,NORFOLK,VA
179,13754,37.2,47.0,346.5,-76.883,34.900,CHERRY POINT,NC
180,13764,24.0,35.9,303.3,-75.359,38.689,GEORGETOWN,DE
181,13769,30.5,41.5,322.4,-76.033,36.817,OCEANA,VA
182,13773,22.3,36.3,271.3,-77.300,38.500,QUANTICO,VA
183,13776,36.2,46.0,345.3,-79.059,34.610,LUMBERTON,NC
184,13781,20.4,31.4,313.8,-75.601,39.673,WILMINGTON,DE
185,13786,33.9,43.3,350.2,-76.175,36.261,ELIZABETH CITY,NC
186,13810,19.6,32.1,290.4,-85.664,38.228,LOUISVILLE,KY
187,13833,42.6,51.5,364.4,-89.253,31.265,HATTIESBURG,MS
188,13838,45.4,52.5,396.4,-88.068,30.626,MOBILE,AL
189,13839,44.1,53.5,357.6,-85.450,31.321,DOTHAN,AL
190,13865,38.9,47.0,375.5,-88.751,32.333,MERIDIAN,MS
191,13866,23.5,33.9,326.1,-81.591,38.379,CHARLESTON,WV
192,13869,44.1,53.3,360.7,-84.194,31.536,ALBANY,GA
193,13870,42.8,54.2,326.1,-82.507,31.536,ALMA,GA
194,13873,33.0,47.0,281.1,-83.327,33.948,ATHENS,GA
195,13874,33.7,47.3,287.3,-84.427,33.640,ATLANTA,GA
196,13876,34.9,46.1,323.1,-86.754,33.564,BIRMINGHAM,AL
197,13877,24.3,38.2,275.0,-82.399,36.480,BRISTOL/JHNSN CTY/KNGSPRT,TN
198,13878,47.2,55.1,384.1,-81.391,31.252,BRUNSWICK,GA
199,13880,42.2,53.5,326.8,-80.041,32.899,CHARLESTON,SC
200,13881,30.9,45.4,272.5,-80.944,35.214,CHARLOTTE,NC
201,13882,30.0,44.7,269.4,-85.200,35.033,CHATTANOOGA,TN
202,13883,37.3,48.9,318.7,-81.118,33.942,COLUMBIA,SC
203,13884,45.3,53.8,373.0,-86.523,30.780,CRESTVIEW,FL
204,13886,30.0,43.5,285.5,-82.346,34.846,GREENVILLE,SC
205,13889,49.3,60.9,328.0,-81.693,30.494,JACKSONVILLE,FL
206,13891,28.1,41.5,284.8,-83.986,35.818,KNOXVILLE,TN
207,13893,28.2,41.1,292.2,-89.985,35.061,MEMPHIS,TN
208,13895,39.9,51.2,324.9,-86.394,32.301,MONTGOMERY,AL
209,13896,30.6,43.4,295.9,-87.610,34.745,MUSCLE SHOALS,AL
210,13897,25.0,39.2,271.3,-86.689,36.119,NASHVILLE,TN
211,13899,46.3,56.0,353.9,-87.188,30.473,PENSACOLA,FL
212,13911,30.8,48.8,229.4,-97.441,32.769,FORT WORTH,TX
213,13920,14.7,26.4,298.4,-95.664,38.950,TOPEKA,KS
214,13932,19.7,32.3,289.2,-97.037,37.168,WINFIELD/ARKANSAS CITY,KS
215,13939,34.6,43.0,367.4,-90.986,33.483,GREENVILLE,MS
216,13942,37.4,45.7,371.1,-92.038,32.511,MONROE,LA
217,13957,36.9,47.8,328.6,-93.824,32.447,SHREVEPORT,LA
218,13958,39.7,54.9,271.3,-97.767,30.317,AUSTIN/CITY,TX
219,13959,37.0,47.8,330.5,-97.229,31.611,WACO,TX
220,13961,33.6,46.3,299.6,-97.361,32.819,FORT WORTH,TX
221,13962,28.3,50.6,181.9,-99.682,32.411,ABILENE,TX
222,13963,26.8,40.8,275.6,-92.233,34.747,LITTLE ROCK,AR
223,13964,25.5,39.8,270.7,-94.365,35.334,FORT SMITH,AR
224,13966,26.4,40.8,270.1,-98.493,33.979,WICHITA FALLS,TX
225,13967,23.0,38.3,254.6,-97.600,35.389,OKLAHOMA CITY,OK
226,13968,20.4,36.6,241.1,-95.886,36.198,TULSA,OK
227,13969,18.8,34.0,252.2,-97.100,36.731,PONCA CITY,OK
228,13970,44.5,52.9,373.6,-91.147,30.537,BATON ROUGE,LA
229,13971,20.0,34.4,263.9,-93.155,36.261,HARRISON,AR
230,13973,34.8,50.1,265.7,-99.766,30.511,JUNCTION,TX
231,13975,18.2,32.5,263.9,-99.775,36.297,GAGE,OK
232,13977,32.2,44.4,305.8,-94.008,33.454,TEXARKANA,AR
233,13978,35.6,44.0,368.1,-90.084,33.496,GREENWOOD,MS
234,13981,18.1,29.8,301.5,-95.484,37.670,CHANUTE,KS
235,13984,15.5,26.3,313.2,-97.652,39.549,CONCORDIA,KS
236,13985,15.8,28.2,288.5,-99.970,37.773,DODGE CITY,KS
237,13986,17.1,29.4,291.0,-97.861,38.068,HUTCHINSON,KS
238,13987,19.0,32.1,281.1,-94.498,37.149,JOPLIN,MO
239,13988,14.4,27.5,276.8,-94.593,39.123,KANSAS CITY,MO
240,13989,16.9,27.1,324.3,-96.190,38.331,EMPORIA,KS
241,13993,13.0,21.9,343.4,-94.907,39.774,ST JOSEPH,MO
242,13994,14.6,27.4,281.8,-90.374,38.753,ST LOUIS,MO
243,13995,18.0,31.7,271.9,-93.390,37.240,SPRINGFIELD,MO
244,13996,15.3,26.9,300.3,-95.626,39.073,TOPEKA,KS
245,13997,15.6,27.2,300.9,-91.769,38.128,ROLLA/VICHY,MO
246,14605,10.7,21.2,313.8,-69.797,44.321,AUGUSTA,ME
247,14606,10.4,18.0,365.0,-68.824,44.808,BANGOR,ME
248,14607,6.1,12.8,379.8,-68.033,46.867,CARIBOU,ME
249,14609,7.2,12.5,410.0,-67.792,46.123,HOULTON,ME
250,14610,8.1,16.2,353.9,-68.686,45.648,MILLINOCKET,ME
251,14702,14.1,16.0,490.7,-71.289,42.470,BEDFORD,MA
252,14707,19.3,28.6,340.9,-72.049,41.328,GROTON NEW LONDON,CT
253,14710,12.6,23.7,305.8,-71.438,42.933,MANCHESTER,NH
254,14711,17.0,27.1,326.1,-76.763,40.194,HARRISBURG,PA
255,14712,16.5,25.9,337.2,-75.959,40.373,READING,PA
256,14719,18.5,27.3,349.0,-72.632,40.844,WESTHAMPTON BEACH,NY
257,14732,16.5,31.4,254.0,-73.881,40.779,NEW YORK,NY
258,14733,12.5,19.9,370.5,-78.736,42.941,BUFFALO,NY
259,14734,18.4,29.9,304.6,-74.169,40.716,NEWARK,NJ
260,14735,11.6,20.8,337.2,-73.803,42.748,ALBANY,NY
261,14737,15.2,27.9,283.6,-75.449,40.651,ALLENTOWN,PA
262,14739,15.4,29.0,270.7,-71.011,42.361,BOSTON,MA
263,14740,13.9,24.2,320.0,-72.683,41.938,WINDSOR LOCKS,CT
264,14742,9.9,20.2,316.9,-73.150,44.468,BURLINGTON,VT
265,14745,11.0,19.4,350.8,-71.501,43.195,CONCORD,NH
266,14747,11.8,17.7,400.1,-79.272,42.493,DUNKIRK,NY
267,14748,10.1,19.5,332.3,-76.892,42.159,ELMIRA/CORNING,NY
268,14750,10.0,17.2,373.0,-73.610,43.341,GLENS FALLS,NY
269,14752,15.3,26.6,305.2,-72.651,41.736,HARTFORD,CT
270,14756,22.6,31.5,350.8,-70.061,41.253,NANTUCKET,MA
271,14757,13.6,23.0,334.8,-73.884,41.627,POUGHKEEPSIE,NY
272,14758,17.5,28.0,320.0,-72.887,41.264,NEW HAVEN,CT
273,14762,16.0,26.9,312.0,-79.922,40.355,PITTSBURGH,PA
274,14763,11.4,19.4,358.2,-73.289,42.427,PITTSFIELD,MA
275,14764,12.8,22.1,336.0,-70.304,43.642,PORTLAND,ME
276,14765,16.9,28.4,303.3,-71.433,41.722,PROVIDENCE,RI
277,14768,12.6,21.3,346.5,-77.677,43.117,ROCHESTER,NY
278,14770,13.8,22.2,352.7,-76.864,40.821,SELINSGROVE,PA
279,14771,13.4,21.0,367.4,-76.103,43.109,SYRACUSE,NY
280,14775,12.9,22.9,324.3,-72.716,42.158,WESTFIELD/SPRINGFIELD,MA
281,14777,13.4,23.6,321.2,-75.727,41.339,WILKES-BARRE/SCRANTON,PA
282,14778,13.3,23.3,324.3,-76.922,41.243,WILLIAMSPORT,PA
283,14787,18.2,29.0,315.7,-71.284,41.530,NEWPORT,RI
284,14792,17.6,29.0,305.2,-74.814,40.277,TRENTON,NJ
285,14815,9.8,17.0,372.4,-85.251,42.308,BATTLE CREEK,MI
286,14819,9.6,15.0,408.7,-87.752,41.786,CHICAGO,IL
287,14820,13.0,22.6,331.1,-81.853,41.405,CLEVELAND,OH
288,14821,15.3,25.9,316.3,-82.881,39.991,COLUMBUS,OH
289,14822,10.5,20.5,322.4,-83.010,42.409,DETROIT,MI
290,14825,12.4,19.0,385.9,-83.669,41.014,FINDLAY,OH
291,14826,8.4,19.7,299.0,-83.749,42.967,FLINT,MI
292,14833,9.6,17.0,368.7,-84.459,42.260,JACKSON,MI
293,14835,12.0,18.6,385.9,-86.937,40.412,LAFAYETTE,IN
294,14836,9.1,16.7,364.4,-84.579,42.780,LANSING,MI
295,14837,4.4,12.3,355.1,-89.345,43.141,MADISON,WI
296,14839,6.9,16.5,326.1,-87.897,42.947,MILWAUKEE,WI
297,14840,10.4,18.4,357.6,-86.237,43.171,MUSKEGON,MI
298,14842,9.2,17.9,344.0,-89.684,40.668,PEORIA,IL
299,14847,3.6,9.4,397.0,-84.367,46.467,SAULT STE MARIE,MI
300,14848,10.4,18.4,357.6,-86.333,41.707,SOUTH BEND,IN
301,14850,7.5,14.2,381.0,-85.583,44.741,TRAVERSE CITY,MI
302,14852,12.5,20.9,352.0,-80.674,41.254,YOUNGSTOWN/WARREN,OH
303,14853,10.1,22.3,286.7,-83.230,42.237,DETROIT,MI
304,14858,1.4,6.8,404.4,-88.506,47.169,HANCOCK,MI
305,14860,12.0,20.4,351.4,-80.183,42.080,ERIE,PA
306,14880,7.1,14.9,358.8,-87.868,42.422,CHICAGO/WAUKEGAN,IL
307,14891,13.8,21.1,373.6,-82.518,40.820,MANSFIELD,OH
308,14894,15.8,24.7,345.3,-80.647,40.176,WHEELING,WV
309,14895,14.0,22.9,344.0,-81.443,40.918,AKRON,OH
310,14897,1.1,6.4,406.3,-89.627,44.929,WAUSAU,WI
311,14898,3.1,8.0,416.1,-88.120,44.513,GREEN BAY,WI
312,14910,-1.5,3.9,402.6,-95.393,45.883,ALEXANDRIA,MN
313,14913,-2.6,6.7,323.7,-92.194,46.844,DULUTH,MN
314,14914,-2.2,4.6,372.4,-96.811,46.925,FARGO,ND
315,14916,-4.6,0.5,407.5,-97.176,47.949,GRAND FORKS,ND
316,14918,-5.4,-0.2,404.4,-93.403,48.566,INTERNATIONAL FALLS,MN
317,14919,-0.1,5.7,394.6,-98.678,46.930,JAMESTOWN,ND
318,14920,2.3,9.7,363.1,-91.256,43.754,LA CROSSE,WI
319,14921,2.9,9.5,379.8,-90.181,43.212,LONE ROCK,WI
320,14922,2.3,8.7,383.5,-93.229,44.883,MINNEAPOLIS,MN
321,14923,6.5,14.7,350.8,-90.523,41.465,MOLINE,IL
322,14925,0.9,6.7,395.2,-92.492,43.904,ROCHESTER,MN
323,14926,-1.9,5.5,360.0,-94.052,45.545,ST CLOUD,MN
324,14929,1.1,6.7,399.5,-98.421,45.450,ABERDEEN,SD
325,14931,9.1,16.6,366.2,-91.125,40.783,BURLINGTON,IA
326,14933,8.9,18.3,331.1,-93.666,41.538,DES MOINES,IA
327,14935,12.2,23.6,300.9,-98.313,40.958,GRAND ISLAND,NE
328,14936,4.5,10.0,403.8,-98.229,44.385,HURON,SD
329,14937,7.2,15.7,345.9,-91.543,41.633,IOWA CITY,IA
330,14938,10.1,19.0,340.9,-92.543,40.097,KIRKSVILLE,MO
331,14940,4.4,8.6,432.8,-93.331,43.158,MASON CITY,IA
332,14941,9.5,20.0,313.2,-97.437,41.981,NORFOLK,NE
333,14942,11.3,21.8,314.4,-95.899,41.310,OMAHA,NE
334,14944,5.3,11.8,383.5,-96.754,43.577,SIOUX FALLS,SD
335,14946,1.8,6.8,413.1,-97.154,44.931,WATERTOWN,SD
336,14950,8.8,16.6,360.0,-92.448,41.107,OTTUMWA,IA
337,14972,4.2,9.8,401.3,-95.202,43.164,SPENCER,IA
338,14990,5.4,11.5,391.5,-91.709,41.884,CEDAR RAPIDS,IA
339,14991,0.1,5.7,398.9,-91.485,44.865,EAU CLAIRE,WI
340,14992,2.5,9.3,375.5,-95.082,44.547,REDWOOD FALLS,MN
341,21504,66.9,73.4,417.4,-155.051,19.723,HILO,HI
342,21510,66.3,76.8,355.7,-156.049,19.736,KAILUA/KONA,HI
343,22010,39.1,57.1,237.4,-100.922,29.367,DEL RIO,TX
344,22516,67.2,74.6,403.2,-156.433,20.902,KAHULUI,HI
345,22519,64.6,74.9,357.6,-157.768,21.451,KANEOHE,HI
346,22521,65.4,74.5,375.5,-157.943,21.328,HONOLULU,HI
347,22534,68.2,72.2,461.8,-157.099,21.157,KAUNAKAKAI,HI
348,22536,66.5,71.2,448.2,-159.341,21.979,LIHUE,HI
349,23007,20.8,39.6,210.3,-100.288,34.434,CHILDRESS,TX
350,23009,19.1,53.1,83.9,-104.541,33.308,ROSWELL,NM
351,23023,26.6,48.3,186.2,-102.208,31.932,MIDLAND,TX
352,23034,31.6,49.5,231.2,-100.494,31.351,SAN ANGELO,TX
353,23042,19.4,42.5,165.3,-101.821,33.668,LUBBOCK,TX
354,23044,19.1,56.7,64.2,-106.376,31.811,EL PASO,TX
355,23047,17.5,37.0,199.2,-101.706,35.219,AMARILLO,TX
356,23048,17.6,41.8,153.6,-103.603,35.182,TUCUMCARI,NM
357,23049,15.7,38.9,160.3,-106.089,35.617,SANTA FE,NM
358,23050,17.8,45.2,127.0,-106.616,35.042,ALBUQUERQUE,NM
359,23051,14.3,37.1,162.8,-103.154,36.446,CLAYTON,NM
360,23052,14.0,36.3,167.1,-104.502,36.741,RATON,NM
361,23054,12.3,38.2,133.2,-105.143,35.654,LAS VEGAS,NM
362,23061,15.0,28.2,276.2,-105.866,37.436,ALAMOSA,CO
363,23064,15.9,28.7,283.0,-100.725,37.927,GARDEN CITY,KS
364,23065,15.5,25.5,326.1,-101.693,39.368,GOODLAND,KS
365,23066,24.2,35.1,318.7,-108.538,39.134,GRAND JUNCTION,CO
366,23067,17.0,30.6,271.9,-103.527,38.051,LA JUNTA,CO
367,23070,12.9,34.8,169.6,-104.341,37.259,TRINIDAD,CO
368,23078,17.9,50.8,89.4,-107.721,32.262,DEMING,NM
369,23081,15.7,36.4,185.0,-108.789,35.511,GALLUP,NM
370,23090,18.0,38.7,187.5,-108.229,36.744,FARMINGTON,NM
371,23091,23.3,53.1,114.7,-102.912,30.915,FORT STOCKTON,TX
372,23110,41.5,56.5,275.6,-119.950,36.333,LEMOORE,CA
373,23129,46.8,59.8,306.4,-118.163,33.828,LONG BEACH,CA
374,23130,39.1,60.5,201.6,-118.489,34.210,VAN NUYS,CA
375,23136,45.4,56.5,332.3,-119.083,34.217,CAMARILLO,CA
376,23152,39.8,61.6,198.6,-118.359,34.201,BURBANK,CA
377,23153,16.5,39.8,160.3,-117.087,38.060,TONOPAH,NV
378,23154,19.6,32.7,281.8,-114.845,39.295,ELY,NV
379,23155,40.5,56.9,257.1,-119.056,35.434,BAKERSFIELD,CA
380,23157,18.0,46.1,122.1,-118.363,37.373,BISHOP,CA
381,23158,29.2,62.7,96.8,-114.717,33.619,BLYTHE,CA
382,23160,23.7,60.7,71.6,-110.955,32.131,TUCSON,AZ
383,23161,27.1,58.7,106.7,-116.787,34.854,DAGGETT,CA
384,23169,22.8,57.0,86.4,-115.155,36.079,LAS VEGAS,NV
385,23174,48.7,59.7,336.0,-118.406,33.938,LOS ANGELES,CA
386,23176,20.8,39.2,215.2,-113.028,38.443,MILFORD,UT
387,23179,24.7,63.7,62.3,-114.623,34.766,NEEDLES,CA
388,23182,28.0,53.8,150.5,-118.084,34.629,PALMDALE,CA
389,23183,29.1,64.4,86.4,-111.990,33.443,PHOENIX,AZ
390,23184,20.1,46.2,140.0,-112.421,34.652,PRESCOTT,AZ
391,23185,24.4,44.7,197.9,-119.771,39.484,RENO,NV
392,23187,26.1,51.6,151.1,-118.724,34.744,SANDBERG,CA
393,23188,49.1,61.2,320.6,-117.169,32.735,SAN DIEGO,CA
394,23190,45.6,56.1,341.6,-119.844,34.426,SANTA BARBARA,CA
395,23191,40.8,57.6,252.8,-118.416,33.405,AVALON,CA
396,23194,19.9,45.2,146.2,-110.722,35.022,WINSLOW,AZ
397,23199,34.8,63.2,136.9,-115.667,32.817,EL CENTRO,CA
398,23213,45.1,51.8,403.2,-122.812,38.509,SANTA ROSA,CA
399,23225,27.5,41.2,280.5,-120.708,39.292,EMIGRANT GAP,CA
400,23230,46.1,53.8,386.6,-122.221,37.755,OAKLAND,CA
401,23232,44.4,53.9,355.7,-121.493,38.513,SACRAMENTO,CA
402,23234,48.2,54.9,405.0,-122.398,37.620,SAN FRANCISCO,CA
403,23237,45.1,52.9,384.1,-121.237,37.894,STOCKTON,CA
404,23254,45.3,56.1,336.6,-122.052,37.992,CONCORD,CA
405,23258,43.7,56.9,300.9,-120.953,37.626,MODESTO,CA
406,23259,46.8,54.0,395.2,-121.845,36.588,MONTEREY,CA
407,23273,44.9,60.9,266.4,-120.465,34.916,SANTA MARIA,CA
408,23275,42.2,51.1,364.4,-123.201,39.126,UKIAH,CA
409,23277,45.9,53.5,388.4,-121.789,36.936,WATSONVILLE,CA
410,23285,44.0,53.6,353.9,-121.817,37.694,LIVERMORE,CA
411,23293,45.3,54.3,364.4,-121.928,37.362,SAN JOSE,CA
412,24011,1.2,9.7,341.6,-100.748,46.774,BISMARCK,ND
413,24012,3.3,11.0,358.2,-102.802,46.797,DICKINSON,ND
414,24013,-2.1,5.8,350.2,-101.281,48.259,MINOT,ND
415,24015,14.2,23.6,335.4,-103.232,40.172,AKRON,CO
416,24017,11.7,19.0,371.8,-103.095,42.838,CHADRON,NE
417,24018,12.3,24.8,283.6,-104.807,41.158,CHEYENNE,WY
418,24021,9.4,21.2,292.2,-108.733,42.817,LANDER,WY
419,24022,13.0,28.7,239.8,-105.674,41.313,LARAMIE,WY
420,24023,12.4,20.3,361.3,-100.668,41.122,NORTH PLATTE,NE
421,24024,8.5,17.1,345.3,-101.601,44.051,PHILIP,SD
422,24025,7.1,16.4,331.7,-100.286,44.383,PIERRE,SD
423,24028,12.1,22.2,321.8,-103.595,41.874,SCOTTSBLUFF,NE
424,24029,6.9,16.5,326.1,-106.976,44.774,SHERIDAN,WY
425,24030,12.5,20.3,363.1,-102.985,41.101,SIDNEY,NE
426,24032,10.4,19.2,343.4,-100.551,42.859,VALENTINE,NE
427,24033,8.2,18.7,312.0,-108.543,45.808,BILLINGS,MT
428,24037,7.1,14.2,372.4,-105.886,46.428,MILES CITY,MT
429,24044,10.9,16.8,399.5,-102.800,42.057,ALLIANCE,NE
430,24046,17.9,26.0,361.3,-107.521,40.495,CRAIG,CO
431,24048,6.9,14.3,366.8,-108.082,44.517,GREYBULL,WY
432,24057,14.9,25.8,311.4,-107.200,41.806,RAWLINS,WY
433,24061,7.4,19.6,283.6,-108.459,43.064,RIVERTON,WY
434,24089,10.1,19.0,340.9,-106.473,42.898,CASPER,WY
435,24090,8.7,18.8,318.7,-103.054,44.046,RAPID CITY,SD
436,24091,13.6,21.8,356.3,-101.620,40.510,IMPERIAL,NE
437,24112,5.9,15.2,330.5,-111.187,47.504,GREAT FALLS,MT
438,24121,24.1,36.8,291.6,-115.792,40.825,ELKO,NV
439,24126,25.2,38.1,289.8,-112.011,41.196,OGDEN,UT
440,24127,27.9,42.2,272.5,-111.968,40.787,SALT LAKE CITY,UT
441,24128,25.9,39.2,284.8,-117.807,40.902,WINNEMUCCA,NV
442,24131,29.8,39.1,349.0,-116.220,43.565,BOISE,ID
443,24132,6.9,15.2,349.6,-111.152,45.794,BOZEMAN,MT
444,24133,26.0,36.0,334.8,-113.772,42.543,BURLEY,ID
445,24138,8.4,16.7,350.8,-112.552,45.255,DILLON,MT
446,24141,20.3,30.2,331.7,-119.514,47.304,EPHRATA,WA
447,24144,6.5,16.5,318.7,-111.964,46.606,HELENA,MT
448,24145,22.3,29.7,377.3,-112.067,43.516,IDAHO FALLS,ID
449,24146,10.3,18.5,353.9,-114.264,48.304,KALISPELL,MT
450,24149,23.3,34.3,316.3,-117.014,46.375,LEWISTON,ID
451,24152,24.6,28.8,442.0,-118.425,45.511,MEACHAM,OR
452,24153,13.8,20.0,395.2,-114.093,46.921,MISSOULA,MT
453,24154,12.1,15.8,447.6,-115.645,47.457,MULLAN PASS,ID
454,24155,26.4,33.3,389.0,-118.834,45.698,PENDLETON,OR
455,24156,23.8,33.8,332.9,-112.571,42.920,POCATELLO,ID
456,24157,18.5,26.0,373.0,-117.528,47.621,SPOKANE,WA
457,24160,27.6,35.0,380.4,-118.287,46.095,WALLA WALLA,WA
458,24162,28.2,35.8,377.3,-117.013,44.021,ONTARIO,OR
459,24163,26.7,35.8,350.2,-119.118,46.265,PASCO,WA
460,24164,10.7,16.8,395.2,-110.108,42.584,BIG PINEY,WY
461,24215,30.5,40.7,334.8,-122.333,41.333,MOUNT SHASTA,CA
462,24216,40.0,56.3,258.3,-122.254,40.152,RED BLUFF,CA
463,24217,24.9,38.5,279.3,-122.537,48.794,BELLINGHAM,WA
464,24219,28.7,36.0,382.9,-121.167,45.619,THE DALLES,OR
465,24220,22.4,31.4,349.0,-120.530,47.034,ELLENSBURG,WA
466,24221,37.3,46.3,359.4,-123.214,44.133,EUGENE,OR
467,24222,30.3,38.3,371.8,-122.280,47.908,EVERETT,WA
468,24225,37.2,46.3,357.6,-122.871,42.389,MEDFORD,OR
469,24229,33.3,40.3,391.5,-122.600,45.591,PORTLAND,OR
470,24230,23.4,30.4,385.3,-121.150,44.254,REDMOND,OR
471,24231,40.4,47.8,388.4,-123.355,43.239,ROSEBURG,OR
472,24232,35.8,42.3,402.0,-122.995,44.908,SALEM,OR
473,24233,32.8,41.8,356.3,-122.314,47.461,SEATTLE,WA
474,24234,31.6,42.4,326.1,-122.301,47.530,SEATTLE,WA
475,24235,34.3,38.7,441.4,-123.381,42.617,SEXTON SUMMIT,OR
476,24242,32.3,40.6,367.4,-122.400,45.549,PORTLAND,OR
477,24243,22.7,32.8,330.5,-120.534,46.564,YAKIMA,WA
478,24255,30.3,41.1,325.5,-122.650,48.350,WHIDBEY ISLAND,WA
479,24257,40.4,54.0,292.9,-122.313,40.515,REDDING,CA
480,24259,31.6,41.8,336.0,-122.468,41.781,MONTAGUE,CA
481,24283,43.7,49.4,420.5,-124.109,40.978,ARCATA/EUREKA,CA
482,24286,44.6,48.9,447.6,-124.237,41.780,CRESCENT CITY,CA
483,25309,15.0,23.9,344.6,-134.575,58.355,JUNEAU,AK
484,25325,20.9,30.6,335.4,-131.712,55.357,KETCHIKAN,AK
485,25331,7.3,17.5,316.3,-149.092,61.596,PALMER,AK
486,25333,20.4,31.9,306.4,-135.360,57.048,SITKA,AK
487,25335,6.2,23.9,207.8,-135.313,59.460,SKAGWAY,AK
488,25339,16.1,23.5,373.0,-139.628,59.510,YAKUTAT,AK
489,25501,23.5,30.0,394.6,-152.492,57.750,KODIAK,AK
490,25503,14.6,22.5,362.5,-156.654,58.684,KING SALMON,AK
491,25506,13.1,20.9,363.1,-154.915,59.753,ILIAMNA,AK
492,25507,16.8,26.7,329.2,-151.477,59.647,HOMER,AK
493,25516,21.1,25.0,447.0,-151.702,59.443,SELDOVIA,AK
494,25624,25.5,30.5,425.4,-162.722,55.207,COLD BAY,AK
495,26409,9.3,16.9,364.4,-149.855,61.217,ANCHORAGE,AK
496,26410,15.7,23.0,374.8,-145.451,60.489,CORDOVA,AK
497,26415,-6.0,1.2,361.3,-145.718,63.995,DELTA JUNCTION/FT GREELY,AK
498,26435,-8.7,-0.5,339.1,-149.072,64.550,NENANA,AK
499,26451,10.3,19.3,339.7,-149.993,61.175,ANCHORAGE,AK
500,26491,9.9,18.9,339.1,-149.961,61.179,ANCHORAGE,AK
501,26492,16.9,21.7,425.4,-148.839,60.785,PORTAGE GLACIER,AK
502,26528,2.3,16.7,246.6,-150.092,62.322,TALKEETNA,AK
503,26529,-9.0,-5.5,443.3,-152.107,65.174,TANANA,AK
504,26615,10.4,15.9,407.5,-161.826,60.786,BETHEL,AK
505,26616,-1.5,5.3,373.0,-162.597,66.885,KOTZEBUE,AK
508,53121,46.6,56.0,358.8,-117.349,33.219,OCEANSIDE,CA
509,53123,22.1,55.1,92.5,-115.196,36.212,LAS VEGAS,NV
510,53144,25.6,52.5,138.8,-117.865,34.988,EDWARDS,CA
511,53802,13.7,20.2,389.0,-88.280,39.478,MATTOON/CHARLESTON,IL
512,53819,35.1,46.1,326.1,-84.567,33.355,ATLANTA,GA
513,53820,42.0,52.7,336.0,-87.044,31.416,EVERGREEN,AL
514,53838,30.3,45.3,265.7,-83.830,34.272,GAINESVILLE,GA
515,53841,20.9,30.2,342.2,-84.903,38.185,FRANKFORT,KY
516,53842,13.0,22.2,337.9,-86.296,39.825,INDIANAPOLIS,IN
517,53843,43.3,56.3,303.3,-86.394,31.309,ANDALUSIA (FT RUCKER),AL
518,53844,15.8,24.5,349.0,-82.657,39.756,LANCASTER,OH
519,53850,30.9,44.0,291.6,-82.886,34.672,CLEMSON,SC
520,53852,32.2,41.6,349.0,-86.945,34.653,DECATUR,AL
521,53855,16.8,26.0,340.9,-84.525,39.364,HAMILTON,OH
522,53860,49.1,59.2,350.2,-81.515,30.336,JACKSONVILLE,FL
523,53862,48.3,58.0,355.7,-83.574,30.072,PERRY-FOLEY,FL
524,53863,31.6,44.8,291.0,-84.302,33.875,ATLANTA,GA
525,53864,37.6,48.2,334.2,-86.782,33.178,ALABASTER,AL
526,53865,46.1,54.8,369.9,-89.821,30.345,SLIDELL,LA
527,53866,14.9,24.3,336.0,-85.803,39.578,SHELBYVILLE,IN
528,53867,37.5,49.5,313.2,-80.996,33.971,COLUMBIA,SC
529,53868,27.2,41.6,270.7,-84.233,36.023,OAK RIDGE,TN
530,53870,31.1,44.4,289.2,-81.156,35.197,GASTONIA,NC
531,53871,31.7,45.3,285.5,-81.058,34.987,ROCK HILL,SC
532,53872,32.3,46.0,284.8,-80.621,35.017,MONROE,NC
533,53879,14.2,26.3,291.6,-94.371,38.960,LEE'S SUMMIT,MO
534,53901,16.9,31.3,260.8,-91.903,36.878,WEST PLAINS,MO
535,53902,45.0,56.6,324.9,-95.414,30.352,CONROE,TX
536,53903,43.3,51.9,369.9,-95.587,30.747,HUNTSVILLE,TX
537,53904,15.1,24.4,337.9,-90.428,38.929,ST CHARLES,MO
538,53905,36.4,46.8,336.0,-93.744,32.540,SHREVEPORT,LA
539,53907,33.8,46.1,305.8,-97.094,32.664,ARLINGTON,TX
540,53908,22.5,37.4,259.6,-95.984,36.039,TULSA,OK
541,53909,31.8,43.3,315.7,-97.318,32.973,FORT WORTH,TX
542,53910,47.1,54.3,395.8,-95.553,30.062,HOUSTON,TX
543,53912,37.5,48.5,328.0,-96.398,32.027,CORSICANA,TX
544,53913,22.2,37.3,256.5,-97.416,35.850,GUTHRIE,OK
545,53914,33.1,43.8,329.2,-96.590,33.180,MC KINNEY,TX
546,53915,47.0,54.1,397.0,-91.884,30.038,NEW IBERIA,LA
547,53916,11.4,21.7,318.1,-93.579,39.823,CHILLICOTHE,MO
548,53917,48.4,55.8,392.7,-90.028,30.043,NEW ORLEANS,LA
549,53918,18.3,34.4,239.8,-92.470,36.369,MOUNTAIN HOME,AR
550,53919,32.6,42.9,334.8,-91.751,33.638,MONTICELLO,AR
551,53920,25.4,38.9,281.1,-93.095,35.258,RUSSELLVILLE,AR
552,53921,28.2,39.8,311.4,-93.578,34.547,MOUNT IDA,AR
553,53922,21.0,34.2,281.8,-94.307,36.282,FAYETTEVILLE/SPRINGDALE,AR
554,53925,31.7,42.2,331.1,-94.399,34.047,DE QUEEN,AR
555,53988,42.4,50.9,371.1,-92.967,31.150,FORT POLK,LA
556,54704,15.3,23.9,350.2,-71.174,42.191,NORWOOD,MA
557,54728,7.5,14.6,373.0,-71.545,44.368,WHITEFIELD,NH
558,54733,14.7,25.3,315.7,-70.918,42.584,BEVERLY,MA
559,54734,13.0,23.2,321.2,-73.483,41.371,DANBURY,CT
560,54740,10.1,18.8,344.6,-72.518,43.344,SPRINGFIELD,VT
561,54742,8.4,16.3,358.2,-72.019,44.419,SAINT JOHNSBURY,VT
562,54756,11.5,19.8,353.3,-72.291,42.570,ORANGE,MA
563,54757,9.5,18.0,347.7,-77.992,42.109,WELLSVILLE,NY
564,54767,14.3,23.9,332.3,-72.184,41.742,WILLIMANTIC,CT
565,54768,11.4,21.2,326.1,-73.171,42.696,NORTH ADAMS,MA
566,54769,16.9,26.9,327.4,-70.729,41.910,PLYMOUTH,MA
567,54770,10.2,18.7,348.3,-72.004,42.805,JAFFREY,NH
568,54771,8.2,15.7,365.6,-72.614,44.534,MORRISVILLE,VT
569,54772,8.3,18.7,313.8,-70.948,43.991,FRYEBURG,ME
570,54777,17.0,27.5,319.4,-71.021,41.876,TAUNTON,MA
571,54778,11.3,20.3,340.3,-77.056,42.643,PENN YAN,NY
572,54779,14.5,22.8,355.1,-74.737,41.009,ANDOVER,NJ
573,54780,21.3,32.4,313.2,-71.923,41.073,MONTAUK,NY
574,54785,16.7,25.9,340.9,-74.669,40.624,SOMERVILLE,NJ
575,54787,18.8,29.1,324.3,-73.417,40.734,FARMINGDALE,NY
576,54789,11.7,20.2,349.6,-75.379,41.139,MOUNT POCONO,PA
577,54790,19.6,28.8,343.4,-72.869,40.822,SHIRLEY,NY
578,54791,11.7,23.3,297.2,-70.922,43.278,ROCHESTER,NH
579,54792,13.1,21.1,359.4,-78.412,41.047,CLEARFIELD,PA
580,54793,13.6,22.1,350.8,-74.623,41.200,SUSSEX,NJ
581,54813,2.2,10.2,351.4,-86.651,46.429,MUNISING,MI
582,63870,45.2,54.2,364.4,-86.312,31.043,FLORALA,AL
583,63872,41.9,51.5,352.7,-85.129,31.951,EUFAULA,AL
584,63873,43.4,53.1,352.0,-85.654,31.346,FORT RUCKER/OZARK,AL
585,64775,11.6,17.3,403.8,-75.412,43.234,ROME,NY
586,64776,9.6,18.5,340.9,-73.468,44.651,PLATTSBURG,NY
587,73805,48.0,56.1,381.0,-85.788,30.349,PANAMA CITY,FL
588,92805,64.0,73.9,362.5,-80.108,26.250,POMPANO BEACH,FL
589,92806,58.9,66.3,398.9,-82.628,27.765,ST PETERSBURG,FL
590,92809,63.8,71.2,401.3,-80.241,25.999,HOLLYWOOD,FL
591,93005,17.6,37.9,191.2,-107.760,37.143,DURANGO,CO
592,93009,8.2,19.6,297.2,-106.316,39.228,LEADVILLE,CO
593,93010,14.3,42.3,119.0,-103.716,39.189,LIMON,CO
594,93013,22.3,35.6,281.1,-107.898,38.505,MONTROSE,CO
595,93026,16.6,52.7,69.7,-109.604,31.469,DOUGLAS BISBEE,AZ
596,93027,18.2,43.0,148.6,-109.379,34.518,ST JOHNS,AZ
597,93033,20.9,49.5,120.9,-104.263,32.338,CARLSBAD,NM
598,93037,12.5,30.8,207.8,-104.711,38.812,COLORADO SPRINGS,CO
599,93042,16.9,38.1,180.7,-102.547,36.023,DALHART,TX
600,93045,16.6,52.6,70.3,-107.268,33.237,TRUTH OR CONSEQUENCES,NM
601,93058,14.7,32.0,221.4,-104.498,38.290,PUEBLO,CO
602,93067,13.1,29.5,231.2,-104.849,39.570,DENVER,CO
603,93069,20.8,35.2,264.5,-108.628,37.303,CORTEZ,CO
604,93073,15.6,27.0,304.0,-106.868,39.223,ASPEN,CO
605,93075,24.3,39.6,255.9,-109.754,38.755,MOAB,UT
606,93104,25.2,53.4,128.3,-117.683,35.683,CHINA LAKE,CA
607,93110,46.0,56.1,347.7,-119.206,34.201,OXNARD,CA
608,93111,48.4,58.2,353.9,-119.117,34.117,POINT MUGU,CA
609,93112,50.5,64.5,295.9,-117.200,32.700,SAN DIEGO,CA
610,93115,50.2,56.7,409.4,-117.117,32.567,IMPERIAL BEACH,CA
611,93129,19.3,37.8,212.1,-113.097,37.702,CEDAR CITY,UT
612,93134,46.5,63.4,257.1,-118.296,34.028,LOS ANGELES,CA
613,93138,30.9,67.2,82.1,-116.505,33.828,PALM SPRINGS,CA
614,93167,20.9,50.8,111.6,-113.937,35.259,KINGMAN,AZ
615,93184,48.5,60.9,316.3,-117.866,33.680,SANTA ANA,CA
616,93193,44.3,56.9,310.1,-119.719,36.780,FRESNO,CA
617,93197,47.3,59.3,320.6,-118.451,34.016,SANTA MONICA,CA
618,93205,43.6,52.9,358.8,-121.570,39.098,MARYSVILLE,CA
619,93206,45.3,58.6,300.9,-120.641,35.237,SAN LUIS OBISPO,CA
620,93209,42.6,54.1,324.3,-120.627,35.673,PASO ROBLES,CA
621,93210,42.8,53.6,334.8,-121.618,39.490,OROVILLE,CA
622,93225,43.5,53.0,355.1,-121.590,38.696,SACRAMENTO,CA
623,93227,46.1,53.0,400.1,-122.280,38.213,NAPA,CA
624,93228,46.8,53.5,404.4,-122.121,37.659,HAYWARD,CA
625,93230,21.2,37.1,245.4,-119.995,38.894,SOUTH LAKE TAHOE,CA
626,93241,43.8,52.4,369.9,-121.961,38.377,VACAVILLE,CA
627,93718,39.4,46.9,385.9,-78.721,33.816,NORTH MYRTLE BEACH,SC
628,93719,37.0,47.3,338.5,-77.047,35.068,NEW BERN,NC
629,93721,19.9,32.9,283.6,-76.684,39.172,BALTIMORE,MD
630,93727,37.1,46.8,347.7,-77.433,34.700,NEW RIVER,NC
631,93729,41.2,47.3,411.8,-75.623,35.232,CAPE HATTERAS,NC
632,93730,22.1,32.1,331.7,-74.457,39.458,ATLANTIC CITY,NJ
633,93736,19.3,37.3,218.3,-78.453,38.139,CHARLOTTESVILLE,VA
634,93739,27.0,38.5,312.0,-75.496,37.941,WALLOPS ISLAND,VA
635,93740,33.8,45.9,308.3,-78.880,34.991,FAYETTEVILLE,NC
636,93741,29.5,42.8,287.9,-76.493,37.132,NEWPORT NEWS,VA
637,93759,32.1,42.9,326.8,-77.893,35.855,ROCKY MOUNT,NC
638,93762,16.2,32.3,238.0,-77.43333,39.73333,SITE R,PA
639,93765,40.1,47.0,397.0,-76.661,34.734,BEAUFORT,NC
640,93773,28.4,40.4,305.8,-77.007,36.984,WAKEFIELD,VA
641,93775,24.4,38.1,277.4,-77.434,37.708,RICHMOND/ASHLAND,VA
642,93778,16.9,25.0,360.7,-76.874,39.918,YORK,PA
643,93780,18.9,30.3,306.4,-74.841,39.941,MOUNT HOLLY,NJ
644,93782,35.0,44.6,347.7,-79.366,34.792,MAXTON,NC
645,93783,26.4,41.9,255.3,-79.477,36.047,BURLINGTON,NC
646,93784,20.0,35.3,252.2,-76.610,39.281,BALTIMORE,MD
647,93785,28.9,43.0,276.2,-79.064,35.933,CHAPEL HILL,NC
648,93786,25.8,35.6,337.9,-75.124,38.308,OCEAN CITY,MD
649,93801,33.3,43.6,335.4,-85.161,34.348,ROME,GA
650,93805,45.8,57.1,329.8,-84.353,30.393,TALLAHASSEE,FL
651,93806,36.9,47.6,331.7,-87.616,33.212,TUSCALOOSA,AL
652,93808,22.6,35.3,290.4,-86.436,36.981,BOWLING GREEN,KY
653,93810,19.0,29.5,321.2,-89.250,37.780,CARBONDALE/MURPHYBORO,IL
654,93814,17.7,26.8,343.4,-84.672,39.043,COVINGTON,KY
655,93815,15.4,24.3,345.3,-84.219,39.906,DAYTON,OH
656,93817,19.3,29.7,323.1,-87.537,38.043,EVANSVILLE,IN
657,93819,13.7,19.2,409.4,-86.272,39.710,INDIANAPOLIS,IN
658,93820,21.4,32.3,316.3,-84.606,38.041,LEXINGTON,KY
659,93821,20.1,32.9,286.7,-85.730,38.177,LOUISVILLE,KY
660,93824,15.1,24.3,339.7,-81.892,39.944,ZANESVILLE,OH
661,93831,43.6,53.7,345.9,-80.717,32.483,BEAUFORT,SC
662,93837,49.1,60.8,326.1,-81.683,30.233,JACKSONVILLE,FL
663,93842,37.9,50.8,300.3,-84.942,32.516,COLUMBUS,GA
664,93846,33.2,46.5,291.0,-82.709,34.495,ANDERSON,SC
665,93862,31.8,42.6,326.8,-88.771,34.261,TUPELO,MS
666,93874,46.5,55.0,373.6,-89.070,30.407,GULFPORT,MS
667,93909,14.9,24.9,326.1,-94.890,38.831,OLATHE,KS
668,93915,42.3,49.2,398.3,-92.559,31.335,ALEXANDRIA,LA
669,93919,42.2,50.5,374.2,-90.472,31.178,MCCOMB,MS
670,93950,26.0,38.7,293.5,-95.783,34.899,MC ALESTER,OK
671,93953,23.1,37.0,273.8,-95.361,35.657,MUSKOGEE,OK
672,93967,19.8,32.9,281.8,-95.566,37.091,COFFEYVILLE,KS
673,93985,31.3,44.5,291.0,-98.061,32.782,MINERAL WELLS,TX
674,93986,23.7,36.0,297.2,-99.051,35.008,HOBART,OK
675,93987,41.8,55.0,299.6,-94.750,31.234,LUFKIN,TX
676,93988,30.5,40.9,331.7,-91.935,34.175,PINE BLUFF,AR
677,93989,10.6,19.5,341.6,-91.194,39.943,QUINCY,IL
678,93990,15.3,27.2,295.9,-99.830,39.376,HILL CITY,KS
679,93992,34.2,43.7,349.0,-92.813,33.221,EL DORADO,AR
680,93993,22.2,33.9,304.6,-94.170,36.005,FAYETTEVILLE,AR
681,93997,16.5,27.3,313.8,-98.828,38.872,RUSSELL,KS
682,94008,3.5,10.7,368.1,-106.621,48.214,GLASGOW,MT
683,94012,4.0,12.6,341.6,-109.780,48.559,HAVRE,MT
684,94014,0.8,9.4,339.1,-103.642,48.195,WILLISTON,ND
685,94017,1.8,10.8,332.3,-105.574,48.094,WOLF POINT,MT
686,94023,8.7,16.9,352.7,-105.542,44.339,GILLETTE,WY
687,94030,19.6,30.5,315.0,-109.509,40.441,VERNAL,UT
688,94032,5.9,16.5,308.3,-103.628,43.731,CUSTER,SD
689,94037,7.3,14.8,365.0,-103.546,45.604,BUFFALO,SD
690,94038,4.3,10.1,397.6,-102.655,46.014,HETTINGER,ND
691,94039,10.6,18.5,360.0,-102.518,43.021,PINE RIDGE,SD
692,94041,0.0,6.2,385.9,-101.439,47.663,GARRISON,ND
693,94050,17.7,27.8,326.8,-107.885,40.049,MEEKER,CO
694,94051,5.6,12.4,377.3,-106.948,47.326,JORDAN,MT
695,94052,2.5,9.4,373.6,-100.408,45.546,MOBRIDGE,SD
696,94053,11.8,19.6,362.5,-104.153,42.065,TORRINGTON,WY
697,94054,6.6,18.5,287.9,-106.721,44.381,BUFFALO,WY
698,94057,9.7,26.2,226.3,-105.386,42.797,DOUGLAS,WY
699,94119,17.2,26.1,346.5,-117.421,47.969,DEER PARK,WA
700,94128,25.2,34.1,352.7,-111.853,41.787,LOGAN,UT
701,94129,23.1,28.6,414.3,-117.109,46.744,PULLMAN/MOSCOW,WA
702,94176,19.8,28.7,348.3,-117.321,47.683,SPOKANE,WA
703,94178,26.6,38.7,302.7,-114.487,42.482,TWIN FALLS,ID
704,94182,20.5,25.4,425.4,-116.102,44.889,MCCALL,ID
705,94185,27.0,33.7,393.3,-118.954,43.592,BURNS,OR
706,94194,19.8,26.1,396.4,-111.881,43.834,REXBURG,ID
707,94197,17.5,27.9,321.2,-119.517,48.464,OMAK,WA
708,94224,35.8,42.4,400.1,-123.878,46.158,ASTORIA,OR
709,94225,34.9,41.2,405.0,-123.937,46.971,HOQUIAM,WA
710,94227,32.1,38.4,403.8,-123.148,47.238,SHELTON,WA
711,94236,28.9,37.5,360.0,-121.724,42.147,KLAMATH FALLS,OR
712,94239,20.4,29.6,344.0,-120.207,47.399,WENATCHEE,WA
713,94240,32.9,42.1,352.7,-124.561,47.934,QUILLAYUTE,WA
714,94261,32.9,38.6,415.5,-122.949,45.541,PORTLAND,OR
715,94273,36.2,41.4,426.6,-123.134,45.195,MC MINNVILLE,OR
716,94274,31.9,42.6,328.0,-122.576,47.268,TACOMA,WA
717,94276,29.1,38.2,352.0,-123.023,48.522,FRIDAY HARBOR,WA
718,94281,35.5,40.8,424.2,-122.769,45.249,AURORA,OR
719,94299,26.4,36.9,326.8,-120.567,41.483,ALTURAS,CA
720,94623,12.9,21.0,357.6,-69.712,43.964,WISCASSET,ME
721,94624,22.5,31.1,355.7,-69.993,41.688,CHATHAM,MA
722,94626,7.0,14.9,357.0,-69.595,45.462,GREENVILLE,ME
723,94702,18.9,31.7,285.5,-73.146,41.175,BRIDGEPORT,CT
724,94704,12.0,21.1,339.1,-77.713,42.571,DANSVILLE,NY
725,94720,21.0,30.2,344.0,-70.280,41.669,HYANNIS,MA
726,94723,12.9,25.9,276.8,-71.124,42.717,LAWRENCE,MA
727,94724,20.9,30.3,340.9,-70.615,41.393,VINEYARD HAVEN,MA
728,94725,7.7,15.3,363.1,-74.846,44.936,MASSENA,NY
729,94726,18.3,28.3,328.6,-70.958,41.676,NEW BEDFORD,MA
730,94728,16.9,31.7,255.9,-73.967,40.783,NEW YORK,NY
731,94732,19.3,31.6,293.5,-75.011,40.082,PHILADELPHIA,PA
732,94740,7.6,12.0,429.7,-74.207,44.385,SARANAC LAKE,NY
733,94741,17.0,30.6,271.9,-74.061,40.850,TETERBORO,NJ
734,94745,15.4,27.6,291.0,-73.708,41.067,WHITE PLAINS,NY
735,94746,12.5,24.1,297.8,-71.876,42.267,WORCESTER,MA
736,94765,8.5,17.7,334.2,-72.305,43.626,LEBANON,NH
737,94789,18.3,31.2,283.6,-73.796,40.655,NEW YORK,NY
738,94815,10.1,17.0,378.5,-85.552,42.235,KALAMAZOO,MI
739,94817,8.4,16.1,361.9,-83.418,42.665,PONTIAC,MI
740,94818,6.9,15.5,344.0,-87.814,42.761,RACINE,WI
741,94822,5.9,12.4,384.1,-89.093,42.196,ROCKFORD,IL
742,94823,15.6,25.6,326.1,-80.231,40.501,PITTSBURGH,PA
743,94830,11.3,17.7,389.6,-83.801,41.589,TOLEDO,OH
744,94846,6.5,12.8,388.4,-87.914,41.986,CHICAGO,IL
745,94847,11.1,19.4,352.7,-83.349,42.215,DETROIT,MI
746,94849,4.9,10.9,393.3,-83.581,45.072,ALPENA,MI
747,94855,2.4,10.2,355.7,-88.557,43.984,OSHKOSH,WI
748,94860,10.3,17.7,369.3,-85.523,42.882,GRAND RAPIDS,MI
749,94870,12.9,18.4,408.7,-88.278,40.040,CHAMPAIGN/URBANA,IL
750,94889,9.1,14.6,406.3,-83.744,42.223,ANN ARBOR,MI
751,94892,8.0,14.3,389.0,-88.246,41.914,CHICAGO/WEST CHICAGO,IL
752,94893,-0.1,6.0,388.4,-88.114,45.818,IRON MOUNTAIN/KINGSFORD,MI
753,94895,13.2,20.3,376.7,-85.394,40.234,MUNCIE,IN
754,94908,5.3,10.0,421.7,-90.704,42.398,DUBUQUE,IA
755,94910,4.6,9.2,423.5,-92.401,42.554,WATERLOO,IA
756,94929,0.1,7.3,365.6,-90.919,46.549,ASHLAND,WI
757,94931,-5.1,2.3,357.6,-92.839,47.387,HIBBING,MN
758,94938,-3.0,7.1,308.9,-94.131,46.405,BRAINERD,MN
759,94943,7.6,16.6,337.2,-99.318,43.767,CHAMBERLAIN,SD
760,94946,12.6,20.7,357.6,-99.639,41.437,BROKEN BOW,NE
761,94949,12.8,23.4,314.4,-98.427,40.604,HASTINGS,NE
762,94950,7.0,17.0,319.4,-98.038,43.777,MITCHELL,SD
763,94957,14.1,22.4,355.1,-95.592,40.079,FALLS CITY,NE
764,94958,10.8,20.5,327.4,-98.952,41.624,ORD,NE
765,94960,0.5,7.2,376.1,-93.351,45.063,MINNEAPOLIS,MN
766,94961,-4.9,-0.2,416.1,-94.610,48.728,BAUDETTE,MN
767,94963,1.4,8.0,378.5,-93.470,44.832,MINNEAPOLIS,MN
768,94967,-4.3,-0.4,435.9,-95.068,46.901,PARK RAPIDS,MN
769,94971,4.8,8.1,453.7,-94.746,43.408,ESTHERVILLE,IA
770,94973,-2.7,4.0,373.6,-91.444,46.026,HAYWARD,WI
771,94978,9.8,19.8,321.8,-96.178,41.764,TEKAMAH,NE
772,94982,6.5,12.9,386.6,-90.591,41.614,DAVENPORT,IA
773,94985,0.8,6.9,389.0,-90.189,44.637,MARSHFIELD,WI
774,94988,6.6,11.4,420.5,-92.918,42.113,MARSHALLTOWN,IA
775,94989,6.9,13.3,386.6,-93.622,41.992,AMES,IA
776,94990,9.9,22.1,286.1,-99.842,43.390,WINNER,SD
777,94991,9.8,18.6,342.8,-93.902,40.633,LAMONI,IA
778,94992,0.0,8.5,340.3,-90.344,47.747,GRAND MARAIS,MN
779,94993,1.8,12.2,307.7,-96.991,45.669,SISSETON,SD
780,94994,2.3,10.5,347.7,-90.678,43.156,BOSCOBEL,WI
