,wban,dewpt,tavg,wp,long,lat,stname,ststate
0,03013,57.5,74.7,263.3,-102.688,38.070,LAMAR,CO
1,03017,52.5,69.5,260.8,-104.658,39.833,DENVER,CO
2,03024,61.1,78.7,262.0,-101.394,35.700,BORGER,TX
3,03026,56.7,71.8,287.3,-102.284,39.245,BURLINGTON,CO
4,03027,44.9,68.6,185.6,-105.663,35.003,CLINES CORNERS,NM
5,03028,54.8,73.0,249.7,-102.614,37.283,SPRINGFIELD,CO
6,03029,39.0,66.4,148.6,-109.061,35.658,WINDOW ROCK,AZ
7,03030,60.2,77.4,265.7,-101.505,36.682,GUYMON,OK
8,03031,60.5,80.0,241.1,-102.387,31.921,ODESSA,TX
9,03032,65.7,81.6,284.8,-102.213,30.048,DRYDEN,TX
10,03102,54.7,76.5,212.7,-117.600,34.056,ONTARIO,CA
11,03104,50.6,87.3,98.7,-116.160,33.628,PALM SPRINGS,CA
12,03124,41.1,80.7,74.7,-110.344,31.588,FORT HUACHUCA/SIERRA VISTA,AZ
13,03131,58.6,69.7,341.6,-117.139,32.816,SAN DIEGO,CA
14,03144,50.5,89.4,87.0,-115.579,32.834,IMPERIAL,CA
15,03145,47.8,91.0,64.2,-114.617,32.650,YUMA,AZ
16,03159,38.8,80.5,62.9,-118.219,34.741,LANCASTER,CA
17,03160,24.6,83.6,0.0,-116.028,36.621,MERCURY,NV
18,03162,37.2,80.9,52.5,-111.448,36.926,PAGE,AZ
19,03164,46.0,69.7,186.8,-116.467,32.617,CAMPO,CA
20,03166,59.1,73.2,301.5,-117.979,33.872,FULLERTON,CA
21,03167,58.5,69.4,344.6,-118.334,33.923,HAWTHORNE,CA
22,03170,28.4,68.8,59.2,-116.006,39.601,EUREKA,NV
23,03177,59.4,67.1,393.9,-117.279,33.128,CARLSBAD,CA
24,03179,56.5,76.0,237.4,-117.636,33.975,CHINO,CA
25,03184,41.1,89.8,36.4,-112.082,33.688,PHOENIX,AZ
26,03192,43.2,91.1,41.4,-111.911,33.623,SCOTTSDALE,AZ
27,03196,44.7,80.9,96.2,-110.846,31.421,NOGALES,AZ
28,03802,63.2,70.7,399.5,-80.229,39.296,CLARKSBURG,WV
29,03804,63.2,71.7,383.5,-81.439,39.345,PARKERSBURG,WV
30,03810,64.2,77.2,320.0,-81.390,35.741,HICKORY,NC
31,03811,67.8,78.7,350.8,-88.917,35.593,JACKSON,TN
32,03812,62.3,73.5,342.8,-82.538,35.432,ASHEVILLE,NC
33,03813,68.6,80.8,333.5,-83.654,32.688,MACON,GA
34,03816,67.6,78.1,356.3,-88.774,37.056,PADUCAH,KY
35,03818,72.5,81.8,376.7,-85.184,30.836,MARIANNA,FL
36,03820,68.6,80.6,336.0,-81.965,33.370,AUGUSTA,GA
37,03822,69.5,81.6,335.4,-81.202,32.119,SAVANNAH,GA
38,03847,64.0,73.8,364.4,-85.085,35.951,CROSSVILLE,TN
39,03849,62.4,75.0,323.7,-84.077,37.087,LONDON,KY
40,03853,72.1,82.2,365.0,-81.417,30.400,MAYPORT,FL
41,03856,67.3,81.3,309.5,-86.786,34.644,HUNTSVILLE,AL
42,03859,60.8,73.0,328.0,-81.208,37.296,BLUEFIELD,WV
43,03860,64.3,73.4,374.8,-82.555,38.382,HUNTINGTON,WV
44,03866,68.4,79.6,347.1,-88.567,32.550,MERIDIAN,MS
45,03868,64.9,72.9,392.1,-87.309,39.452,TERRE HAUTE,IN
46,03870,66.5,78.9,329.2,-82.219,34.899,GREER,SC
47,03872,60.7,70.7,359.4,-81.125,37.795,BECKLEY,WV
48,03878,70.1,80.1,365.0,-86.012,31.861,TROY,AL
49,03887,64.9,73.1,389.0,-88.866,39.984,DECATUR,IL
50,03888,66.9,78.9,335.4,-84.521,33.779,ATLANTA,GA
51,03889,64.5,73.7,373.6,-83.314,37.591,JACKSON,KY
52,03893,64.8,72.5,397.0,-86.617,39.144,BLOOMINGTON,IN
53,03894,67.5,76.2,382.9,-87.415,36.622,CLARKSVILLE,TN
54,03901,71.3,80.6,376.1,-94.711,32.385,LONGVIEW,TX
55,03904,71.2,81.6,360.0,-96.364,30.588,COLLEGE STATION,TX
56,03919,63.8,79.4,287.3,-97.661,38.813,SALINA,KS
57,03927,67.6,81.9,305.8,-97.041,32.896,DALLAS-FORT WORTH,TX
58,03928,64.3,80.1,284.8,-97.429,37.647,WICHITA,KS
59,03932,64.1,80.4,279.3,-99.200,35.340,CLINTON,OK
60,03935,68.1,77.3,375.5,-89.571,37.225,CAPE GIRARDEAU,MO
61,03936,65.5,76.8,344.0,-96.678,39.135,MANHATTAN,KS
62,03937,72.6,81.8,378.5,-93.228,30.125,LAKE CHARLES,LA
63,03940,69.9,80.8,352.0,-90.078,32.320,JACKSON,MS
64,03945,67.1,74.9,396.4,-92.218,38.817,COLUMBIA,MO
65,03947,66.4,74.6,390.3,-94.718,39.299,KANSAS CITY,MO
66,03949,71.1,82.0,353.3,-93.283,31.400,FORT POLK,LA
67,03950,66.0,80.2,305.8,-98.416,34.568,LAWTON,OK
68,03953,68.7,79.2,357.0,-90.646,35.831,JONESBORO,AR
69,03954,66.5,80.1,313.8,-97.647,35.534,OKLAHOMA CITY,OK
70,03957,64.0,79.2,292.2,-98.553,37.284,MEDICINE LODGE,KS
71,03960,66.6,76.6,363.1,-90.157,38.571,CAHOKIA/ST.LOUIS,IL
72,03962,69.2,79.6,358.8,-93.096,34.478,HOT SPRINGS,AR
73,03963,66.5,75.6,376.1,-92.156,38.591,JEFFERSON CITY,MO
74,03965,66.9,79.2,331.1,-97.086,36.160,STILLWATER,OK
75,03966,68.2,75.2,410.0,-90.656,38.657,ST LOUIS,MO
76,03967,66.0,76.2,359.4,-94.739,38.850,OLATHE,KS
77,03971,68.5,81.3,325.5,-96.868,32.681,DALLAS,TX
78,03974,64.8,78.4,312.6,-97.219,37.750,WICHITA,KS
79,03975,68.4,78.0,369.9,-90.325,36.773,POPLAR BLUFF,MO
80,03981,66.7,80.9,306.4,-98.984,34.352,FREDERICK,OK
81,03991,69.3,80.6,346.5,-97.199,33.206,DENTON,TX
82,03994,66.9,76.0,376.7,-93.183,38.704,SEDALIA,MO
83,03996,70.7,80.9,362.5,-91.030,32.348,TALLULAH/VICKSBURG,MS
84,03997,65.6,76.1,355.1,-95.212,39.008,LAWRENCE,KS
85,03998,69.0,78.1,377.9,-95.504,37.328,PARSONS,KS
86,03999,68.0,80.2,332.9,-98.235,30.741,BURNET,TX
87,04109,50.7,74.5,190.5,-115.596,46.144,ELK CITY,ID
88,04110,42.9,71.4,144.3,-114.456,42.727,JEROME,ID
89,04111,38.4,64.6,157.9,-111.031,41.273,EVANSTON,WY
90,04112,36.9,57.5,207.2,-114.927,44.171,STANLEY,ID
91,04113,44.8,74.7,135.7,-119.261,45.826,HERMISTON,OR
92,04114,38.0,66.9,136.3,-114.215,41.523,CHALLIS,ID
93,04201,50.0,68.1,246.6,-122.861,45.773,SCAPPOOSE,OR
94,04724,55.8,64.7,373.0,-78.945,43.107,NIAGARA FALLS,NY
95,04725,57.0,63.8,407.5,-75.981,42.208,BINGHAMTON,NY
96,04726,58.6,65.9,400.1,-78.834,40.301,JOHNSTOWN,PA
97,04751,56.3,62.5,418.0,-78.640,41.803,BRADFORD,PA
98,04780,53.5,65.5,325.5,-71.756,42.552,FITCHBURG,MA
99,04781,58.7,68.2,365.6,-73.102,40.794,ISLIP,NY
100,04787,59.1,67.2,387.2,-78.899,41.178,DU BOIS,PA
101,04789,58.6,67.2,379.2,-74.265,41.509,MONTGOMERY,NY
102,04803,51.4,60.5,366.8,-89.465,45.631,RHINELANDER,WI
103,04804,62.4,71.0,381.6,-83.078,40.078,COLUMBUS,OH
104,04808,58.8,69.2,352.0,-88.481,41.770,CHICAGO/AURORA,IL
105,04826,53.7,66.1,320.0,-89.837,44.359,WISCONSIN RAPIDS,WI
106,04836,46.5,56.0,357.6,-68.307,47.286,FRENCHVILLE,ME
107,04838,56.9,66.6,361.3,-87.905,42.121,CHICAGO/PROSPECT HGTS/WHEELI,IL
108,04839,57.7,66.8,371.1,-86.097,42.746,HOLLAND,MI
109,04840,55.6,66.1,348.3,-88.486,43.770,FOND DU LAC,WI
110,04841,54.3,62.8,378.5,-87.851,43.769,SHEBOYGAN,WI
111,04842,61.6,68.7,405.0,-81.887,40.875,WOOSTER,OH
112,04843,58.0,66.1,386.6,-80.215,41.626,MEADVILLE,PA
113,04845,56.8,65.1,382.9,-87.938,42.595,KENOSHA,WI
114,04846,60.7,68.2,398.3,-87.006,41.453,VALPARAISO,IN
115,04848,59.8,69.4,364.4,-83.476,41.563,TOLEDO,OH
116,04849,60.2,67.8,396.4,-82.179,41.179,LORAIN/ELYRIA,OH
117,04850,62.2,69.6,400.7,-84.027,40.708,LIMA,OH
118,04851,61.1,69.9,377.3,-84.429,41.338,DEFIANCE,OH
119,04852,62.2,71.5,370.5,-81.420,40.470,NEW PHILADELPHIA,OH
120,04853,60.2,69.0,377.3,-81.684,41.518,CLEVELAND,OH
121,04854,51.9,62.0,352.0,-84.701,45.013,GAYLORD,MI
122,04855,61.8,70.1,385.9,-83.064,40.616,MARION,OH
123,04857,59.7,65.9,419.2,-80.696,41.778,ASHTABULA,OH
124,04858,62.6,70.5,392.7,-82.463,40.023,NEWARK,OH
128,12812,72.0,81.5,373.6,-81.991,26.917,PUNTA GORDA,FL
129,12815,71.8,83.0,349.6,-81.325,28.434,ORLANDO,FL
130,12816,69.3,81.0,340.9,-82.272,29.690,GAINESVILLE,FL
131,12818,71.3,81.5,363.1,-82.454,28.474,BROOKSVILLE,FL
132,12819,71.1,82.8,342.2,-81.810,28.821,LEESBURG,FL
133,12832,72.8,83.7,353.9,-85.033,29.733,APALACHICOLA,FL
134,12833,71.8,82.1,361.9,-83.105,29.550,CROSS CITY,FL
135,12834,71.2,81.3,364.4,-81.060,29.177,DAYTONA BEACH,FL
136,12835,72.4,82.7,362.5,-81.864,26.586,FORT MYERS,FL
137,12836,75.0,83.8,385.3,-81.754,24.553,KEY WEST,FL
138,12838,71.9,81.1,377.9,-80.646,28.103,MELBOURNE,FL
139,12839,72.3,83.7,347.1,-80.300,25.824,MIAMI,FL
140,12842,71.4,82.9,345.3,-82.540,27.961,TAMPA,FL
141,12843,70.8,81.9,350.2,-80.418,27.656,VERO BEACH,FL
142,12844,72.6,82.7,365.0,-80.099,26.685,WEST PALM BEACH,FL
143,12849,74.2,83.4,379.2,-80.154,26.072,FORT LAUDERDALE,FL
144,12850,73.9,83.9,367.4,-81.683,24.583,KEY WEST,FL
145,12854,70.9,82.8,339.1,-81.244,28.780,ORLANDO,FL
146,12871,72.0,81.5,373.6,-82.559,27.401,SARASOTA/BRADENTON,FL
147,12873,73.4,83.1,371.8,-82.688,27.911,ST PETERSBURG/CLEARWATER,FL
148,12876,71.3,83.6,334.2,-81.754,28.062,WINTER HAVEN,FL
149,12882,72.7,83.4,357.0,-80.280,25.907,MIAMI,FL
150,12884,74.1,82.8,386.6,-89.408,29.350,BOOTHVILLE,LA
151,12885,72.9,83.0,365.6,-80.171,26.197,FORT LAUDERDALE,FL
152,12888,73.3,82.1,384.7,-80.433,25.648,MIAMI,FL
153,12894,71.1,82.1,351.4,-81.755,26.536,FORT MYERS,FL
154,12895,71.9,80.4,388.4,-80.377,27.498,FORT PIERCE,FL
155,12897,72.8,81.9,379.8,-81.775,26.153,NAPLES,FL
156,12904,74.6,83.7,381.0,-97.654,26.228,HARLINGEN,TX
157,12912,74.3,81.4,411.2,-96.930,28.863,VICTORIA,TX
158,12916,70.6,82.4,340.3,-90.251,29.993,NEW ORLEANS,LA
159,12918,72.4,82.7,362.5,-95.279,29.645,HOUSTON,TX
160,12919,74.4,84.0,373.6,-97.426,25.906,BROWNSVILLE,TX
161,12921,70.5,81.7,348.3,-98.464,29.533,SAN ANTONIO,TX
162,12923,75.2,83.1,399.5,-94.860,29.265,GALVESTON,TX
163,12924,73.9,82.8,383.5,-97.513,27.773,CORPUS CHRISTI,TX
164,12926,75.2,82.6,406.9,-97.283,27.700,CORPUS CHRISTI,TX
165,12928,76.6,83.0,423.5,-97.817,27.500,KINGSVILLE,TX
166,12932,73.3,83.3,366.8,-98.027,27.741,ALICE,TX
167,12935,74.1,82.7,387.8,-96.251,28.728,PALACIOS,TX
168,12947,71.1,83.8,328.6,-99.220,28.458,COTULLA,TX
169,12957,74.5,82.7,394.6,-97.346,26.166,PORT ISABEL,TX
170,12959,73.5,86.1,331.7,-98.238,26.175,MC ALLEN,TX
171,12960,72.1,82.2,365.0,-95.364,29.993,HOUSTON,TX
172,12962,70.6,79.5,381.6,-99.174,29.359,HONDO,TX
173,12968,74.4,81.8,406.9,-91.526,29.562,SALT POINT,LA
174,12970,71.4,81.4,366.2,-98.471,29.337,SAN ANTONIO,TX
175,12971,71.5,81.1,371.8,-98.045,29.709,NEW BRAUNFELS,TX
176,12972,73.5,83.9,361.3,-97.046,28.084,ROCKPORT,TX
177,12975,72.3,83.0,356.3,-95.240,29.521,HOUSTON,TX
178,12976,73.5,81.7,393.9,-95.462,29.110,ANGLETON/LAKE JACKSON,TX
179,12977,72.4,82.0,372.4,-95.656,29.622,HOUSTON,TX
180,13721,66.0,75.7,366.8,-76.400,38.283,PATUXENT RIVER,MD
181,13722,67.2,79.3,334.2,-78.786,35.871,RALEIGH/DURHAM,NC
182,13723,64.7,78.6,308.9,-79.944,36.098,GREENSBORO,NC
183,13728,66.1,77.2,347.1,-79.336,36.573,DANVILLE,VA
184,13729,60.6,69.1,382.2,-79.853,38.885,ELKINS,WV
185,13733,65.3,73.6,387.8,-79.207,37.338,LYNCHBURG,VA
186,13734,62.8,72.6,363.7,-77.984,39.402,MARTINSBURG,WV
187,13735,64.3,72.8,384.1,-75.078,39.366,MILLVILLE,NJ
188,13736,60.2,71.7,337.2,-79.916,39.643,MORGANTOWN,WV
189,13737,66.9,78.7,337.9,-76.192,36.904,NORFOLK,VA
190,13739,61.8,74.8,318.1,-75.231,39.868,PHILADELPHIA,PA
191,13740,66.2,78.0,337.2,-77.323,37.511,RICHMOND,VA
192,13741,64.4,75.4,347.1,-79.974,37.317,ROANOKE,VA
193,13743,65.4,78.1,324.9,-77.034,38.865,WASHINGTON,DC
194,13744,68.9,82.8,312.0,-79.731,34.188,FLORENCE,SC
195,13748,71.2,81.2,365.6,-77.906,34.268,WILMINGTON,NC
196,13750,68.3,79.4,348.3,-76.283,36.933,NORFOLK,VA
197,13752,66.0,75.0,377.3,-76.483,38.991,ANNAPOLIS,MD
198,13754,70.6,79.4,382.9,-76.883,34.900,CHERRY POINT,NC
199,13764,65.1,73.9,379.8,-75.359,38.689,GEORGETOWN,DE
200,13769,68.1,80.2,334.8,-76.033,36.817,OCEANA,VA
201,13773,65.4,75.5,360.7,-77.300,38.500,QUANTICO,VA
202,13776,68.9,82.9,310.7,-79.059,34.610,LUMBERTON,NC
203,13781,63.8,73.1,371.8,-75.601,39.673,WILMINGTON,DE
204,13786,69.8,78.4,385.9,-76.175,36.261,ELIZABETH CITY,NC
205,13809,65.9,74.7,380.4,-87.606,38.764,LAWRENCEVILLE,IL
206,13810,64.3,76.3,333.5,-85.664,38.228,LOUISVILLE,KY
207,13833,70.5,80.8,361.3,-89.253,31.265,HATTIESBURG,MS
208,13837,67.3,83.3,285.5,-82.039,33.467,AUGUSTA,GA
209,13838,72.5,81.1,387.2,-88.068,30.626,MOBILE,AL
210,13839,70.2,81.2,350.8,-85.450,31.321,DOTHAN,AL
211,13841,61.8,71.4,365.6,-83.822,39.420,WILMINGTON,OH
212,13865,69.0,78.6,370.5,-88.751,32.333,MERIDIAN,MS
213,13866,63.9,74.1,358.2,-81.591,38.379,CHARLESTON,WV
214,13869,69.9,81.5,342.8,-84.194,31.536,ALBANY,GA
215,13870,69.8,80.8,350.8,-82.507,31.536,ALMA,GA
216,13871,67.7,78.9,346.5,-85.858,33.588,ANNISTON,AL
217,13873,66.9,80.4,315.7,-83.327,33.948,ATHENS,GA
218,13874,66.8,79.6,324.3,-84.427,33.640,ATLANTA,GA
219,13876,67.9,80.3,330.5,-86.754,33.564,BIRMINGHAM,AL
220,13877,63.8,75.2,340.9,-82.399,36.480,BRISTOL/JHNSN CTY/KNGSPRT,TN
221,13878,71.8,81.2,374.8,-81.391,31.252,BRUNSWICK,GA
222,13880,70.6,82.3,341.6,-80.041,32.899,CHARLESTON,SC
223,13881,64.0,80.1,281.1,-80.944,35.214,CHARLOTTE,NC
224,13882,66.7,79.4,325.5,-85.200,35.033,CHATTANOOGA,TN
225,13883,67.1,82.6,291.0,-81.118,33.942,COLUMBIA,SC
226,13884,71.2,80.6,374.8,-86.523,30.780,CRESTVIEW,FL
227,13886,65.1,79.7,300.3,-82.346,34.846,GREENVILLE,SC
228,13889,70.5,80.7,362.5,-81.693,30.494,JACKSONVILLE,FL
229,13891,65.9,78.3,329.2,-83.986,35.818,KNOXVILLE,TN
230,13893,68.9,80.7,339.1,-89.985,35.061,MEMPHIS,TN
231,13894,71.7,80.7,381.0,-88.246,30.688,MOBILE,AL
232,13895,69.5,82.8,320.0,-86.394,32.301,MONTGOMERY,AL
233,13896,66.9,79.9,321.8,-87.610,34.745,MUSCLE SHOALS,AL
234,13897,68.1,77.8,368.1,-86.689,36.119,NASHVILLE,TN
235,13899,72.0,80.8,384.1,-87.188,30.473,PENSACOLA,FL
236,13904,71.3,79.1,398.9,-97.681,30.179,AUSTIN/BERGSTROM,TX
237,13911,68.7,83.4,301.5,-97.441,32.769,FORT WORTH,TX
238,13920,65.1,77.7,325.5,-95.664,38.950,TOPEKA,KS
239,13927,69.8,80.5,355.1,-90.223,32.335,JACKSON,MS
240,13932,65.9,78.9,321.2,-97.037,37.168,WINFIELD/ARKANSAS CITY,KS
241,13935,71.0,81.4,360.0,-92.296,31.395,ALEXANDRIA,LA
242,13939,71.1,80.6,373.0,-90.986,33.483,GREENVILLE,MS
243,13942,72.2,80.6,390.3,-92.038,32.511,MONROE,LA
244,13957,70.8,82.0,349.0,-93.824,32.447,SHREVEPORT,LA
245,13958,70.8,81.1,361.3,-97.767,30.317,AUSTIN/CITY,TX
246,13959,69.5,81.6,335.4,-97.229,31.611,WACO,TX
247,13960,68.3,83.6,294.1,-96.851,32.847,DALLAS,TX
248,13961,68.3,83.7,292.9,-97.361,32.819,FORT WORTH,TX
249,13962,65.7,80.3,300.9,-99.682,32.411,ABILENE,TX
250,13963,67.8,81.1,318.7,-92.233,34.747,LITTLE ROCK,AR
251,13964,67.8,80.8,322.4,-94.365,35.334,FORT SMITH,AR
252,13966,67.1,80.0,323.1,-98.493,33.979,WICHITA FALLS,TX
253,13967,67.2,79.0,337.9,-97.600,35.389,OKLAHOMA CITY,OK
254,13968,68.6,80.8,333.5,-95.886,36.198,TULSA,OK
255,13969,66.5,80.2,312.6,-97.100,36.731,PONCA CITY,OK
256,13970,71.4,81.3,367.4,-91.147,30.537,BATON ROUGE,LA
257,13971,67.5,75.8,389.0,-93.155,36.261,HARRISON,AR
258,13972,70.3,81.6,347.1,-95.402,32.354,TYLER,TX
259,13973,66.0,79.8,310.7,-99.766,30.511,JUNCTION,TX
260,13975,63.6,78.0,301.5,-99.775,36.297,GAGE,OK
261,13976,72.0,81.6,372.4,-91.988,30.205,LAFAYETTE,LA
262,13977,71.0,80.8,368.7,-94.008,33.454,TEXARKANA,AR
263,13978,69.1,79.4,360.0,-90.084,33.496,GREENWOOD,MS
264,13981,67.8,77.8,363.7,-95.484,37.670,CHANUTE,KS
265,13984,63.4,74.9,339.7,-97.652,39.549,CONCORDIA,KS
266,13985,59.9,76.9,267.6,-99.970,37.773,DODGE CITY,KS
267,13986,63.3,78.9,286.7,-97.861,38.068,HUTCHINSON,KS
268,13987,68.1,77.6,371.1,-94.498,37.149,JOPLIN,MO
269,13988,65.9,77.7,337.2,-94.593,39.123,KANSAS CITY,MO
270,13989,65.9,76.5,353.9,-96.190,38.331,EMPORIA,KS
271,13993,65.6,75.2,368.1,-94.907,39.774,ST JOSEPH,MO
272,13994,65.9,77.6,338.5,-90.374,38.753,ST LOUIS,MO
273,13995,66.8,76.3,370.5,-93.390,37.240,SPRINGFIELD,MO
274,13996,66.1,77.0,349.6,-95.626,39.073,TOPEKA,KS
275,13997,67.2,73.3,424.2,-91.769,38.128,ROLLA/VICHY,MO
276,14605,49.7,60.8,335.4,-69.797,44.321,AUGUSTA,ME
277,14606,49.5,59.6,350.2,-68.824,44.808,BANGOR,ME
278,14607,47.2,57.9,339.7,-68.033,46.867,CARIBOU,ME
279,14609,47.5,56.9,359.4,-67.792,46.123,HOULTON,ME
280,14610,48.6,60.1,328.6,-68.686,45.648,MILLINOCKET,ME
281,14702,53.3,63.9,345.3,-71.289,42.470,BEDFORD,MA
282,14707,56.6,64.3,392.7,-72.049,41.328,GROTON NEW LONDON,CT
283,14710,52.8,66.1,307.0,-71.438,42.933,MANCHESTER,NH
284,14711,62.4,72.9,353.3,-76.763,40.194,HARRISBURG,PA
285,14712,61.0,71.5,352.0,-75.959,40.373,READING,PA
286,14719,58.4,64.8,415.5,-72.632,40.844,WESTHAMPTON BEACH,NY
287,14732,57.4,71.3,302.7,-73.881,40.779,NEW YORK,NY
288,14733,55.9,65.6,360.7,-78.736,42.941,BUFFALO,NY
289,14734,59.3,72.6,312.0,-74.169,40.716,NEWARK,NJ
290,14735,55.1,66.8,331.1,-73.803,42.748,ALBANY,NY
291,14736,60.0,68.3,384.7,-78.317,40.300,ALTOONA,PA
292,14737,60.4,70.6,356.3,-75.449,40.651,ALLENTOWN,PA
293,14739,54.0,64.7,344.6,-71.011,42.361,BOSTON,MA
294,14740,55.4,67.5,325.5,-72.683,41.938,WINDSOR LOCKS,CT
295,14742,53.0,64.9,326.1,-73.150,44.468,BURLINGTON,VT
296,14745,52.5,63.8,334.8,-71.501,43.195,CONCORD,NH
297,14747,57.6,64.3,410.0,-79.272,42.493,DUNKIRK,NY
298,14748,58.9,65.5,411.8,-76.892,42.159,ELMIRA/CORNING,NY
299,14750,54.5,64.4,356.3,-73.610,43.341,GLENS FALLS,NY
300,14751,61.6,71.9,355.1,-76.851,40.217,HARRISBURG,PA
301,14752,56.0,67.5,334.2,-72.651,41.736,HARTFORD,CT
302,14756,55.7,62.7,403.8,-70.061,41.253,NANTUCKET,MA
303,14757,57.6,67.7,355.7,-73.884,41.627,POUGHKEEPSIE,NY
304,14758,57.5,66.4,373.6,-72.887,41.264,NEW HAVEN,CT
305,14762,58.2,69.8,334.2,-79.922,40.355,PITTSBURGH,PA
306,14763,54.6,62.1,394.6,-73.289,42.427,PITTSFIELD,MA
307,14764,52.7,61.6,371.1,-70.304,43.642,PORTLAND,ME
308,14765,55.5,66.4,342.8,-71.433,41.722,PROVIDENCE,RI
309,14768,56.5,65.9,365.6,-77.677,43.117,ROCHESTER,NY
310,14770,62.0,70.4,384.1,-76.864,40.821,SELINSGROVE,PA
311,14771,58.0,66.0,388.4,-76.103,43.109,SYRACUSE,NY
312,14775,54.8,66.0,337.9,-72.716,42.158,WESTFIELD/SPRINGFIELD,MA
313,14777,58.5,69.1,349.0,-75.727,41.339,WILKES-BARRE/SCRANTON,PA
314,14778,60.1,69.8,363.1,-76.922,41.243,WILLIAMSPORT,PA
315,14787,56.0,63.7,392.1,-71.284,41.530,NEWPORT,RI
316,14792,60.6,71.5,345.9,-74.814,40.277,TRENTON,NJ
317,14794,56.9,64.5,394.6,-71.799,41.350,WESTERLY,RI
318,14813,60.9,70.7,362.5,-81.464,41.038,AKRON,OH
319,14815,59.1,68.6,365.6,-85.251,42.308,BATTLE CREEK,MI
320,14819,59.4,70.2,346.5,-87.752,41.786,CHICAGO,IL
321,14820,60.1,68.7,380.4,-81.853,41.405,CLEVELAND,OH
322,14821,62.7,71.2,383.5,-82.881,39.991,COLUMBUS,OH
323,14822,57.1,67.8,346.5,-83.010,42.409,DETROIT,MI
324,14825,61.8,70.7,376.7,-83.669,41.014,FINDLAY,OH
325,14826,56.5,67.9,336.0,-83.749,42.967,FLINT,MI
326,14827,62.1,69.7,397.0,-85.206,41.006,FORT WAYNE,IN
327,14829,61.2,69.0,393.3,-85.792,41.527,GOSHEN,IN
328,14833,58.9,66.6,393.9,-84.459,42.260,JACKSON,MI
329,14835,62.9,70.2,402.6,-86.937,40.412,LAFAYETTE,IN
330,14836,57.4,66.4,372.4,-84.579,42.780,LANSING,MI
331,14837,56.4,67.1,345.9,-89.345,43.141,MADISON,WI
332,14839,53.8,63.8,354.5,-87.897,42.947,MILWAUKEE,WI
333,14840,55.4,65.8,349.6,-86.237,43.171,MUSKEGON,MI
334,14841,50.5,60.7,349.6,-84.796,45.571,PELLSTON,MI
335,14842,63.5,74.1,352.0,-89.684,40.668,PEORIA,IL
336,14845,55.7,67.3,332.9,-84.080,43.533,SAGINAW,MI
337,14847,48.3,58.8,343.4,-84.367,46.467,SAULT STE MARIE,MI
338,14848,60.7,69.4,379.2,-86.333,41.707,SOUTH BEND,IN
339,14850,52.9,62.7,357.0,-85.583,44.741,TRAVERSE CITY,MI
340,14852,60.2,67.1,407.5,-80.674,41.254,YOUNGSTOWN/WARREN,OH
341,14853,58.8,70.8,329.2,-83.230,42.237,DETROIT,MI
342,14858,48.7,57.6,368.7,-88.506,47.169,HANCOCK,MI
343,14860,57.2,66.9,361.3,-80.183,42.080,ERIE,PA
344,14880,56.7,63.3,411.2,-87.868,42.422,CHICAGO/WAUKEGAN,IL
345,14891,61.9,68.9,406.9,-82.518,40.820,MANSFIELD,OH
346,14894,61.6,69.4,393.9,-80.647,40.176,WHEELING,WV
347,14895,60.4,70.2,361.9,-81.443,40.918,AKRON,OH
348,14897,53.7,64.3,345.9,-89.627,44.929,WAUSAU,WI
349,14898,55.1,65.2,353.9,-88.120,44.513,GREEN BAY,WI
350,14910,55.4,66.3,342.2,-95.393,45.883,ALEXANDRIA,MN
351,14913,50.7,60.9,349.6,-92.194,46.844,DULUTH,MN
352,14914,55.5,67.2,331.1,-96.811,46.925,FARGO,ND
353,14916,54.7,65.0,350.8,-97.176,47.949,GRAND FORKS,ND
354,14918,50.7,59.9,365.0,-93.403,48.566,INTERNATIONAL FALLS,MN
355,14919,54.8,66.7,328.0,-98.678,46.930,JAMESTOWN,ND
356,14920,57.9,69.9,328.6,-91.256,43.754,LA CROSSE,WI
357,14921,57.5,67.6,355.7,-90.181,43.212,LONE ROCK,WI
358,14922,56.6,69.7,312.6,-93.229,44.883,MINNEAPOLIS,MN
359,14923,61.7,71.4,364.4,-90.523,41.465,MOLINE,IL
360,14925,57.9,67.3,366.2,-92.492,43.904,ROCHESTER,MN
361,14926,55.9,66.2,351.4,-94.052,45.545,ST CLOUD,MN
362,14927,57.6,68.6,342.8,-93.048,44.930,ST PAUL,MN
363,14929,56.6,69.0,322.4,-98.421,45.450,ABERDEEN,SD
364,14931,65.4,72.3,410.0,-91.125,40.783,BURLINGTON,IA
365,14933,61.8,73.1,340.9,-93.666,41.538,DES MOINES,IA
366,14935,60.6,71.5,345.9,-98.313,40.958,GRAND ISLAND,NE
367,14936,58.1,69.4,338.5,-98.229,44.385,HURON,SD
368,14937,62.3,71.2,376.7,-91.543,41.633,IOWA CITY,IA
369,14939,62.2,73.4,342.8,-96.764,40.831,LINCOLN,NE
370,14940,59.4,69.0,364.4,-93.331,43.158,MASON CITY,IA
371,14941,60.6,70.9,354.5,-97.437,41.981,NORFOLK,NE
372,14942,62.8,73.4,352.0,-95.899,41.310,OMAHA,NE
373,14943,59.5,71.7,327.4,-96.379,42.391,SIOUX CITY,IA
374,14944,58.6,68.5,359.4,-96.754,43.577,SIOUX FALLS,SD
375,14946,56.4,67.1,345.9,-97.154,44.931,WATERTOWN,SD
376,14950,64.5,71.2,413.1,-92.448,41.107,OTTUMWA,IA
377,14972,59.2,69.3,357.0,-95.202,43.164,SPENCER,IA
378,14990,62.7,69.2,415.5,-91.709,41.884,CEDAR RAPIDS,IA
379,14991,55.5,66.5,340.9,-91.485,44.865,EAU CLAIRE,WI
380,14992,57.3,69.9,320.0,-95.082,44.547,REDWOOD FALLS,MN
381,21504,68.4,76.8,387.8,-155.051,19.723,HILO,HI
382,21510,68.5,80.2,340.3,-156.049,19.736,KAILUA/KONA,HI
383,22010,69.4,81.5,335.4,-100.922,29.367,DEL RIO,TX
384,22516,67.3,78.6,345.3,-156.433,20.902,KAHULUI,HI
385,22519,68.7,78.4,368.7,-157.768,21.451,KANEOHE,HI
386,22521,66.8,80.8,308.9,-157.943,21.328,HONOLULU,HI
387,22536,67.8,78.4,355.1,-159.341,21.979,LIHUE,HI
388,22551,65.5,77.6,332.9,-158.067,21.317,KAPOLEI,HI
389,23007,63.9,80.0,281.1,-100.288,34.434,CHILDRESS,TX
390,23023,61.6,79.8,255.9,-102.208,31.932,MIDLAND,TX
391,23034,65.7,79.5,310.7,-100.494,31.351,SAN ANGELO,TX
392,23040,60.8,82.0,223.8,-103.201,31.780,WINK,TX
393,23042,62.1,77.3,290.4,-101.821,33.668,LUBBOCK,TX
394,23044,47.0,84.5,90.7,-106.376,31.811,EL PASO,TX
395,23047,60.3,75.0,295.3,-101.706,35.219,AMARILLO,TX
396,23049,41.8,70.9,138.8,-106.089,35.617,SANTA FE,NM
397,23050,43.6,77.6,107.9,-106.616,35.042,ALBUQUERQUE,NM
398,23051,54.8,72.8,251.6,-103.154,36.446,CLAYTON,NM
399,23052,49.9,66.8,260.2,-104.502,36.741,RATON,NM
400,23054,48.3,65.0,260.8,-105.143,35.654,LAS VEGAS,NM
401,23055,53.3,75.2,210.3,-104.809,31.831,GUADALUPE PASS,TX
402,23061,39.6,63.1,181.9,-105.866,37.436,ALAMOSA,CO
403,23064,60.0,76.4,274.4,-100.725,37.927,GARDEN CITY,KS
404,23065,58.5,72.7,300.3,-101.693,39.368,GOODLAND,KS
405,23066,39.2,74.1,98.1,-108.538,39.134,GRAND JUNCTION,CO
406,23067,55.6,75.6,231.2,-103.527,38.051,LA JUNTA,CO
407,23070,49.7,71.0,212.7,-104.341,37.259,TRINIDAD,CO
408,23078,43.6,79.9,94.4,-107.721,32.262,DEMING,NM
409,23081,37.6,67.0,132.6,-108.789,35.511,GALLUP,NM
410,23090,40.9,71.1,130.1,-108.229,36.744,FARMINGTON,NM
411,23091,61.6,79.1,263.3,-102.912,30.915,FORT STOCKTON,TX
412,23110,45.7,79.8,109.2,-119.950,36.333,LEMOORE,CA
413,23129,58.9,71.8,316.9,-118.163,33.828,LONG BEACH,CA
414,23130,54.4,75.5,218.9,-118.489,34.210,VAN NUYS,CA
415,23136,56.4,66.7,352.0,-119.083,34.217,CAMARILLO,CA
416,23152,55.5,74.2,244.8,-118.359,34.201,BURBANK,CA
417,23153,25.4,74.2,23.5,-117.087,38.060,TONOPAH,NV
418,23155,44.2,83.3,80.2,-119.056,35.434,BAKERSFIELD,CA
419,23157,31.3,75.9,43.8,-118.363,37.373,BISHOP,CA
420,23158,45.2,91.8,47.5,-114.717,33.619,BLYTHE,CA
421,23159,35.4,59.2,175.1,-112.146,37.706,BRYCE CANYON,UT
422,23160,43.7,91.0,43.8,-110.955,32.131,TUCSON,AZ
423,23161,31.2,87.6,5.6,-116.787,34.854,DAGGETT,CA
424,23169,29.6,91.9,0.0,-115.155,36.079,LAS VEGAS,NV
425,23174,59.2,66.3,403.8,-118.406,33.938,LOS ANGELES,CA
426,23176,33.9,72.9,71.0,-113.028,38.443,MILFORD,UT
427,23179,33.0,78.9,40.1,-114.623,34.766,NEEDLES,CA
428,23182,38.3,79.7,63.6,-118.084,34.629,PALMDALE,CA
429,23183,43.9,94.0,34.0,-111.990,33.443,PHOENIX,AZ
430,23184,37.4,74.5,83.9,-112.421,34.652,PRESCOTT,AZ
431,23185,35.5,74.1,74.7,-119.771,39.484,RENO,NV
432,23187,36.6,75.5,74.0,-118.724,34.744,SANDBERG,CA
433,23188,58.3,68.8,350.2,-117.169,32.735,SAN DIEGO,CA
434,23190,56.9,64.6,392.7,-119.844,34.426,SANTA BARBARA,CA
435,23191,52.2,66.3,295.9,-118.416,33.405,AVALON,CA
436,23194,39.7,75.9,91.3,-110.722,35.022,WINSLOW,AZ
437,23199,47.0,89.2,67.9,-115.667,32.817,EL CENTRO,CA
438,23213,51.6,67.0,279.3,-122.812,38.509,SANTA ROSA,CA
439,23225,36.0,68.0,112.9,-120.708,39.292,EMIGRANT GAP,CA
440,23230,52.8,63.3,346.5,-122.221,37.755,OAKLAND,CA
441,23232,52.8,76.2,196.1,-121.493,38.513,SACRAMENTO,CA
442,23233,52.3,62.4,352.0,-121.605,36.663,SALINAS,CA
443,23234,52.3,62.8,345.9,-122.398,37.620,SAN FRANCISCO,CA
444,23237,52.3,76.2,191.2,-121.237,37.894,STOCKTON,CA
445,23244,55.1,66.8,331.1,-122.048,37.415,MOUNTAIN VIEW,CA
446,23254,50.6,73.0,202.9,-122.052,37.992,CONCORD,CA
447,23257,50.0,77.7,157.3,-120.513,37.285,MERCED,CA
448,23258,47.8,79.5,126.4,-120.953,37.626,MODESTO,CA
449,23259,51.7,61.0,363.7,-121.845,36.588,MONTEREY,CA
450,23273,54.4,64.0,361.3,-120.465,34.916,SANTA MARIA,CA
451,23275,48.8,74.4,172.7,-123.201,39.126,UKIAH,CA
452,23277,53.2,62.2,369.9,-121.789,36.936,WATSONVILLE,CA
453,23285,50.9,73.5,201.6,-121.817,37.694,LIVERMORE,CA
454,23293,53.8,67.8,299.0,-121.928,37.362,SAN JOSE,CA
455,24011,54.9,66.4,333.5,-100.748,46.774,BISMARCK,ND
456,24012,53.5,64.4,340.9,-102.802,46.797,DICKINSON,ND
457,24013,52.1,65.2,309.5,-101.281,48.259,MINOT,ND
458,24017,58.5,68.9,352.0,-103.095,42.838,CHADRON,NE
459,24018,50.4,65.7,279.3,-104.807,41.158,CHEYENNE,WY
460,24021,46.3,67.5,210.3,-108.733,42.817,LANDER,WY
461,24022,44.0,61.2,250.9,-105.674,41.313,LARAMIE,WY
462,24023,59.7,70.6,345.3,-100.668,41.122,NORTH PLATTE,NE
463,24025,58.3,69.1,345.9,-100.286,44.383,PIERRE,SD
464,24027,38.8,66.0,149.9,-109.065,41.594,ROCK SPRINGS,WY
465,24028,56.8,70.8,300.9,-103.595,41.874,SCOTTSBLUFF,NE
466,24029,53.2,66.0,314.4,-106.976,44.774,SHERIDAN,WY
467,24032,57.9,69.1,339.7,-100.551,42.859,VALENTINE,NE
468,24033,49.8,70.0,223.8,-108.543,45.808,BILLINGS,MT
469,24036,48.7,64.4,273.1,-109.467,47.049,LEWISTOWN,MT
470,24037,52.7,69.4,264.5,-105.886,46.428,MILES CITY,MT
471,24044,57.6,67.9,352.7,-102.800,42.057,ALLIANCE,NE
472,24046,41.6,64.2,192.4,-107.521,40.495,CRAIG,CO
473,24048,46.8,73.0,165.9,-108.082,44.517,GREYBULL,WY
474,24057,39.8,64.7,170.2,-107.200,41.806,RAWLINS,WY
475,24061,46.3,68.3,202.9,-108.459,43.064,RIVERTON,WY
476,24089,49.3,66.4,257.1,-106.473,42.898,CASPER,WY
477,24090,57.8,67.1,368.1,-103.054,44.046,RAPID CITY,SD
478,24091,58.8,71.5,320.0,-101.620,40.510,IMPERIAL,NE
479,24110,42.8,74.7,120.3,-119.319,47.208,MOSES LAKE,WA
480,24121,35.1,69.8,95.6,-115.792,40.825,ELKO,NV
481,24126,43.1,74.9,120.9,-112.011,41.196,OGDEN,UT
482,24127,45.9,77.5,125.2,-111.968,40.787,SALT LAKE CITY,UT
483,24130,45.4,64.3,233.7,-117.810,44.838,BAKER CITY,OR
484,24131,43.0,75.9,114.1,-116.220,43.565,BOISE,ID
485,24132,46.4,64.7,241.1,-111.152,45.794,BOZEMAN,MT
486,24133,45.6,68.9,189.9,-113.772,42.543,BURLEY,ID
487,24135,39.5,61.4,196.7,-112.513,45.953,BUTTE,MT
488,24137,43.3,62.5,228.1,-112.376,48.608,CUT BANK,MT
489,24138,43.4,64.6,207.8,-112.552,45.255,DILLON,MT
490,24141,41.2,77.1,94.4,-119.514,47.304,EPHRATA,WA
491,24143,44.8,65.2,217.0,-111.382,47.473,GREAT FALLS,MT
492,24144,43.3,69.6,161.6,-111.964,46.606,HELENA,MT
493,24145,46.0,68.7,195.5,-112.067,43.516,IDAHO FALLS,ID
494,24146,44.2,65.0,212.1,-114.264,48.304,KALISPELL,MT
495,24149,45.1,75.2,134.4,-117.014,46.375,LEWISTON,ID
496,24150,46.0,66.3,219.5,-110.448,45.699,LIVINGSTON,MT
497,24152,42.1,60.7,233.7,-118.425,45.511,MEACHAM,OR
498,24153,41.3,67.9,157.3,-114.093,46.921,MISSOULA,MT
499,24154,37.6,60.1,189.3,-115.645,47.457,MULLAN PASS,ID
500,24155,41.2,72.8,120.9,-118.834,45.698,PENDLETON,OR
501,24156,45.1,68.3,190.5,-112.571,42.920,POCATELLO,ID
502,24157,41.2,71.4,130.1,-117.528,47.621,SPOKANE,WA
503,24160,43.4,76.6,112.3,-118.287,46.095,WALLA WALLA,WA
504,24162,43.8,77.0,112.9,-117.013,44.021,ONTARIO,OR
505,24163,47.7,75.3,156.0,-119.118,46.265,PASCO,WA
506,24164,39.2,61.1,196.7,-110.108,42.584,BIG PINEY,WY
507,24172,35.6,73.0,80.8,-118.565,40.066,LOVELOCK,NV
508,24215,44.9,69.9,173.9,-122.333,41.333,MOUNT SHASTA,CA
509,24216,50.4,82.7,125.2,-122.254,40.152,RED BLUFF,CA
510,24217,52.3,64.1,327.4,-122.537,48.794,BELLINGHAM,WA
511,24219,47.8,78.5,133.2,-121.167,45.619,THE DALLES,OR
512,24220,43.8,73.0,140.0,-120.530,47.034,ELLENSBURG,WA
513,24221,50.1,67.2,257.7,-123.214,44.133,EUGENE,OR
514,24222,49.2,63.9,286.1,-122.280,47.908,EVERETT,WA
515,24225,47.7,74.8,159.7,-122.871,42.389,MEDFORD,OR
516,24227,49.2,65.1,271.3,-122.903,46.973,OLYMPIA,WA
517,24229,51.7,70.3,242.3,-122.600,45.591,PORTLAND,OR
518,24230,40.5,65.8,167.1,-121.150,44.254,REDMOND,OR
519,24231,49.6,72.1,201.0,-123.355,43.239,ROSEBURG,OR
520,24232,49.5,69.4,226.9,-122.995,44.908,SALEM,OR
521,24233,49.2,67.7,241.1,-122.314,47.461,SEATTLE,WA
522,24234,48.8,69.8,214.6,-122.301,47.530,SEATTLE,WA
523,24235,45.7,65.6,223.2,-123.381,42.617,SEXTON SUMMIT,OR
524,24242,51.2,69.6,244.2,-122.400,45.549,PORTLAND,OR
525,24243,43.5,74.9,124.0,-120.534,46.564,YAKIMA,WA
526,24255,52.7,60.5,388.4,-122.650,48.350,WHIDBEY ISLAND,WA
527,24257,48.8,84.5,102.4,-122.313,40.515,REDDING,CA
528,24259,43.4,72.0,143.7,-122.468,41.781,MONTAGUE,CA
529,24283,51.8,55.6,459.9,-124.109,40.978,ARCATA/EUREKA,CA
530,24286,51.7,55.4,461.8,-124.237,41.780,CRESCENT CITY,CA
531,25308,51.2,58.5,396.4,-131.570,55.043,ANNETTE,AK
532,25309,48.6,57.0,376.7,-134.575,58.355,JUNEAU,AK
533,25323,48.5,58.2,355.7,-135.520,59.245,HAINES,AK
534,25325,49.6,57.8,380.4,-131.712,55.357,KETCHIKAN,AK
535,25331,43.3,58.3,277.4,-149.092,61.596,PALMER,AK
536,25333,49.0,55.3,412.4,-135.360,57.048,SITKA,AK
537,25335,46.6,59.5,307.7,-135.313,59.460,SKAGWAY,AK
538,25501,47.8,54.4,406.3,-152.492,57.750,KODIAK,AK
539,25503,45.5,56.4,335.4,-156.654,58.684,KING SALMON,AK
540,25506,45.9,55.4,357.0,-154.915,59.753,ILIAMNA,AK
541,25507,46.0,57.8,322.4,-151.477,59.647,HOMER,AK
542,25516,46.8,53.7,400.7,-151.702,59.443,SELDOVIA,AK
543,25628,41.0,44.7,458.7,-169.565,56.600,ST. GEORGE ISLAND,AK
544,26409,44.7,60.4,269.4,-149.855,61.217,ANCHORAGE,AK
545,26410,45.9,52.3,408.7,-145.451,60.489,CORDOVA,AK
546,26411,42.8,59.8,252.2,-147.855,64.817,FAIRBANKS,AK
547,26412,39.8,56.9,248.5,-141.946,62.961,NORTHWAY,AK
548,26415,40.3,58.2,239.8,-145.718,63.995,DELTA JUNCTION/FT GREELY,AK
549,26422,41.0,55.8,277.4,-141.148,64.777,EAGLE,AK
550,26425,38.4,56.8,232.5,-145.458,62.160,GULKANA,AK
551,26435,43.6,59.5,266.4,-149.072,64.550,NENANA,AK
552,26438,47.2,54.4,395.8,-149.417,60.128,SEWARD,AK
553,26451,45.2,59.5,287.9,-149.993,61.175,ANCHORAGE,AK
554,26491,45.0,59.8,281.1,-149.961,61.179,ANCHORAGE,AK
555,26492,44.7,52.3,387.2,-148.839,60.785,PORTAGE GLACIER,AK
556,26502,40.7,57.3,255.3,-158.742,64.327,KALTAG,AK
557,26510,42.2,59.3,250.9,-155.603,62.953,MC GRATH,AK
558,26523,45.4,54.5,363.1,-151.239,60.580,KENAI,AK
559,26528,45.1,58.9,294.1,-150.092,62.322,TALKEETNA,AK
560,26529,43.7,57.1,298.4,-152.107,65.174,TANANA,AK
561,26533,38.0,57.6,218.9,-151.509,66.916,BETTLES,AK
562,26615,44.8,57.2,313.2,-161.826,60.786,BETHEL,AK
563,26617,38.7,47.4,365.0,-165.443,64.513,NOME,AK
564,26642,37.7,46.0,371.1,-164.548,67.732,KIVALINA,AK
565,27406,38.0,48.0,343.4,-148.477,70.192,DEADHORSE,AK
566,27502,35.0,40.1,427.9,-156.763,71.287,BARROW,AK
567,27515,39.5,49.5,344.6,-151.002,70.212,NUIQSUT,AK
568,53119,48.1,80.5,122.1,-119.629,36.319,HANFORD,CA
569,53120,53.8,71.0,260.2,-116.917,33.033,RAMONA,CA
570,53121,59.0,67.9,374.8,-117.349,33.219,OCEANSIDE,CA
571,53123,27.2,90.1,0.0,-115.196,36.212,LAS VEGAS,NV
572,53144,33.6,80.2,37.7,-117.865,34.988,EDWARDS,CA
573,53146,40.5,79.0,79.6,-110.428,31.607,FORT HUACHUCA,AZ
574,53802,65.3,72.6,403.8,-88.280,39.478,MATTOON/CHARLESTON,IL
575,53819,68.5,78.7,361.3,-84.567,33.355,ATLANTA,GA
576,53820,70.2,80.0,368.1,-87.044,31.416,EVERGREEN,AL
577,53838,66.1,78.0,336.0,-83.830,34.272,GAINESVILLE,GA
578,53841,63.4,74.1,350.8,-84.903,38.185,FRANKFORT,KY
579,53842,63.0,72.0,375.5,-86.296,39.825,INDIANAPOLIS,IN
580,53844,62.9,71.0,389.6,-82.657,39.756,LANCASTER,OH
581,53847,71.7,82.1,360.7,-87.023,30.704,MILTON,FL
582,53848,71.2,82.6,346.5,-86.960,30.507,MILTON,FL
583,53850,66.0,80.5,302.1,-82.886,34.672,CLEMSON,SC
584,53852,68.0,79.1,348.3,-86.945,34.653,DECATUR,AL
585,53853,73.6,82.3,386.6,-86.472,30.400,DESTIN,FL
586,53854,67.6,81.7,308.3,-80.858,33.462,ORANGEBURG,SC
587,53855,64.3,72.6,387.2,-84.525,39.364,HAMILTON,OH
588,53858,72.7,80.0,407.5,-88.532,30.464,PASCAGOULA,MS
589,53859,63.1,71.6,383.5,-84.226,39.594,DAYTON,OH
590,53860,70.1,83.2,323.1,-81.515,30.336,JACKSONVILLE,FL
591,53861,70.0,80.7,355.1,-85.751,31.356,FORT RUCKER/OZARK,AL
592,53863,67.1,79.2,334.2,-84.302,33.875,ATLANTA,GA
593,53864,69.4,79.1,369.3,-86.782,33.178,ALABASTER,AL
594,53865,73.2,80.7,404.4,-89.821,30.345,SLIDELL,LA
595,53866,64.0,73.9,362.5,-85.803,39.578,SHELBYVILLE,IN
596,53867,67.2,82.9,288.5,-80.996,33.971,COLUMBIA,SC
597,53868,65.7,78.6,322.4,-84.233,36.023,OAK RIDGE,TN
598,53869,69.6,80.6,350.8,-89.831,35.940,BLYTHEVILLE,AR
599,53870,64.9,79.4,301.5,-81.156,35.197,GASTONIA,NC
600,53871,66.7,79.2,328.0,-81.058,34.987,ROCK HILL,SC
601,53872,65.3,80.3,295.3,-80.621,35.017,MONROE,NC
602,53873,66.9,77.0,361.9,-84.849,34.123,CARTERSVILLE,GA
603,53874,67.7,79.6,337.2,-82.159,34.249,GREENWOOD,SC
604,53879,65.6,75.7,360.7,-94.371,38.960,LEE'S SUMMIT,MO
605,53901,66.2,75.1,379.2,-91.903,36.878,WEST PLAINS,MO
606,53902,69.9,80.4,357.6,-95.414,30.352,CONROE,TX
607,53903,71.3,81.5,363.1,-95.587,30.747,HUNTSVILLE,TX
608,53904,67.2,75.4,390.3,-90.428,38.929,ST CHARLES,MO
609,53905,69.8,81.5,340.9,-93.744,32.540,SHREVEPORT,LA
610,53907,67.2,82.4,294.7,-97.094,32.664,ARLINGTON,TX
611,53908,68.1,79.6,342.8,-95.984,36.039,TULSA,OK
612,53909,68.6,81.6,323.1,-97.318,32.973,FORT WORTH,TX
613,53910,72.0,81.9,367.4,-95.553,30.062,HOUSTON,TX
614,53911,70.9,81.3,360.0,-96.267,32.710,TERRELL,TX
615,53912,70.7,82.0,347.1,-96.398,32.027,CORSICANA,TX
616,53913,66.7,80.3,313.8,-97.416,35.850,GUTHRIE,OK
617,53914,69.3,80.9,342.2,-96.590,33.180,MC KINNEY,TX
618,53915,72.8,82.0,378.5,-91.884,30.038,NEW IBERIA,LA
619,53916,66.8,75.2,387.2,-93.579,39.823,CHILLICOTHE,MO
620,53917,71.6,85.5,313.8,-90.028,30.043,NEW ORLEANS,LA
621,53918,67.9,76.3,387.8,-92.470,36.369,MOUNTAIN HOME,AR
622,53919,71.2,80.2,380.4,-91.751,33.638,MONTICELLO,AR
623,53920,69.7,79.5,368.1,-93.095,35.258,RUSSELLVILLE,AR
624,53921,69.3,78.6,374.8,-93.578,34.547,MOUNT IDA,AR
625,53922,68.3,77.3,378.5,-94.307,36.282,FAYETTEVILLE/SPRINGDALE,AR
626,53925,71.0,79.2,392.7,-94.399,34.047,DE QUEEN,AR
627,53988,70.8,83.2,332.3,-92.967,31.150,FORT POLK,LA
628,54704,54.7,63.2,378.5,-71.174,42.191,NORWOOD,MA
629,54728,50.9,60.2,363.7,-71.545,44.368,WHITEFIELD,NH
630,54733,52.8,62.9,352.7,-70.918,42.584,BEVERLY,MA
631,54734,55.4,65.7,351.4,-73.483,41.371,DANBURY,CT
632,54737,62.2,70.6,384.7,-76.294,40.120,LANCASTER,PA
633,54740,53.0,62.6,360.0,-72.518,43.344,SPRINGFIELD,VT
634,54742,50.6,62.3,327.4,-72.019,44.419,SAINT JOHNSBURY,VT
635,54743,57.9,69.5,334.2,-74.283,40.876,CALDWELL,NJ
636,54756,53.9,63.5,360.7,-72.291,42.570,ORANGE,MA
637,54757,55.8,63.7,389.0,-77.992,42.109,WELLSVILLE,NY
638,54767,55.9,66.1,353.3,-72.184,41.742,WILLIMANTIC,CT
639,54768,54.7,63.5,373.6,-73.171,42.696,NORTH ADAMS,MA
640,54769,55.5,62.7,400.1,-70.729,41.910,PLYMOUTH,MA
641,54770,52.7,62.4,358.2,-72.004,42.805,JAFFREY,NH
642,54771,52.4,62.7,349.0,-72.614,44.534,MORRISVILLE,VT
643,54772,51.3,61.3,352.7,-70.948,43.991,FRYEBURG,ME
644,54773,56.1,64.1,387.2,-76.385,43.350,FULTON,NY
645,54777,55.1,64.0,372.4,-71.021,41.876,TAUNTON,MA
646,54778,57.6,65.7,386.6,-77.056,42.643,PENN YAN,NY
647,54779,60.1,67.5,399.5,-74.737,41.009,ANDOVER,NJ
648,54780,57.8,65.9,386.6,-71.923,41.073,MONTAUK,NY
649,54781,54.8,63.1,381.6,-73.247,42.891,BENNINGTON,VT
650,54782,62.3,70.1,393.9,-75.557,40.238,POTTSTOWN,PA
651,54786,60.4,69.5,372.4,-75.123,40.330,DOYLESTOWN,PA
652,54787,59.1,69.5,352.0,-73.417,40.734,FARMINGDALE,NY
653,54788,56.2,67.1,342.8,-72.828,41.510,MERIDEN,CT
654,54790,58.7,67.1,382.2,-72.869,40.822,SHIRLEY,NY
655,54791,52.0,63.8,327.4,-70.922,43.278,ROCHESTER,NH
656,54792,59.5,66.7,402.6,-78.412,41.047,CLEARFIELD,PA
657,54793,58.6,67.0,382.2,-74.623,41.200,SUSSEX,NJ
658,54813,48.1,57.0,368.1,-86.651,46.429,MUNISING,MI
659,63870,70.2,79.8,371.1,-86.312,31.043,FLORALA,AL
660,63872,70.5,81.7,348.3,-85.129,31.951,EUFAULA,AL
661,63874,68.6,80.0,344.6,-86.611,31.846,GREENVILLE,AL
662,64775,56.4,64.4,387.8,-75.412,43.234,ROME,NY
663,64776,53.8,62.0,382.9,-73.468,44.651,PLATTSBURG,NY
664,73805,72.0,80.6,387.2,-85.788,30.349,PANAMA CITY,FL
665,92805,72.9,83.3,361.3,-80.108,26.250,POMPANO BEACH,FL
666,92806,72.5,83.6,351.4,-82.628,27.765,ST PETERSBURG,FL
667,92809,72.3,83.7,347.1,-80.241,25.999,HOLLYWOOD,FL
668,93005,41.4,64.3,189.3,-107.760,37.143,DURANGO,CO
669,93009,31.7,52.7,197.9,-106.316,39.228,LEADVILLE,CO
670,93010,55.2,66.0,344.0,-103.716,39.189,LIMON,CO
671,93013,39.7,71.8,116.0,-107.898,38.505,MONTROSE,CO
672,93026,42.9,80.0,89.4,-109.604,31.469,DOUGLAS BISBEE,AZ
673,93027,37.4,72.9,93.1,-109.379,34.518,ST JOHNS,AZ
674,93037,50.2,68.5,244.2,-104.711,38.812,COLORADO SPRINGS,CO
675,93042,57.4,76.2,245.4,-102.547,36.023,DALHART,TX
676,93045,44.3,79.8,99.3,-107.268,33.237,TRUTH OR CONSEQUENCES,NM
677,93058,53.2,72.9,231.8,-104.498,38.290,PUEBLO,CO
678,93067,50.4,68.3,249.1,-104.849,39.570,DENVER,CO
679,93069,41.8,67.3,167.1,-108.628,37.303,CORTEZ,CO
680,93073,37.7,62.4,169.6,-106.868,39.223,ASPEN,CO
681,93075,38.0,77.0,74.7,-109.754,38.755,MOAB,UT
682,93084,43.2,85.5,64.2,-109.635,32.855,SAFFORD,AZ
683,93102,36.1,73.6,80.8,-118.700,39.417,FALLON,NV
684,93104,30.9,83.9,14.9,-117.683,35.683,CHINA LAKE,CA
685,93110,56.7,65.3,377.9,-119.206,34.201,OXNARD,CA
686,93112,59.6,66.4,409.4,-117.200,32.700,SAN DIEGO,CA
687,93115,59.5,66.5,405.7,-117.117,32.567,IMPERIAL BEACH,CA
688,93129,33.0,70.1,80.2,-113.097,37.702,CEDAR CITY,UT
689,93134,58.5,70.6,328.0,-118.296,34.028,LOS ANGELES,CA
690,93138,47.7,91.0,63.6,-116.505,33.828,PALM SPRINGS,CA
691,93141,34.2,72.7,74.0,-110.750,39.545,PRICE,UT
692,93167,34.3,80.7,39.5,-113.937,35.259,KINGMAN,AZ
693,93184,59.1,69.7,349.6,-117.866,33.680,SANTA ANA,CA
694,93193,46.8,82.0,103.6,-119.719,36.780,FRESNO,CA
695,93197,58.5,65.7,402.0,-118.451,34.016,SANTA MONICA,CA
696,93205,52.9,78.7,175.1,-121.570,39.098,MARYSVILLE,CA
697,93206,52.5,64.8,320.6,-120.641,35.237,SAN LUIS OBISPO,CA
698,93209,46.7,73.3,162.8,-120.627,35.673,PASO ROBLES,CA
699,93210,52.8,80.4,160.9,-121.618,39.490,OROVILLE,CA
700,93225,53.6,76.0,205.9,-121.590,38.696,SACRAMENTO,CA
701,93227,53.6,64.7,338.5,-122.280,38.213,NAPA,CA
702,93228,53.8,65.3,332.9,-122.121,37.659,HAYWARD,CA
703,93230,37.6,61.6,175.7,-119.995,38.894,SOUTH LAKE TAHOE,CA
704,93241,51.9,76.4,185.0,-121.961,38.377,VACAVILLE,CA
705,93242,49.4,79.4,139.4,-120.111,36.988,MADERA,CA
706,93706,62.0,69.5,398.9,-77.730,39.708,HAGERSTOWN,MD
707,93718,72.0,80.6,387.2,-78.721,33.816,NORTH MYRTLE BEACH,SC
708,93720,66.5,74.2,397.6,-75.510,38.341,SALISBURY,MD
709,93721,64.0,74.2,358.2,-76.684,39.172,BALTIMORE,MD
710,93727,70.1,80.1,365.0,-77.433,34.700,NEW RIVER,NC
711,93729,71.3,79.1,398.9,-75.623,35.232,CAPE HATTERAS,NC
712,93730,62.8,71.9,374.2,-74.457,39.458,ATLANTIC CITY,NJ
713,93736,64.8,74.5,366.2,-78.453,38.139,CHARLOTTESVILLE,VA
714,93738,64.0,73.4,369.9,-77.448,38.935,WASHINGTON,DC
715,93739,68.5,75.2,414.9,-75.496,37.941,WALLOPS ISLAND,VA
716,93740,68.4,81.1,326.8,-78.880,34.991,FAYETTEVILLE,NC
717,93741,68.3,80.9,328.0,-76.493,37.132,NEWPORT NEWS,VA
718,93759,68.7,79.8,349.0,-77.893,35.855,ROCKY MOUNT,NC
719,93762,62.0,70.4,384.1,-77.43333,39.73333,SITE R,PA
720,93765,73.4,79.5,427.2,-76.661,34.734,BEAUFORT,NC
721,93773,68.3,78.2,365.6,-77.007,36.984,WAKEFIELD,VA
722,93775,66.2,75.8,368.7,-77.434,37.708,RICHMOND/ASHLAND,VA
723,93778,63.1,70.9,394.6,-76.874,39.918,YORK,PA
724,93780,61.6,71.4,362.5,-74.841,39.941,MOUNT HOLLY,NJ
725,93782,68.1,80.1,336.0,-79.366,34.792,MAXTON,NC
726,93783,66.7,78.6,336.0,-79.477,36.047,BURLINGTON,NC
727,93784,63.1,76.3,316.3,-76.610,39.281,BALTIMORE,MD
728,93785,64.9,78.9,307.7,-79.064,35.933,CHAPEL HILL,NC
729,93786,66.1,72.9,412.4,-75.124,38.308,OCEAN CITY,MD
730,93801,67.1,78.7,340.9,-85.161,34.348,ROME,GA
731,93805,71.6,82.3,356.3,-84.353,30.393,TALLAHASSEE,FL
732,93806,68.8,80.4,341.6,-87.616,33.212,TUSCALOOSA,AL
733,93807,64.2,78.2,307.0,-80.222,36.134,WINSTON SALEM,NC
734,93808,65.9,77.3,342.8,-86.436,36.981,BOWLING GREEN,KY
735,93810,67.0,76.0,377.9,-89.250,37.780,CARBONDALE/MURPHYBORO,IL
736,93812,64.1,72.1,392.1,-84.419,39.103,CINCINNATI,OH
737,93814,63.4,72.7,371.1,-84.672,39.043,COVINGTON,KY
738,93815,63.4,72.6,373.0,-84.219,39.906,DAYTON,OH
739,93817,66.1,76.3,359.4,-87.537,38.043,EVANSVILLE,IN
740,93819,62.2,72.6,354.5,-86.272,39.710,INDIANAPOLIS,IN
741,93820,64.3,73.7,370.5,-84.606,38.041,LEXINGTON,KY
742,93821,64.4,77.4,320.0,-85.730,38.177,LOUISVILLE,KY
743,93822,65.9,74.7,380.4,-89.684,39.845,SPRINGFIELD,IL
744,93824,61.5,70.2,379.2,-81.892,39.944,ZANESVILLE,OH
745,93831,71.6,82.6,352.0,-80.717,32.483,BEAUFORT,SC
746,93837,70.0,86.2,284.8,-81.683,30.233,JACKSONVILLE,FL
747,93841,71.1,80.4,376.1,-87.022,30.724,MILTON,FL
748,93842,67.8,80.5,326.1,-84.942,32.516,COLUMBUS,GA
749,93846,66.9,79.4,328.6,-82.709,34.495,ANDERSON,SC
750,93862,68.6,79.2,355.7,-88.771,34.261,TUPELO,MS
751,93874,72.2,81.3,379.8,-89.070,30.407,GULFPORT,MS
752,93909,66.2,76.2,362.5,-94.890,38.831,OLATHE,KS
753,93915,71.6,80.9,376.1,-92.559,31.335,ALEXANDRIA,LA
754,93919,71.7,79.6,397.6,-90.472,31.178,MCCOMB,MS
755,93950,68.9,79.6,354.5,-95.783,34.899,MC ALESTER,OK
756,93953,69.4,79.0,370.5,-95.361,35.657,MUSKOGEE,OK
757,93967,68.4,78.4,364.4,-95.566,37.091,COFFEYVILLE,KS
758,93985,68.3,79.9,341.6,-98.061,32.782,MINERAL WELLS,TX
759,93986,65.3,79.8,301.5,-99.051,35.008,HOBART,OK
760,93987,71.5,83.1,343.4,-94.750,31.234,LUFKIN,TX
761,93988,70.0,80.0,365.0,-91.935,34.175,PINE BLUFF,AR
762,93989,65.5,71.7,421.7,-91.194,39.943,QUINCY,IL
763,93990,60.6,76.4,281.8,-99.830,39.376,HILL CITY,KS
764,93992,70.3,80.1,368.1,-92.813,33.221,EL DORADO,AR
765,93993,68.3,75.2,411.8,-94.170,36.005,FAYETTEVILLE,AR
766,93997,62.1,77.7,285.5,-98.828,38.872,RUSSELL,KS
767,94008,48.8,67.5,238.6,-106.621,48.214,GLASGOW,MT
768,94012,46.5,66.5,222.6,-109.780,48.559,HAVRE,MT
769,94014,50.6,66.4,273.8,-103.642,48.195,WILLISTON,ND
770,94017,50.6,67.7,258.3,-105.574,48.094,WOLF POINT,MT
771,94023,54.3,66.0,330.5,-105.542,44.339,GILLETTE,WY
772,94030,38.7,71.8,108.6,-109.509,40.441,VERNAL,UT
773,94037,54.5,66.4,327.4,-103.546,45.604,BUFFALO,SD
774,94038,54.5,63.9,364.4,-102.655,46.014,HETTINGER,ND
775,94039,56.4,68.4,327.4,-102.518,43.021,PINE RIDGE,SD
776,94040,60.1,73.6,310.1,-100.591,40.206,MC COOK,NE
777,94041,52.5,65.4,312.0,-101.439,47.663,GARRISON,ND
778,94050,41.2,65.7,174.5,-107.885,40.049,MEEKER,CO
779,94051,50.4,67.1,262.7,-106.948,47.326,JORDAN,MT
780,94052,58.2,69.2,342.8,-100.408,45.546,MOBRIDGE,SD
781,94053,55.2,69.7,293.5,-104.153,42.065,TORRINGTON,WY
782,94054,51.3,65.3,296.6,-106.721,44.381,BUFFALO,WY
783,94055,53.2,65.9,315.7,-104.250,46.358,BAKER,MT
784,94056,55.4,66.9,333.5,-102.019,45.032,FAITH,SD
785,94057,53.5,66.7,308.9,-105.386,42.797,DOUGLAS,WY
786,94119,45.4,65.6,219.5,-117.421,47.969,DEER PARK,WA
787,94128,46.9,69.2,200.4,-111.853,41.787,LOGAN,UT
788,94129,46.1,65.3,230.6,-117.109,46.744,PULLMAN/MOSCOW,WA
789,94173,37.5,53.9,254.6,-110.421,44.544,YELLOWSTONE,WY
790,94176,44.3,71.7,154.2,-117.321,47.683,SPOKANE,WA
791,94178,41.1,73.5,115.3,-114.487,42.482,TWIN FALLS,ID
792,94182,41.3,63.3,197.9,-116.102,44.889,MCCALL,ID
793,94185,35.8,66.9,118.4,-118.954,43.592,BURNS,OR
794,94194,44.5,66.4,201.6,-111.881,43.834,REXBURG,ID
795,94197,42.7,73.1,130.1,-119.517,48.464,OMAK,WA
796,94224,52.3,59.8,393.3,-123.878,46.158,ASTORIA,OR
797,94225,52.4,59.5,400.1,-123.937,46.971,HOQUIAM,WA
798,94227,50.3,64.6,292.2,-123.148,47.238,SHELTON,WA
799,94236,41.7,66.0,177.0,-121.724,42.147,KLAMATH FALLS,OR
800,94239,40.6,77.6,87.6,-120.207,47.399,WENATCHEE,WA
801,94240,52.3,58.8,410.6,-124.561,47.934,QUILLAYUTE,WA
802,94248,50.7,68.1,254.6,-122.214,47.493,RENTON,WA
803,94261,49.9,67.5,252.2,-122.949,45.541,PORTLAND,OR
804,94266,49.4,59.7,347.1,-123.498,48.120,PORT ANGELES,WA
805,94274,49.1,65.8,261.4,-122.576,47.268,TACOMA,WA
806,94276,49.6,59.7,350.2,-123.023,48.522,FRIDAY HARBOR,WA
807,94281,50.4,68.2,250.3,-122.769,45.249,AURORA,OR
808,94298,49.9,69.3,232.5,-122.657,45.621,VANCOUVER,WA
809,94299,38.6,67.2,139.4,-120.567,41.483,ALTURAS,CA
810,94623,51.3,60.1,371.8,-69.712,43.964,WISCASSET,ME
811,94624,55.4,61.9,411.8,-69.993,41.688,CHATHAM,MA
812,94626,47.5,56.7,363.1,-69.595,45.462,GREENVILLE,ME
813,94700,49.5,59.0,359.4,-71.179,44.576,BERLIN,NH
814,94704,57.8,66.3,380.4,-77.713,42.571,DANSVILLE,NY
815,94705,51.3,59.7,377.9,-72.579,44.203,BARRE/MONTPELIER,VT
816,94720,55.5,62.7,400.1,-70.280,41.669,HYANNIS,MA
817,94723,53.5,64.9,334.2,-71.124,42.717,LAWRENCE,MA
818,94724,55.8,61.7,422.9,-70.615,41.393,VINEYARD HAVEN,MA
819,94725,54.1,63.0,371.8,-74.846,44.936,MASSENA,NY
820,94726,55.4,63.6,383.5,-70.958,41.676,NEW BEDFORD,MA
821,94728,57.6,71.2,307.0,-73.967,40.783,NEW YORK,NY
822,94732,59.5,76.9,262.7,-75.011,40.082,PHILADELPHIA,PA
823,94740,50.8,58.3,392.7,-74.207,44.385,SARANAC LAKE,NY
824,94741,57.3,71.6,297.8,-74.061,40.850,TETERBORO,NJ
825,94746,52.4,64.4,324.3,-71.876,42.267,WORCESTER,MA
826,94765,53.3,63.2,355.7,-72.305,43.626,LEBANON,NH
827,94789,58.9,71.2,325.5,-73.796,40.655,NEW YORK,NY
828,94790,55.2,62.0,406.9,-76.022,43.992,WATERTOWN,NY
829,94814,52.4,61.5,367.4,-84.691,44.368,HOUGHTON LAKE,MI
830,94817,56.8,66.2,365.6,-83.418,42.665,PONTIAC,MI
831,94818,54.4,63.2,373.6,-87.814,42.761,RACINE,WI
832,94822,58.5,69.3,345.9,-89.093,42.196,ROCKFORD,IL
833,94823,61.0,70.4,368.1,-80.231,40.501,PITTSBURGH,PA
834,94830,60.0,68.0,389.6,-83.801,41.589,TOLEDO,OH
835,94846,57.6,67.4,360.0,-87.914,41.986,CHICAGO,IL
836,94847,58.1,68.7,349.0,-83.349,42.215,DETROIT,MI
837,94849,51.3,60.3,368.7,-83.581,45.072,ALPENA,MI
838,94855,54.9,66.2,336.0,-88.557,43.984,OSHKOSH,WI
839,94860,57.4,66.7,367.4,-85.523,42.882,GRAND RAPIDS,MI
840,94870,64.7,72.3,398.3,-88.278,40.040,CHAMPAIGN/URBANA,IL
841,94871,59.1,65.4,417.4,-86.422,42.129,BENTON HARBOR,MI
842,94889,58.8,66.0,402.0,-83.744,42.223,ANN ARBOR,MI
843,94892,58.8,67.7,374.8,-88.246,41.914,CHICAGO/WEST CHICAGO,IL
844,94893,50.5,60.6,350.8,-88.114,45.818,IRON MOUNTAIN/KINGSFORD,MI
845,94895,62.5,71.2,379.8,-85.394,40.234,MUNCIE,IN
846,94898,54.5,60.1,427.2,-82.793,44.022,HARBOR BEACH,MI
847,94899,45.6,54.8,361.3,-87.875,47.467,COPPER HARBOR,MI
848,94908,59.2,67.9,377.9,-90.704,42.398,DUBUQUE,IA
849,94910,60.3,69.4,372.4,-92.401,42.554,WATERLOO,IA
850,94929,53.5,60.1,409.4,-90.919,46.549,ASHLAND,WI
851,94931,50.8,60.1,363.1,-92.839,47.387,HIBBING,MN
852,94938,53.8,64.5,344.0,-94.131,46.405,BRAINERD,MN
853,94946,60.5,70.5,358.8,-99.639,41.437,BROKEN BOW,NE
854,94949,61.5,72.0,352.7,-98.427,40.604,HASTINGS,NE
855,94950,59.6,71.2,335.4,-98.038,43.777,MITCHELL,SD
856,94957,64.9,74.1,373.6,-95.592,40.079,FALLS CITY,NE
857,94958,59.5,69.9,352.7,-98.952,41.624,ORD,NE
858,94960,56.2,69.8,305.8,-93.351,45.063,MINNEAPOLIS,MN
859,94961,52.1,62.4,349.0,-94.610,48.728,BAUDETTE,MN
860,94963,57.2,69.5,324.3,-93.470,44.832,MINNEAPOLIS,MN
861,94967,53.0,65.3,320.6,-95.068,46.901,PARK RAPIDS,MN
862,94971,58.3,68.0,361.9,-94.746,43.408,ESTHERVILLE,IA
863,94973,52.5,62.7,350.8,-91.444,46.026,HAYWARD,WI
864,94978,61.8,73.1,340.9,-96.178,41.764,TEKAMAH,NE
865,94982,61.2,70.7,366.8,-90.591,41.614,DAVENPORT,IA
866,94985,54.1,65.8,329.8,-90.189,44.637,MARSHFIELD,WI
867,94988,61.6,69.3,395.2,-92.918,42.113,MARSHALLTOWN,IA
868,94989,61.1,70.2,373.0,-93.622,41.992,AMES,IA
869,94990,57.1,71.9,291.0,-99.842,43.390,WINNER,SD
870,94991,64.3,73.9,367.4,-93.902,40.633,LAMONI,IA
871,94992,44.2,51.1,399.5,-90.344,47.747,GRAND MARAIS,MN
872,94993,56.7,68.4,331.7,-96.991,45.669,SISSETON,SD
873,94994,58.4,68.1,361.9,-90.678,43.156,BOSCOBEL,WI
