,wban,dewpt,tavg,wp,long,lat,stname,ststate
0,03013,57.5,76.8,240.5,-102.688,38.070,LAMAR,CO
1,03017,46.0,74.1,150.5,-104.658,39.833,DENVER,CO
2,03024,61.9,79.5,262.7,-101.394,35.700,BORGER,TX
3,03026,55.0,73.5,246.6,-102.284,39.245,BURLINGTON,CO
4,03027,48.8,69.7,215.8,-105.663,35.003,CLINES CORNERS,NM
5,03028,56.0,75.3,238.6,-102.614,37.283,SPRINGFIELD,CO
6,03029,46.4,69.7,190.5,-109.061,35.658,WINDOW ROCK,AZ
7,03030,61.2,77.1,281.1,-101.505,36.682,GUYMON,OK
8,03031,57.1,84.8,164.0,-102.387,31.921,ODESSA,TX
9,03032,61.5,87.7,180.1,-102.213,30.048,DRYDEN,TX
10,03102,56.4,81.4,185.0,-117.600,34.056,ONTARIO,CA
11,03103,49.1,65.6,263.9,-111.672,35.140,FLAGSTAFF,AZ
12,03104,54.0,93.5,87.0,-116.160,33.628,PALM SPRINGS,CA
13,03124,57.5,79.3,215.2,-110.344,31.588,FORT HUACHUCA/SIERRA VISTA,AZ
14,03131,62.4,76.1,309.5,-117.139,32.816,SAN DIEGO,CA
15,03144,55.4,96.8,79.0,-115.579,32.834,IMPERIAL,CA
16,03145,61.5,97.8,111.0,-114.617,32.650,YUMA,AZ
17,03159,42.3,83.2,69.7,-118.219,34.741,LANCASTER,CA
18,03162,48.7,81.7,119.0,-111.448,36.926,PAGE,AZ
19,03164,49.8,74.6,180.7,-116.467,32.617,CAMPO,CA
20,03166,62.1,78.8,272.5,-117.979,33.872,FULLERTON,CA
21,03167,62.6,75.7,317.5,-118.334,33.923,HAWTHORNE,CA
22,03170,31.9,70.6,70.3,-116.006,39.601,EUREKA,NV
23,03171,57.3,81.5,193.0,-117.439,33.952,RIVERSIDE,CA
24,03177,64.2,73.2,376.7,-117.279,33.128,CARLSBAD,CA
25,03179,58.6,80.7,213.3,-117.636,33.975,CHINO,CA
26,03184,56.6,94.0,100.5,-112.082,33.688,PHOENIX,AZ
27,03192,57.2,94.5,101.8,-111.911,33.623,SCOTTSDALE,AZ
28,03195,47.7,65.8,244.2,-112.155,35.946,GRAND CANYON,AZ
29,03196,59.8,80.5,228.1,-110.846,31.421,NOGALES,AZ
30,03757,65.8,75.4,368.1,-76.429,38.142,ST INIGOES,MD
31,03802,60.4,70.9,351.4,-80.229,39.296,CLARKSBURG,WV
32,03804,60.6,71.6,344.6,-81.439,39.345,PARKERSBURG,WV
33,03810,63.4,77.4,306.4,-81.390,35.741,HICKORY,NC
34,03811,66.5,76.6,361.3,-88.917,35.593,JACKSON,TN
35,03812,61.5,73.8,327.4,-82.538,35.432,ASHEVILLE,NC
36,03813,70.5,80.6,363.7,-83.654,32.688,MACON,GA
37,03816,65.7,75.2,369.9,-88.774,37.056,PADUCAH,KY
38,03818,73.2,82.9,371.1,-85.184,30.836,MARIANNA,FL
39,03820,70.3,80.6,360.7,-81.965,33.370,AUGUSTA,GA
40,03822,72.0,81.8,369.3,-81.202,32.119,SAVANNAH,GA
41,03847,63.1,72.5,369.9,-85.085,35.951,CROSSVILLE,TN
42,03853,74.9,82.4,405.0,-81.417,30.400,MAYPORT,FL
43,03856,67.0,79.2,332.3,-86.786,34.644,HUNTSVILLE,AL
44,03859,59.5,72.0,323.1,-81.208,37.296,BLUEFIELD,WV
45,03860,62.6,71.9,371.1,-82.555,38.382,HUNTINGTON,WV
46,03866,67.7,81.2,315.7,-88.567,32.550,MERIDIAN,MS
47,03868,62.2,71.7,367.4,-87.309,39.452,TERRE HAUTE,IN
48,03870,65.5,79.1,313.2,-82.219,34.899,GREER,SC
49,03872,59.5,69.5,358.2,-81.125,37.795,BECKLEY,WV
50,03878,71.4,81.8,360.0,-86.012,31.861,TROY,AL
51,03887,62.0,73.0,345.3,-88.866,39.984,DECATUR,IL
52,03888,67.0,78.9,336.6,-84.521,33.779,ATLANTA,GA
53,03889,63.1,72.8,365.0,-83.314,37.591,JACKSON,KY
54,03893,62.9,71.4,383.5,-86.617,39.144,BLOOMINGTON,IN
55,03894,64.8,74.2,370.5,-87.415,36.622,CLARKSVILLE,TN
56,03901,67.9,84.4,279.9,-94.711,32.385,LONGVIEW,TX
57,03904,69.3,85.9,279.9,-96.364,30.588,COLLEGE STATION,TX
58,03919,63.1,76.8,310.1,-97.661,38.813,SALINA,KS
59,03927,63.8,87.3,205.3,-97.041,32.896,DALLAS-FORT WORTH,TX
60,03928,64.2,77.0,322.4,-97.429,37.647,WICHITA,KS
61,03932,62.3,81.8,242.3,-99.200,35.340,CLINTON,OK
62,03935,66.5,74.5,393.3,-89.571,37.225,CAPE GIRARDEAU,MO
63,03936,64.3,75.7,341.6,-96.678,39.135,MANHATTAN,KS
64,03937,71.6,83.5,339.7,-93.228,30.125,LAKE CHARLES,LA
65,03940,66.1,83.5,268.2,-90.078,32.320,JACKSON,MS
66,03945,64.9,73.7,379.8,-92.218,38.817,COLUMBIA,MO
67,03947,64.2,74.5,357.0,-94.718,39.299,KANSAS CITY,MO
68,03950,64.5,82.5,260.2,-98.416,34.568,LAWTON,OK
69,03953,67.7,75.6,395.2,-90.646,35.831,JONESBORO,AR
70,03954,64.8,81.0,280.5,-97.647,35.534,OKLAHOMA CITY,OK
71,03957,64.1,78.0,308.3,-98.553,37.284,MEDICINE LODGE,KS
72,03959,67.1,75.5,387.2,-96.011,36.762,BARTLESVILLE,OK
73,03960,64.3,75.8,340.3,-90.157,38.571,CAHOKIA/ST.LOUIS,IL
74,03962,65.3,81.5,281.1,-93.096,34.478,HOT SPRINGS,AR
75,03963,64.1,74.5,355.7,-92.156,38.591,JEFFERSON CITY,MO
76,03965,64.8,79.2,302.7,-97.086,36.160,STILLWATER,OK
77,03966,66.3,74.7,386.6,-90.656,38.657,ST LOUIS,MO
78,03967,64.5,74.5,361.9,-94.739,38.850,OLATHE,KS
79,03971,64.1,86.2,218.3,-96.868,32.681,DALLAS,TX
80,03974,64.5,75.3,350.2,-97.219,37.750,WICHITA,KS
81,03975,67.2,75.4,390.3,-90.325,36.773,POPLAR BLUFF,MO
82,03981,65.7,83.3,265.7,-98.984,34.352,FREDERICK,OK
83,03991,65.3,85.3,239.8,-97.199,33.206,DENTON,TX
84,03994,64.6,75.2,353.3,-93.183,38.704,SEDALIA,MO
85,03996,68.9,81.9,323.1,-91.030,32.348,TALLULAH/VICKSBURG,MS
86,03997,65.3,74.3,377.3,-95.212,39.008,LAWRENCE,KS
87,03998,66.8,75.2,387.2,-95.504,37.328,PARSONS,KS
88,04110,42.9,71.7,141.8,-114.456,42.727,JEROME,ID
89,04111,37.1,66.4,132.6,-111.031,41.273,EVANSTON,WY
90,04112,33.0,58.6,157.3,-114.927,44.171,STANLEY,ID
91,04113,45.8,74.0,149.2,-119.261,45.826,HERMISTON,OR
92,04114,37.3,67.2,128.3,-114.215,41.523,CHALLIS,ID
93,04201,51.9,70.2,246.0,-122.861,45.773,SCAPPOOSE,OR
94,04724,58.5,68.6,356.3,-78.945,43.107,NIAGARA FALLS,NY
95,04725,58.5,67.2,377.9,-75.981,42.208,BINGHAMTON,NY
96,04726,56.2,68.0,330.5,-78.834,40.301,JOHNSTOWN,PA
97,04751,55.1,63.9,374.2,-78.640,41.803,BRADFORD,PA
98,04780,60.9,73.2,326.8,-71.756,42.552,FITCHBURG,MA
99,04781,63.1,75.7,324.3,-73.102,40.794,ISLIP,NY
100,04787,57.5,68.6,340.9,-78.899,41.178,DU BOIS,PA
101,04789,61.3,72.2,346.5,-74.265,41.509,MONTGOMERY,NY
102,04803,56.5,63.8,398.9,-89.465,45.631,RHINELANDER,WI
103,04804,60.3,70.8,351.4,-83.078,40.078,COLUMBUS,OH
104,04808,60.3,69.4,372.4,-88.481,41.770,CHICAGO/AURORA,IL
105,04826,57.1,68.1,342.2,-89.837,44.359,WISCONSIN RAPIDS,WI
106,04836,58.3,65.7,398.3,-68.307,47.286,FRENCHVILLE,ME
107,04838,59.1,71.5,324.3,-87.905,42.121,CHICAGO/PROSPECT HGTS/WHEELI,IL
108,04839,60.8,69.8,374.2,-86.097,42.746,HOLLAND,MI
109,04840,59.9,68.6,378.5,-88.486,43.770,FOND DU LAC,WI
110,04841,59.8,66.8,405.7,-87.851,43.769,SHEBOYGAN,WI
111,04842,58.3,68.1,360.7,-81.887,40.875,WOOSTER,OH
112,04843,57.0,69.1,326.8,-80.215,41.626,MEADVILLE,PA
113,04845,60.4,68.5,388.4,-87.938,42.595,KENOSHA,WI
114,04846,60.8,70.3,366.8,-87.006,41.453,VALPARAISO,IN
115,04848,59.5,72.1,321.8,-83.476,41.563,TOLEDO,OH
116,04849,59.5,68.8,368.7,-82.179,41.179,LORAIN/ELYRIA,OH
117,04850,60.2,69.6,368.1,-84.027,40.708,LIMA,OH
118,04851,60.1,71.1,344.0,-84.429,41.338,DEFIANCE,OH
119,04852,59.9,69.3,367.4,-81.420,40.470,NEW PHILADELPHIA,OH
120,04853,60.0,72.8,319.4,-81.684,41.518,CLEVELAND,OH
121,04854,58.3,66.4,387.2,-84.701,45.013,GAYLORD,MI
122,04855,59.1,69.6,350.8,-83.064,40.616,MARION,OH
123,04857,59.6,68.1,381.6,-80.696,41.778,ASHTABULA,OH
124,04858,60.3,69.9,365.0,-82.463,40.023,NEWARK,OH
128,12812,75.7,82.7,413.7,-81.991,26.917,PUNTA GORDA,FL
129,12815,75.2,82.9,402.6,-81.325,28.434,ORLANDO,FL
130,12816,73.2,81.5,392.1,-82.272,29.690,GAINESVILLE,FL
131,12818,74.0,82.0,397.0,-82.454,28.474,BROOKSVILLE,FL
132,12819,73.6,82.8,379.2,-81.810,28.821,LEESBURG,FL
133,12832,74.7,84.1,376.7,-85.033,29.733,APALACHICOLA,FL
134,12833,75.1,83.1,397.6,-83.105,29.550,CROSS CITY,FL
135,12834,74.2,82.1,398.9,-81.060,29.177,DAYTONA BEACH,FL
136,12835,74.3,83.3,382.2,-81.864,26.586,FORT MYERS,FL
137,12836,75.7,85.8,367.4,-81.754,24.553,KEY WEST,FL
138,12838,74.3,82.1,400.1,-80.646,28.103,MELBOURNE,FL
139,12839,74.5,84.8,363.7,-80.300,25.824,MIAMI,FL
140,12841,75.3,83.5,394.6,-81.333,28.545,ORLANDO,FL
141,12842,74.3,83.1,385.3,-82.540,27.961,TAMPA,FL
142,12843,73.5,83.0,374.2,-80.418,27.656,VERO BEACH,FL
143,12844,74.0,83.0,382.2,-80.099,26.685,WEST PALM BEACH,FL
144,12849,75.6,84.6,382.9,-80.154,26.072,FORT LAUDERDALE,FL
145,12850,74.7,85.9,351.4,-81.683,24.583,KEY WEST,FL
146,12854,73.3,83.2,368.7,-81.244,28.780,ORLANDO,FL
147,12871,74.7,82.6,398.9,-82.559,27.401,SARASOTA/BRADENTON,FL
148,12873,75.1,83.0,399.5,-82.688,27.911,ST PETERSBURG/CLEARWATER,FL
149,12876,74.3,82.7,391.5,-81.754,28.062,WINTER HAVEN,FL
150,12882,74.6,84.8,365.0,-80.280,25.907,MIAMI,FL
151,12884,73.9,85.0,352.0,-89.408,29.350,BOOTHVILLE,LA
152,12885,74.1,84.7,358.8,-80.171,26.197,FORT LAUDERDALE,FL
153,12888,75.0,83.3,393.3,-80.433,25.648,MIAMI,FL
154,12894,73.7,83.8,366.2,-81.755,26.536,FORT MYERS,FL
155,12895,74.4,82.2,400.7,-80.377,27.498,FORT PIERCE,FL
156,12896,76.6,87.0,363.7,-81.052,24.726,MARATHON,FL
157,12897,75.7,84.8,381.6,-81.775,26.153,NAPLES,FL
158,12904,74.4,86.9,333.5,-97.654,26.228,HARLINGEN,TX
159,12912,73.5,84.5,353.3,-96.930,28.863,VICTORIA,TX
160,12916,70.7,84.9,309.5,-90.251,29.993,NEW ORLEANS,LA
161,12917,72.7,84.0,348.3,-94.021,29.951,BEAUMONT/PORT ARTHUR,TX
162,12918,71.6,85.1,318.7,-95.279,29.645,HOUSTON,TX
163,12919,74.4,84.8,361.9,-97.426,25.906,BROWNSVILLE,TX
164,12921,68.1,87.4,249.7,-98.464,29.533,SAN ANTONIO,TX
165,12923,74.0,86.5,333.5,-94.860,29.265,GALVESTON,TX
166,12924,73.2,85.3,337.9,-97.513,27.773,CORPUS CHRISTI,TX
167,12926,75.3,84.4,381.6,-97.283,27.700,CORPUS CHRISTI,TX
168,12928,75.7,86.4,358.8,-97.817,27.500,KINGSVILLE,TX
169,12932,72.5,85.8,321.8,-98.027,27.741,ALICE,TX
170,12935,75.0,85.5,361.3,-96.251,28.728,PALACIOS,TX
171,12947,68.5,88.7,241.1,-99.220,28.458,COTULLA,TX
172,12957,74.9,85.0,366.8,-97.346,26.166,PORT ISABEL,TX
173,12959,72.4,90.2,268.8,-98.238,26.175,MC ALLEN,TX
174,12960,71.7,85.1,320.0,-95.364,29.993,HOUSTON,TX
175,12962,67.6,85.3,266.4,-99.174,29.359,HONDO,TX
176,12968,74.4,83.9,374.8,-91.526,29.562,SALT POINT,LA
177,12970,68.9,87.2,260.8,-98.471,29.337,SAN ANTONIO,TX
178,12971,69.1,87.2,263.3,-98.045,29.709,NEW BRAUNFELS,TX
179,12972,74.6,85.6,353.9,-97.046,28.084,ROCKPORT,TX
180,12975,71.7,85.4,316.3,-95.240,29.521,HOUSTON,TX
181,12976,73.5,82.0,389.0,-95.462,29.110,ANGLETON/LAKE JACKSON,TX
182,12977,72.1,84.1,338.5,-95.656,29.622,HOUSTON,TX
183,13721,64.7,74.7,361.9,-76.400,38.283,PATUXENT RIVER,MD
184,13722,65.3,78.0,324.3,-78.786,35.871,RALEIGH/DURHAM,NC
185,13723,63.9,77.4,313.2,-79.944,36.098,GREENSBORO,NC
186,13728,65.4,76.5,346.5,-79.336,36.573,DANVILLE,VA
187,13729,58.3,68.4,356.3,-79.853,38.885,ELKINS,WV
188,13733,63.3,73.5,358.2,-79.207,37.338,LYNCHBURG,VA
189,13734,60.0,73.1,315.7,-77.984,39.402,MARTINSBURG,WV
190,13735,63.0,74.1,344.6,-75.078,39.366,MILLVILLE,NJ
191,13736,57.2,73.4,274.4,-79.916,39.643,MORGANTOWN,WV
192,13737,65.9,78.3,329.2,-76.192,36.904,NORFOLK,VA
193,13739,60.2,79.0,247.9,-75.231,39.868,PHILADELPHIA,PA
194,13740,64.8,77.5,324.3,-77.323,37.511,RICHMOND,VA
195,13741,62.5,75.4,320.0,-79.974,37.317,ROANOKE,VA
196,13743,63.1,79.3,279.3,-77.034,38.865,WASHINGTON,DC
197,13744,69.6,80.8,347.7,-79.731,34.188,FLORENCE,SC
198,13748,70.7,79.3,385.9,-77.906,34.268,WILMINGTON,NC
199,13750,66.6,71.1,451.9,-76.283,36.933,NORFOLK,VA
200,13752,63.5,76.5,319.4,-76.483,38.991,ANNAPOLIS,MD
201,13754,70.5,78.2,400.1,-76.883,34.900,CHERRY POINT,NC
202,13762,67.7,80.0,331.7,-76.136,36.695,FENTRESS,VA
203,13764,64.1,75.1,347.1,-75.359,38.689,GEORGETOWN,DE
204,13769,67.1,79.0,336.6,-76.033,36.817,OCEANA,VA
205,13776,68.5,80.6,334.8,-79.059,34.610,LUMBERTON,NC
206,13781,62.7,75.7,318.7,-75.601,39.673,WILMINGTON,DE
207,13786,69.0,77.3,389.6,-76.175,36.261,ELIZABETH CITY,NC
208,13809,64.2,73.8,367.4,-87.606,38.764,LAWRENCEVILLE,IL
209,13810,62.9,75.0,331.1,-85.664,38.228,LOUISVILLE,KY
210,13833,69.4,82.2,326.1,-89.253,31.265,HATTIESBURG,MS
211,13837,68.8,83.0,308.3,-82.039,33.467,AUGUSTA,GA
212,13838,72.5,82.5,366.8,-88.068,30.626,MOBILE,AL
213,13839,71.0,82.4,345.9,-85.450,31.321,DOTHAN,AL
214,13841,59.9,69.7,361.9,-83.822,39.420,WILMINGTON,OH
215,13865,68.0,80.8,325.5,-88.751,32.333,MERIDIAN,MS
216,13866,62.7,73.2,353.3,-81.591,38.379,CHARLESTON,WV
217,13869,71.4,82.9,345.3,-84.194,31.536,ALBANY,GA
218,13870,72.3,82.0,370.5,-82.507,31.536,ALMA,GA
219,13871,66.9,79.2,331.1,-85.858,33.588,ANNISTON,AL
220,13873,67.5,79.8,331.7,-83.327,33.948,ATHENS,GA
221,13874,66.3,79.9,313.8,-84.427,33.640,ATLANTA,GA
222,13876,68.4,79.4,349.6,-86.754,33.564,BIRMINGHAM,AL
223,13877,63.5,74.2,350.8,-82.399,36.480,BRISTOL/JHNSN CTY/KNGSPRT,TN
224,13878,74.0,81.6,403.2,-81.391,31.252,BRUNSWICK,GA
225,13880,71.6,81.3,370.5,-80.041,32.899,CHARLESTON,SC
226,13881,63.6,79.5,283.6,-80.944,35.214,CHARLOTTE,NC
227,13882,66.2,78.3,333.5,-85.200,35.033,CHATTANOOGA,TN
228,13883,67.6,82.6,297.2,-81.118,33.942,COLUMBIA,SC
229,13884,72.0,82.1,365.0,-86.523,30.780,CRESTVIEW,FL
230,13886,64.2,79.6,289.8,-82.346,34.846,GREENVILLE,SC
231,13889,73.8,81.3,405.0,-81.693,30.494,JACKSONVILLE,FL
232,13891,65.3,76.4,346.5,-83.986,35.818,KNOXVILLE,TN
233,13893,66.7,80.7,308.9,-89.985,35.061,MEMPHIS,TN
234,13894,71.9,81.7,369.3,-88.246,30.688,MOBILE,AL
235,13895,69.5,83.0,317.5,-86.394,32.301,MONTGOMERY,AL
236,13896,66.8,77.7,350.2,-87.610,34.745,MUSCLE SHOALS,AL
237,13897,63.5,77.3,308.9,-86.689,36.119,NASHVILLE,TN
238,13899,72.2,82.6,360.7,-87.188,30.473,PENSACOLA,FL
239,13904,68.4,84.2,288.5,-97.681,30.179,AUSTIN/BERGSTROM,TX
240,13911,64.9,88.0,209.6,-97.441,32.769,FORT WORTH,TX
241,13920,64.6,75.9,343.4,-95.664,38.950,TOPEKA,KS
242,13927,66.4,83.3,274.4,-90.223,32.335,JACKSON,MS
243,13932,65.2,76.8,339.1,-97.037,37.168,WINFIELD/ARKANSAS CITY,KS
244,13935,69.1,84.5,293.5,-92.296,31.395,ALEXANDRIA,LA
245,13942,68.8,82.9,309.5,-92.038,32.511,MONROE,LA
246,13957,67.2,85.0,264.5,-93.824,32.447,SHREVEPORT,LA
247,13958,67.6,87.4,244.2,-97.767,30.317,AUSTIN/CITY,TX
248,13959,65.6,86.3,233.1,-97.229,31.611,WACO,TX
249,13960,64.4,88.2,203.5,-96.851,32.847,DALLAS,TX
250,13961,64.1,88.3,199.2,-97.361,32.819,FORT WORTH,TX
251,13962,62.2,84.9,210.9,-99.682,32.411,ABILENE,TX
252,13963,66.9,81.9,296.6,-92.233,34.747,LITTLE ROCK,AR
253,13964,66.2,80.2,308.3,-94.365,35.334,FORT SMITH,AR
254,13966,65.0,83.8,252.2,-98.493,33.979,WICHITA FALLS,TX
255,13967,66.0,79.5,314.4,-97.600,35.389,OKLAHOMA CITY,OK
256,13968,66.9,79.4,328.6,-95.886,36.198,TULSA,OK
257,13969,65.1,78.5,315.0,-97.100,36.731,PONCA CITY,OK
258,13970,70.6,83.2,329.8,-91.147,30.537,BATON ROUGE,LA
259,13971,65.4,74.6,374.2,-93.155,36.261,HARRISON,AR
260,13972,66.6,85.1,256.5,-95.402,32.354,TYLER,TX
261,13973,63.1,85.0,219.5,-99.766,30.511,JUNCTION,TX
262,13975,62.5,79.2,273.1,-99.775,36.297,GAGE,OK
263,13976,71.1,84.0,326.1,-91.988,30.205,LAFAYETTE,LA
264,13977,66.7,82.3,289.2,-94.008,33.454,TEXARKANA,AR
265,13978,67.3,80.3,321.8,-90.084,33.496,GREENWOOD,MS
266,13981,65.2,75.4,359.4,-95.484,37.670,CHANUTE,KS
267,13984,62.7,73.8,344.6,-97.652,39.549,CONCORDIA,KS
268,13985,59.7,75.7,278.7,-99.970,37.773,DODGE CITY,KS
269,13986,63.3,75.8,325.5,-97.861,38.068,HUTCHINSON,KS
270,13987,65.3,76.1,350.8,-94.498,37.149,JOPLIN,MO
271,13988,65.2,77.5,329.8,-94.593,39.123,KANSAS CITY,MO
272,13989,63.8,74.2,355.1,-96.190,38.331,EMPORIA,KS
273,13993,65.2,73.0,395.8,-94.907,39.774,ST JOSEPH,MO
274,13994,63.8,77.8,306.4,-90.374,38.753,ST LOUIS,MO
275,13995,64.1,74.9,349.6,-93.390,37.240,SPRINGFIELD,MO
276,13996,65.5,75.2,366.8,-95.626,39.073,TOPEKA,KS
277,13997,64.0,73.0,376.1,-91.769,38.128,ROLLA/VICHY,MO
278,14605,61.4,70.0,381.0,-69.797,44.321,AUGUSTA,ME
279,14606,61.3,70.1,377.9,-68.824,44.808,BANGOR,ME
280,14607,59.2,68.2,373.6,-68.033,46.867,CARIBOU,ME
281,14609,59.1,67.7,379.8,-67.792,46.123,HOULTON,ME
282,14610,60.9,69.8,376.1,-68.686,45.648,MILLINOCKET,ME
283,14702,60.7,72.1,339.1,-71.289,42.470,BEDFORD,MA
284,14707,65.6,72.7,406.9,-72.049,41.328,GROTON NEW LONDON,CT
285,14710,60.4,74.2,306.4,-71.438,42.933,MANCHESTER,NH
286,14711,61.5,75.6,303.3,-76.763,40.194,HARRISBURG,PA
287,14712,60.6,74.0,312.0,-75.959,40.373,READING,PA
288,14719,64.0,73.6,367.4,-72.632,40.844,WESTHAMPTON BEACH,NY
289,14732,60.1,79.3,243.5,-73.881,40.779,NEW YORK,NY
290,14733,58.0,69.7,332.9,-78.736,42.941,BUFFALO,NY
291,14734,60.4,78.7,253.4,-74.169,40.716,NEWARK,NJ
292,14735,59.9,73.1,313.8,-73.803,42.748,ALBANY,NY
293,14736,57.9,69.2,338.5,-78.317,40.300,ALTOONA,PA
294,14737,60.8,72.8,330.5,-75.449,40.651,ALLENTOWN,PA
295,14739,62.1,74.7,323.7,-71.011,42.361,BOSTON,MA
296,14740,61.4,73.8,325.5,-72.683,41.938,WINDSOR LOCKS,CT
297,14742,58.9,72.4,309.5,-73.150,44.468,BURLINGTON,VT
298,14747,59.1,68.3,370.5,-79.272,42.493,DUNKIRK,NY
299,14748,59.5,67.8,384.7,-76.892,42.159,ELMIRA/CORNING,NY
300,14750,59.3,70.2,345.3,-73.610,43.341,GLENS FALLS,NY
301,14751,60.2,74.4,301.5,-76.851,40.217,HARRISBURG,PA
302,14752,62.8,74.9,331.1,-72.651,41.736,HARTFORD,CT
303,14756,66.5,73.1,415.5,-70.061,41.253,NANTUCKET,MA
304,14757,60.3,73.6,313.2,-73.884,41.627,POUGHKEEPSIE,NY
305,14758,63.9,73.9,361.3,-72.887,41.264,NEW HAVEN,CT
306,14762,55.0,71.2,272.5,-79.922,40.355,PITTSBURGH,PA
307,14763,58.8,68.0,369.9,-73.289,42.427,PITTSFIELD,MA
308,14764,62.6,70.3,395.8,-70.304,43.642,PORTLAND,ME
309,14765,63.1,75.0,333.5,-71.433,41.722,PROVIDENCE,RI
310,14768,59.1,69.5,352.0,-77.677,43.117,ROCHESTER,NY
311,14770,61.5,71.0,367.4,-76.864,40.821,SELINSGROVE,PA
312,14771,60.9,70.5,365.0,-76.103,43.109,SYRACUSE,NY
313,14775,60.9,72.4,337.9,-72.716,42.158,WESTFIELD/SPRINGFIELD,MA
314,14777,58.9,71.9,315.7,-75.727,41.339,WILKES-BARRE/SCRANTON,PA
315,14778,59.7,72.2,323.1,-76.922,41.243,WILLIAMSPORT,PA
316,14787,65.0,73.1,390.9,-71.284,41.530,NEWPORT,RI
317,14792,60.7,75.6,292.9,-74.814,40.277,TRENTON,NJ
318,14794,64.4,72.8,385.9,-71.799,41.350,WESTERLY,RI
319,14813,58.4,72.1,306.4,-81.464,41.038,AKRON,OH
320,14819,59.6,74.3,294.7,-87.752,41.786,CHICAGO,IL
321,14820,59.2,70.7,336.6,-81.853,41.405,CLEVELAND,OH
322,14821,59.9,71.8,331.7,-82.881,39.991,COLUMBUS,OH
323,14822,58.7,71.4,320.0,-83.010,42.409,DETROIT,MI
324,14825,60.4,71.4,344.6,-83.669,41.014,FINDLAY,OH
325,14826,59.3,70.6,339.7,-83.749,42.967,FLINT,MI
326,14827,61.0,70.4,368.1,-85.206,41.006,FORT WAYNE,IN
327,14829,61.0,69.5,382.2,-85.792,41.527,GOSHEN,IN
328,14833,60.0,68.2,386.6,-84.459,42.260,JACKSON,MI
329,14835,62.0,70.4,384.1,-86.937,40.412,LAFAYETTE,IN
330,14836,59.3,69.6,353.9,-84.579,42.780,LANSING,MI
331,14837,59.3,69.6,353.9,-89.345,43.141,MADISON,WI
332,14839,59.2,69.9,347.7,-87.897,42.947,MILWAUKEE,WI
333,14840,59.6,69.8,355.7,-86.237,43.171,MUSKEGON,MI
334,14841,57.5,65.6,386.6,-84.796,45.571,PELLSTON,MI
335,14842,61.9,74.5,323.7,-89.684,40.668,PEORIA,IL
336,14845,59.9,70.3,352.7,-84.080,43.533,SAGINAW,MI
337,14847,57.6,66.3,377.3,-84.367,46.467,SAULT STE MARIE,MI
338,14848,59.8,70.6,347.1,-86.333,41.707,SOUTH BEND,IN
339,14850,58.9,69.7,346.5,-85.583,44.741,TRAVERSE CITY,MI
340,14852,58.6,69.0,352.0,-80.674,41.254,YOUNGSTOWN/WARREN,OH
341,14853,60.4,72.5,329.2,-83.230,42.237,DETROIT,MI
342,14858,56.2,64.6,381.0,-88.506,47.169,HANCOCK,MI
343,14860,58.0,70.9,316.3,-80.183,42.080,ERIE,PA
344,14880,60.6,68.3,394.6,-87.868,42.422,CHICAGO/WAUKEGAN,IL
345,14891,59.3,69.7,352.7,-82.518,40.820,MANSFIELD,OH
346,14894,58.6,70.8,326.1,-80.647,40.176,WHEELING,WV
347,14895,57.9,71.4,308.3,-81.443,40.918,AKRON,OH
348,14897,58.1,66.9,376.1,-89.627,44.929,WAUSAU,WI
349,14898,60.1,68.1,389.6,-88.120,44.513,GREEN BAY,WI
350,14910,58.6,67.8,369.9,-95.393,45.883,ALEXANDRIA,MN
351,14913,56.4,65.8,365.6,-92.194,46.844,DULUTH,MN
352,14914,57.6,69.5,329.8,-96.811,46.925,FARGO,ND
353,14916,56.5,67.4,343.4,-97.176,47.949,GRAND FORKS,ND
354,14918,55.9,62.8,405.7,-93.403,48.566,INTERNATIONAL FALLS,MN
355,14919,57.5,67.4,358.8,-98.678,46.930,JAMESTOWN,ND
356,14920,60.1,71.2,342.8,-91.256,43.754,LA CROSSE,WI
357,14921,59.1,69.3,355.1,-90.181,43.212,LONE ROCK,WI
358,14922,59.1,70.8,333.5,-93.229,44.883,MINNEAPOLIS,MN
359,14923,61.5,71.6,358.2,-90.523,41.465,MOLINE,IL
360,14925,60.0,66.6,412.4,-92.492,43.904,ROCHESTER,MN
361,14926,59.1,67.1,389.0,-94.052,45.545,ST CLOUD,MN
362,14927,59.9,69.8,360.0,-93.048,44.930,ST PAUL,MN
363,14929,59.3,68.8,365.6,-98.421,45.450,ABERDEEN,SD
364,14931,63.9,71.9,391.5,-91.125,40.783,BURLINGTON,IA
365,14933,61.4,73.2,334.2,-93.666,41.538,DES MOINES,IA
366,14935,61.2,72.3,343.4,-98.313,40.958,GRAND ISLAND,NE
367,14936,60.3,68.2,391.5,-98.229,44.385,HURON,SD
368,14937,62.1,70.9,377.9,-91.543,41.633,IOWA CITY,IA
369,14938,62.8,72.2,369.3,-92.543,40.097,KIRKSVILLE,MO
370,14939,62.7,73.8,344.6,-96.764,40.831,LINCOLN,NE
371,14940,60.8,67.9,404.4,-93.331,43.158,MASON CITY,IA
372,14941,61.4,70.7,369.9,-97.437,41.981,NORFOLK,NE
373,14942,63.7,73.2,368.7,-95.899,41.310,OMAHA,NE
374,14943,60.9,70.4,366.8,-96.379,42.391,SIOUX CITY,IA
375,14944,59.9,69.5,364.4,-96.754,43.577,SIOUX FALLS,SD
376,14946,59.0,68.0,373.0,-97.154,44.931,WATERTOWN,SD
377,14950,63.3,70.3,407.5,-92.448,41.107,OTTUMWA,IA
378,14972,59.0,68.6,364.4,-95.202,43.164,SPENCER,IA
379,14990,63.4,68.7,436.5,-91.709,41.884,CEDAR RAPIDS,IA
380,14991,58.8,67.5,377.9,-91.485,44.865,EAU CLAIRE,WI
381,14992,59.4,69.1,363.1,-95.082,44.547,REDWOOD FALLS,MN
382,21504,73.3,79.8,420.5,-155.051,19.723,HILO,HI
383,21510,73.2,84.1,354.5,-156.049,19.736,KAILUA/KONA,HI
384,22010,65.2,88.8,205.9,-100.922,29.367,DEL RIO,TX
385,22516,71.6,82.9,347.7,-156.433,20.902,KAHULUI,HI
386,22521,72.1,83.5,346.5,-157.943,21.328,HONOLULU,HI
387,22536,72.5,81.4,382.9,-159.341,21.979,LIHUE,HI
388,22551,70.8,81.3,358.2,-158.067,21.317,KAPOLEI,HI
389,23007,62.4,82.5,236.2,-100.288,34.434,CHILDRESS,TX
390,23009,55.5,84.0,156.6,-104.541,33.308,ROSWELL,NM
391,23023,58.9,84.6,181.9,-102.208,31.932,MIDLAND,TX
392,23034,61.7,86.4,193.0,-100.494,31.351,SAN ANGELO,TX
393,23040,57.7,86.2,158.5,-103.201,31.780,WINK,TX
394,23042,59.9,80.3,231.2,-101.821,33.668,LUBBOCK,TX
395,23044,54.0,85.5,133.8,-106.376,31.811,EL PASO,TX
396,23047,60.7,76.8,278.7,-101.706,35.219,AMARILLO,TX
397,23048,57.8,78.8,223.2,-103.603,35.182,TUCUMCARI,NM
398,23049,45.8,72.4,161.6,-106.089,35.617,SANTA FE,NM
399,23050,48.6,78.7,138.1,-106.616,35.042,ALBUQUERQUE,NM
400,23051,57.6,74.1,271.3,-103.154,36.446,CLAYTON,NM
401,23052,49.8,70.3,220.7,-104.502,36.741,RATON,NM
402,23054,47.6,68.3,216.4,-105.143,35.654,LAS VEGAS,NM
403,23055,52.9,78.8,174.5,-104.809,31.831,GUADALUPE PASS,TX
404,23061,42.7,64.0,205.9,-105.866,37.436,ALAMOSA,CO
405,23064,60.6,75.9,287.9,-100.725,37.927,GARDEN CITY,KS
406,23065,56.4,74.8,249.1,-101.693,39.368,GOODLAND,KS
407,23066,44.0,75.2,125.8,-108.538,39.134,GRAND JUNCTION,CO
408,23067,53.4,78.0,185.6,-103.527,38.051,LA JUNTA,CO
409,23070,48.1,74.5,165.9,-104.341,37.259,TRINIDAD,CO
410,23078,54.2,81.8,162.2,-107.721,32.262,DEMING,NM
411,23081,46.2,70.2,184.4,-108.789,35.511,GALLUP,NM
412,23090,44.8,74.6,136.3,-108.229,36.744,FARMINGTON,NM
413,23091,57.1,84.9,163.4,-102.912,30.915,FORT STOCKTON,TX
414,23110,49.4,80.8,130.1,-119.950,36.333,LEMOORE,CA
415,23129,62.5,77.6,292.2,-118.163,33.828,LONG BEACH,CA
416,23130,56.8,80.3,198.6,-118.489,34.210,VAN NUYS,CA
417,23136,60.3,73.0,320.6,-119.083,34.217,CAMARILLO,CA
418,23152,58.0,79.7,216.4,-118.359,34.201,BURBANK,CA
419,23153,29.6,75.1,38.9,-117.087,38.060,TONOPAH,NV
420,23154,33.7,68.1,95.6,-114.845,39.295,ELY,NV
421,23155,48.4,84.0,103.0,-119.056,35.434,BAKERSFIELD,CA
422,23157,32.1,77.7,40.1,-118.363,37.373,BISHOP,CA
423,23158,57.0,96.6,89.4,-114.717,33.619,BLYTHE,CA
424,23159,43.5,62.4,231.8,-112.146,37.706,BRYCE CANYON,UT
425,23160,59.3,89.0,151.1,-110.955,32.131,TUCSON,AZ
426,23161,37.8,90.6,20.4,-116.787,34.854,DAGGETT,CA
427,23169,43.3,92.9,35.2,-115.155,36.079,LAS VEGAS,NV
428,23174,63.3,72.8,368.1,-118.406,33.938,LOS ANGELES,CA
429,23176,42.2,75.4,111.0,-113.028,38.443,MILFORD,UT
430,23179,48.6,98.7,37.7,-114.623,34.766,NEEDLES,CA
431,23182,41.2,82.8,65.4,-118.084,34.629,PALMDALE,CA
432,23183,59.0,96.7,101.2,-111.990,33.443,PHOENIX,AZ
433,23184,53.3,76.5,197.9,-112.421,34.652,PRESCOTT,AZ
434,23185,34.8,76.0,61.1,-119.771,39.484,RENO,NV
435,23187,40.7,78.3,84.5,-118.724,34.744,SANDBERG,CA
436,23188,63.4,75.3,334.2,-117.169,32.735,SAN DIEGO,CA
437,23190,61.6,71.1,367.4,-119.844,34.426,SANTA BARBARA,CA
438,23191,54.1,71.6,256.5,-118.416,33.405,AVALON,CA
439,23194,52.7,77.3,185.0,-110.722,35.022,WINSLOW,AZ
440,23199,53.0,94.8,74.7,-115.667,32.817,EL CENTRO,CA
441,23213,54.4,70.0,279.3,-122.812,38.509,SANTA ROSA,CA
442,23225,36.8,69.7,107.9,-120.708,39.292,EMIGRANT GAP,CA
443,23230,56.5,68.7,324.9,-122.221,37.755,OAKLAND,CA
444,23232,53.6,76.6,200.4,-121.493,38.513,SACRAMENTO,CA
445,23233,56.0,68.4,321.8,-121.605,36.663,SALINAS,CA
446,23234,56.2,68.0,330.5,-122.398,37.620,SAN FRANCISCO,CA
447,23237,53.5,76.9,196.7,-121.237,37.894,STOCKTON,CA
448,23244,57.4,70.6,312.0,-122.048,37.415,MOUNTAIN VIEW,CA
449,23254,53.1,74.8,212.1,-122.052,37.992,CONCORD,CA
450,23257,52.4,78.0,176.4,-120.513,37.285,MERCED,CA
451,23258,51.3,79.4,155.4,-120.953,37.626,MODESTO,CA
452,23259,55.8,66.5,345.9,-121.845,36.588,MONTEREY,CA
453,23273,58.7,69.2,350.8,-120.465,34.916,SANTA MARIA,CA
454,23275,51.1,73.3,205.3,-123.201,39.126,UKIAH,CA
455,23277,56.6,68.7,326.1,-121.789,36.936,WATSONVILLE,CA
456,23285,53.5,75.9,205.9,-121.817,37.694,LIVERMORE,CA
457,23293,56.5,71.3,291.0,-121.928,37.362,SAN JOSE,CA
458,24011,55.7,70.2,294.1,-100.748,46.774,BISMARCK,ND
459,24012,49.6,68.6,236.2,-102.802,46.797,DICKINSON,ND
460,24013,52.0,69.0,260.8,-101.281,48.259,MINOT,ND
461,24015,51.3,73.4,206.6,-103.232,40.172,AKRON,CO
462,24017,52.4,71.4,238.6,-103.095,42.838,CHADRON,NE
463,24018,44.4,68.5,181.3,-104.807,41.158,CHEYENNE,WY
464,24021,39.8,70.2,127.7,-108.733,42.817,LANDER,WY
465,24022,40.5,63.4,188.7,-105.674,41.313,LARAMIE,WY
466,24023,59.8,70.2,352.7,-100.668,41.122,NORTH PLATTE,NE
467,24024,58.3,71.3,315.7,-101.601,44.051,PHILIP,SD
468,24025,57.8,72.6,291.6,-100.286,44.383,PIERRE,SD
469,24027,37.6,66.5,135.7,-109.065,41.594,ROCK SPRINGS,WY
470,24028,54.1,71.9,253.4,-103.595,41.874,SCOTTSBLUFF,NE
471,24029,44.8,69.3,178.2,-106.976,44.774,SHERIDAN,WY
472,24030,52.3,70.8,244.2,-102.985,41.101,SIDNEY,NE
473,24032,56.3,74.7,248.5,-100.551,42.859,VALENTINE,NE
474,24033,43.5,71.0,152.3,-108.543,45.808,BILLINGS,MT
475,24036,43.6,66.9,188.1,-109.467,47.049,LEWISTOWN,MT
476,24037,48.3,72.5,184.4,-105.886,46.428,MILES CITY,MT
477,24044,53.0,70.0,261.4,-102.800,42.057,ALLIANCE,NE
478,24046,42.2,66.1,181.3,-107.521,40.495,CRAIG,CO
479,24048,40.9,71.6,126.4,-108.082,44.517,GREYBULL,WY
480,24057,37.0,65.9,135.1,-107.200,41.806,RAWLINS,WY
481,24061,39.5,70.1,125.8,-108.459,43.064,RIVERTON,WY
482,24062,42.1,70.1,147.4,-107.951,43.966,WORLAND,WY
483,24089,39.5,68.3,138.8,-106.473,42.898,CASPER,WY
484,24090,53.9,69.9,273.8,-103.054,44.046,RAPID CITY,SD
485,24091,57.0,73.3,273.1,-101.620,40.510,IMPERIAL,NE
486,24110,44.6,73.4,143.7,-119.319,47.208,MOSES LAKE,WA
487,24121,35.9,71.5,90.7,-115.792,40.825,ELKO,NV
488,24126,44.8,75.0,133.8,-112.011,41.196,OGDEN,UT
489,24127,44.9,77.6,117.2,-111.968,40.787,SALT LAKE CITY,UT
490,24128,32.5,70.4,75.3,-117.807,40.902,WINNEMUCCA,NV
491,24130,42.2,65.2,189.3,-117.810,44.838,BAKER CITY,OR
492,24131,40.9,77.4,90.7,-116.220,43.565,BOISE,ID
493,24132,43.4,65.4,199.8,-111.152,45.794,BOZEMAN,MT
494,24133,45.7,63.0,251.6,-113.772,42.543,BURLEY,ID
495,24135,37.5,61.9,172.0,-112.513,45.953,BUTTE,MT
496,24137,40.0,65.3,166.5,-112.376,48.608,CUT BANK,MT
497,24138,39.3,66.0,154.8,-112.552,45.255,DILLON,MT
498,24141,42.7,75.2,116.0,-119.514,47.304,EPHRATA,WA
499,24143,39.5,68.6,136.3,-111.382,47.473,GREAT FALLS,MT
500,24144,41.1,69.9,140.0,-111.964,46.606,HELENA,MT
501,24145,44.1,67.4,188.1,-112.067,43.516,IDAHO FALLS,ID
502,24146,41.1,65.0,180.1,-114.264,48.304,KALISPELL,MT
503,24149,40.4,76.7,91.3,-117.014,46.375,LEWISTON,ID
504,24150,41.2,67.0,164.0,-110.448,45.699,LIVINGSTON,MT
505,24152,38.8,61.0,193.6,-118.425,45.511,MEACHAM,OR
506,24153,40.4,67.3,154.2,-114.093,46.921,MISSOULA,MT
507,24154,34.9,62.2,145.5,-115.645,47.457,MULLAN PASS,ID
508,24155,40.2,72.4,116.0,-118.834,45.698,PENDLETON,OR
509,24156,42.8,69.5,157.9,-112.571,42.920,POCATELLO,ID
510,24157,39.4,72.5,109.2,-117.528,47.621,SPOKANE,WA
511,24160,42.5,77.1,103.0,-118.287,46.095,WALLA WALLA,WA
512,24162,43.3,75.8,116.6,-117.013,44.021,ONTARIO,OR
513,24163,49.5,73.9,183.8,-119.118,46.265,PASCO,WA
514,24164,37.0,61.3,172.7,-110.108,42.584,BIG PINEY,WY
515,24172,34.1,73.8,67.9,-118.565,40.066,LOVELOCK,NV
516,24215,44.9,68.9,183.1,-122.333,41.333,MOUNT SHASTA,CA
517,24216,50.5,79.9,144.9,-122.254,40.152,RED BLUFF,CA
518,24217,54.6,65.8,337.2,-122.537,48.794,BELLINGHAM,WA
519,24219,47.5,76.1,148.0,-121.167,45.619,THE DALLES,OR
520,24220,44.1,72.8,143.7,-120.530,47.034,ELLENSBURG,WA
521,24221,50.2,69.9,229.4,-123.214,44.133,EUGENE,OR
522,24222,52.1,66.1,297.2,-122.280,47.908,EVERETT,WA
523,24225,47.3,75.9,148.0,-122.871,42.389,MEDFORD,OR
524,24227,51.5,66.2,287.9,-122.903,46.973,OLYMPIA,WA
525,24229,53.5,72.4,241.1,-122.600,45.591,PORTLAND,OR
526,24230,39.1,66.8,146.2,-121.150,44.254,REDMOND,OR
527,24231,50.6,73.7,196.7,-123.355,43.239,ROSEBURG,OR
528,24232,51.4,71.3,228.1,-122.995,44.908,SALEM,OR
529,24233,52.5,68.8,269.4,-122.314,47.461,SEATTLE,WA
530,24234,51.9,70.8,239.2,-122.301,47.530,SEATTLE,WA
531,24235,45.5,66.1,215.8,-123.381,42.617,SEXTON SUMMIT,OR
532,24242,52.0,71.5,233.1,-122.400,45.549,PORTLAND,OR
533,24243,45.4,73.6,148.6,-120.534,46.564,YAKIMA,WA
534,24255,54.2,60.9,408.1,-122.650,48.350,WHIDBEY ISLAND,WA
535,24257,48.4,81.4,118.4,-122.313,40.515,REDDING,CA
536,24259,41.0,73.3,116.0,-122.468,41.781,MONTAGUE,CA
537,24283,55.8,60.1,451.9,-124.109,40.978,ARCATA/EUREKA,CA
538,24286,56.0,61.0,438.9,-124.237,41.780,CRESCENT CITY,CA
539,25308,55.0,59.3,451.3,-131.570,55.043,ANNETTE,AK
540,25309,50.8,56.7,420.5,-134.575,58.355,JUNEAU,AK
541,25323,50.5,57.0,409.4,-135.520,59.245,HAINES,AK
542,25331,45.2,56.2,333.5,-149.092,61.596,PALMER,AK
543,25333,53.9,57.7,460.5,-135.360,57.048,SITKA,AK
544,25335,49.4,57.4,383.5,-135.313,59.460,SKAGWAY,AK
545,25339,50.4,55.0,444.5,-139.628,59.510,YAKUTAT,AK
546,25501,47.6,58.7,334.2,-152.492,57.750,KODIAK,AK
547,25503,47.4,55.3,384.1,-156.654,58.684,KING SALMON,AK
548,25506,46.2,56.0,352.7,-154.915,59.753,ILIAMNA,AK
549,25507,46.7,55.3,371.8,-151.477,59.647,HOMER,AK
550,25516,47.3,55.5,379.2,-151.702,59.443,SELDOVIA,AK
551,25624,49.2,52.5,469.1,-162.722,55.207,COLD BAY,AK
552,25628,47.5,50.5,474.7,-169.565,56.600,ST. GEORGE ISLAND,AK
553,26409,44.6,59.8,275.6,-149.855,61.217,ANCHORAGE,AK
554,26411,45.9,54.6,369.9,-147.855,64.817,FAIRBANKS,AK
555,26412,41.1,51.2,344.0,-141.946,62.961,NORTHWAY,AK
556,26415,43.8,52.3,371.8,-145.718,63.995,DELTA JUNCTION/FT GREELY,AK
557,26422,43.4,52.1,368.1,-141.148,64.777,EAGLE,AK
558,26425,40.4,52.3,316.9,-145.458,62.160,GULKANA,AK
559,26435,45.7,54.5,368.1,-149.072,64.550,NENANA,AK
560,26438,46.3,58.7,314.4,-149.417,60.128,SEWARD,AK
561,26451,45.7,59.0,301.5,-149.993,61.175,ANCHORAGE,AK
562,26491,45.7,59.7,292.2,-149.961,61.179,ANCHORAGE,AK
563,26492,44.7,54.0,359.4,-148.839,60.785,PORTAGE GLACIER,AK
564,26502,44.0,51.9,381.6,-158.742,64.327,KALTAG,AK
565,26510,45.3,54.4,363.1,-155.603,62.953,MC GRATH,AK
566,26523,45.8,54.9,363.1,-151.239,60.580,KENAI,AK
567,26528,45.5,56.2,338.5,-150.092,62.322,TALKEETNA,AK
568,26529,45.0,53.1,379.2,-152.107,65.174,TANANA,AK
569,26533,42.4,51.1,367.4,-151.509,66.916,BETTLES,AK
570,26615,47.1,52.7,424.2,-161.826,60.786,BETHEL,AK
571,26616,43.6,51.1,388.4,-162.597,66.885,KOTZEBUE,AK
572,26617,44.9,48.6,459.9,-165.443,64.513,NOME,AK
573,26642,42.7,47.8,431.5,-164.548,67.732,KIVALINA,AK
574,26643,43.1,49.3,411.2,-162.764,66.069,DEERING,AK
575,27406,37.1,41.6,440.8,-148.477,70.192,DEADHORSE,AK
576,27502,35.3,38.1,475.3,-156.763,71.287,BARROW,AK
577,27515,38.2,43.2,431.5,-151.002,70.212,NUIQSUT,AK
578,53119,52.8,81.3,154.2,-119.629,36.319,HANFORD,CA
579,53121,63.2,72.9,365.0,-117.349,33.219,OCEANSIDE,CA
580,53123,45.2,91.2,50.0,-115.196,36.212,LAS VEGAS,NV
581,53144,38.3,83.6,46.9,-117.865,34.988,EDWARDS,CA
582,53146,56.7,78.0,219.5,-110.428,31.607,FORT HUACHUCA,AZ
583,53802,61.6,72.9,340.9,-88.280,39.478,MATTOON/CHARLESTON,IL
584,53819,68.7,78.8,363.1,-84.567,33.355,ATLANTA,GA
585,53820,70.5,81.3,353.9,-87.044,31.416,EVERGREEN,AL
586,53838,66.0,77.8,337.2,-83.830,34.272,GAINESVILLE,GA
587,53841,62.0,72.5,352.7,-84.903,38.185,FRANKFORT,KY
588,53842,61.5,72.0,352.7,-86.296,39.825,INDIANAPOLIS,IN
589,53843,70.8,85.3,305.8,-86.394,31.309,ANDALUSIA (FT RUCKER),AL
590,53844,60.5,69.6,372.4,-82.657,39.756,LANCASTER,OH
591,53847,72.1,83.5,346.5,-87.023,30.704,MILTON,FL
592,53848,71.8,83.3,345.3,-86.960,30.507,MILTON,FL
593,53850,66.7,80.2,315.0,-82.886,34.672,CLEMSON,SC
594,53852,67.7,76.3,384.7,-86.945,34.653,DECATUR,AL
595,53853,74.3,84.0,371.8,-86.472,30.400,DESTIN,FL
596,53854,69.3,81.2,337.9,-80.858,33.462,ORANGEBURG,SC
597,53855,62.5,71.7,372.4,-84.525,39.364,HAMILTON,OH
598,53858,72.8,81.4,387.2,-88.532,30.464,PASCAGOULA,MS
599,53859,59.7,69.7,358.8,-84.226,39.594,DAYTON,OH
600,53860,73.8,82.2,390.9,-81.515,30.336,JACKSONVILLE,FL
601,53861,70.5,82.0,344.6,-85.751,31.356,FORT RUCKER/OZARK,AL
602,53863,67.7,79.5,338.5,-84.302,33.875,ATLANTA,GA
603,53864,69.1,79.8,354.5,-86.782,33.178,ALABASTER,AL
604,53865,73.2,81.9,385.9,-89.821,30.345,SLIDELL,LA
605,53866,62.0,72.1,358.8,-85.803,39.578,SHELBYVILLE,IN
606,53867,68.0,82.3,306.4,-80.996,33.971,COLUMBIA,SC
607,53868,65.4,76.4,347.7,-84.233,36.023,OAK RIDGE,TN
608,53869,69.9,77.0,409.4,-89.831,35.940,BLYTHEVILLE,AR
609,53870,64.4,79.4,294.7,-81.156,35.197,GASTONIA,NC
610,53871,66.0,78.9,322.4,-81.058,34.987,ROCK HILL,SC
611,53872,65.5,78.9,315.7,-80.621,35.017,MONROE,NC
612,53873,66.3,77.9,340.3,-84.849,34.123,CARTERSVILLE,GA
613,53874,67.6,79.4,338.5,-82.159,34.249,GREENWOOD,SC
614,53879,64.3,75.3,347.1,-94.371,38.960,LEE'S SUMMIT,MO
615,53901,63.8,72.9,374.8,-91.903,36.878,WEST PLAINS,MO
616,53902,68.7,83.3,302.7,-95.414,30.352,CONROE,TX
617,53903,69.3,85.2,287.9,-95.587,30.747,HUNTSVILLE,TX
618,53904,66.1,74.9,380.4,-90.428,38.929,ST CHARLES,MO
619,53905,67.1,83.6,279.3,-93.744,32.540,SHREVEPORT,LA
620,53907,63.1,87.5,196.7,-97.094,32.664,ARLINGTON,TX
621,53908,66.4,78.6,332.3,-95.984,36.039,TULSA,OK
622,53909,64.6,86.3,222.6,-97.318,32.973,FORT WORTH,TX
623,53910,71.4,84.5,323.7,-95.553,30.062,HOUSTON,TX
624,53911,66.5,84.8,259.0,-96.267,32.710,TERRELL,TX
625,53912,66.6,85.9,248.5,-96.398,32.027,CORSICANA,TX
626,53913,64.8,80.4,287.9,-97.416,35.850,GUTHRIE,OK
627,53914,65.7,84.8,249.7,-96.590,33.180,MC KINNEY,TX
628,53915,71.9,83.5,344.0,-91.884,30.038,NEW IBERIA,LA
629,53916,65.3,74.5,374.2,-93.579,39.823,CHILLICOTHE,MO
630,53917,72.2,84.8,331.1,-90.028,30.043,NEW ORLEANS,LA
631,53918,66.1,74.8,382.2,-92.470,36.369,MOUNTAIN HOME,AR
632,53919,68.8,82.2,318.1,-91.751,33.638,MONTICELLO,AR
633,53920,67.5,79.2,339.7,-93.095,35.258,RUSSELLVILLE,AR
634,53921,65.8,79.8,308.3,-93.578,34.547,MOUNT IDA,AR
635,53922,66.5,76.2,367.4,-94.307,36.282,FAYETTEVILLE/SPRINGDALE,AR
636,53925,67.8,80.3,329.2,-94.399,34.047,DE QUEEN,AR
637,53959,70.0,75.5,435.9,-90.234,35.135,WEST MEMPHIS,AR
638,53988,68.6,83.0,305.2,-92.967,31.150,FORT POLK,LA
639,54704,62.3,71.3,375.5,-71.174,42.191,NORWOOD,MA
640,54728,58.1,66.3,385.3,-71.545,44.368,WHITEFIELD,NH
641,54733,62.1,73.0,347.1,-70.918,42.584,BEVERLY,MA
642,54734,59.7,71.7,329.8,-73.483,41.371,DANBURY,CT
643,54737,61.4,72.5,344.0,-76.294,40.120,LANCASTER,PA
644,54740,58.9,69.5,349.0,-72.518,43.344,SPRINGFIELD,VT
645,54742,58.9,69.2,353.9,-72.019,44.419,SAINT JOHNSBURY,VT
646,54743,59.4,75.4,278.7,-74.283,40.876,CALDWELL,NJ
647,54756,60.4,70.2,361.9,-72.291,42.570,ORANGE,MA
648,54757,56.2,66.7,349.0,-77.992,42.109,WELLSVILLE,NY
649,54767,62.0,73.4,339.7,-72.184,41.742,WILLIMANTIC,CT
650,54768,59.6,68.7,372.4,-73.171,42.696,NORTH ADAMS,MA
651,54769,64.2,72.7,384.1,-70.729,41.910,PLYMOUTH,MA
652,54770,59.8,69.0,370.5,-72.004,42.805,JAFFREY,NH
653,54771,59.1,69.8,347.7,-72.614,44.534,MORRISVILLE,VT
654,54772,63.2,69.6,417.4,-70.948,43.991,FRYEBURG,ME
655,54773,59.7,69.2,366.2,-76.385,43.350,FULTON,NY
656,54777,62.6,72.4,363.1,-71.021,41.876,TAUNTON,MA
657,54778,59.7,69.4,363.1,-77.056,42.643,PENN YAN,NY
658,54779,61.8,70.8,374.8,-74.737,41.009,ANDOVER,NJ
659,54780,66.2,75.5,373.0,-71.923,41.073,MONTAUK,NY
660,54781,59.0,68.3,368.7,-73.247,42.891,BENNINGTON,VT
661,54782,61.6,72.4,348.3,-75.557,40.238,POTTSTOWN,PA
662,54785,60.2,73.7,310.1,-74.669,40.624,SOMERVILLE,NJ
663,54786,60.5,72.9,324.9,-75.123,40.330,DOYLESTOWN,PA
664,54787,62.5,77.1,298.4,-73.417,40.734,FARMINGDALE,NY
665,54788,61.3,74.0,321.8,-72.828,41.510,MERIDEN,CT
666,54789,57.5,66.7,369.3,-75.379,41.139,MOUNT POCONO,PA
667,54790,64.1,75.0,348.3,-72.869,40.822,SHIRLEY,NY
668,54791,60.9,71.8,346.5,-70.922,43.278,ROCHESTER,NH
669,54792,57.7,68.0,352.7,-78.412,41.047,CLEARFIELD,PA
670,54793,60.2,70.6,353.3,-74.623,41.200,SUSSEX,NJ
671,54813,58.4,66.9,381.0,-86.651,46.429,MUNISING,MI
672,63872,72.2,82.3,365.0,-85.129,31.951,EUFAULA,AL
673,63874,68.4,81.3,324.3,-86.611,31.846,GREENVILLE,AL
674,64775,59.4,68.6,370.5,-75.412,43.234,ROME,NY
675,64776,60.2,68.8,380.4,-73.468,44.651,PLATTSBURG,NY
676,73805,73.0,82.3,377.3,-85.788,30.349,PANAMA CITY,FL
677,92805,74.3,84.5,365.0,-80.108,26.250,POMPANO BEACH,FL
678,92806,74.6,84.2,373.6,-82.628,27.765,ST PETERSBURG,FL
679,92809,74.1,84.9,356.3,-80.241,25.999,HOLLYWOOD,FL
680,93005,43.1,67.9,173.9,-107.760,37.143,DURANGO,CO
681,93009,35.3,54.5,220.7,-106.316,39.228,LEADVILLE,CO
682,93010,50.7,69.2,242.3,-103.716,39.189,LIMON,CO
683,93013,45.7,71.9,164.6,-107.898,38.505,MONTROSE,CO
684,93027,50.4,74.3,189.3,-109.379,34.518,ST JOHNS,AZ
685,93033,55.5,84.5,152.9,-104.263,32.338,CARLSBAD,NM
686,93037,46.9,71.3,181.3,-104.711,38.812,COLORADO SPRINGS,CO
687,93042,59.5,77.3,258.3,-102.547,36.023,DALHART,TX
688,93045,51.5,81.1,144.3,-107.268,33.237,TRUTH OR CONSEQUENCES,NM
689,93058,50.7,77.6,164.0,-104.498,38.290,PUEBLO,CO
690,93067,46.7,72.4,170.2,-104.849,39.570,DENVER,CO
691,93069,46.6,70.6,184.4,-108.628,37.303,CORTEZ,CO
692,93073,41.2,64.1,189.3,-106.868,39.223,ASPEN,CO
693,93075,44.1,77.1,114.1,-109.754,38.755,MOAB,UT
694,93084,56.1,85.0,154.2,-109.635,32.855,SAFFORD,AZ
695,93102,33.4,75.4,56.2,-118.700,39.417,FALLON,NV
696,93104,34.6,86.5,20.4,-117.683,35.683,CHINA LAKE,CA
697,93107,60.8,77.6,270.7,-117.150,32.867,MIRAMAR,CA
698,93110,61.7,70.2,382.9,-119.206,34.201,OXNARD,CA
699,93112,64.3,73.3,376.7,-117.200,32.700,SAN DIEGO,CA
700,93129,41.6,72.1,128.3,-113.097,37.702,CEDAR CITY,UT
701,93134,61.7,77.1,287.9,-118.296,34.028,LOS ANGELES,CA
702,93138,52.6,95.6,69.1,-116.505,33.828,PALM SPRINGS,CA
703,93141,41.3,73.2,119.0,-110.750,39.545,PRICE,UT
704,93167,49.1,83.8,108.6,-113.937,35.259,KINGMAN,AZ
705,93184,63.1,75.1,332.3,-117.866,33.680,SANTA ANA,CA
706,93193,51.1,82.4,132.6,-119.719,36.780,FRESNO,CA
707,93197,62.6,73.0,354.5,-118.451,34.016,SANTA MONICA,CA
708,93205,52.2,76.9,183.8,-121.570,39.098,MARYSVILLE,CA
709,93206,56.5,70.9,295.9,-120.641,35.237,SAN LUIS OBISPO,CA
710,93209,52.4,75.2,201.0,-120.627,35.673,PASO ROBLES,CA
711,93210,51.5,78.5,164.0,-121.618,39.490,OROVILLE,CA
712,93225,53.8,76.2,205.9,-121.590,38.696,SACRAMENTO,CA
713,93227,56.2,68.7,320.6,-122.280,38.213,NAPA,CA
714,93228,57.0,69.1,326.8,-122.121,37.659,HAYWARD,CA
715,93230,36.1,62.8,151.1,-119.995,38.894,SOUTH LAKE TAHOE,CA
716,93241,51.7,76.9,178.8,-121.961,38.377,VACAVILLE,CA
717,93242,52.6,79.6,165.3,-120.111,36.988,MADERA,CA
718,93706,58.8,75.4,271.3,-77.730,39.708,HAGERSTOWN,MD
719,93718,71.4,79.2,398.9,-78.721,33.816,NORTH MYRTLE BEACH,SC
720,93719,68.8,78.7,365.6,-77.047,35.068,NEW BERN,NC
721,93720,65.5,74.5,377.3,-75.510,38.341,SALISBURY,MD
722,93721,62.3,75.2,320.0,-76.684,39.172,BALTIMORE,MD
723,93727,69.5,78.4,381.0,-77.433,34.700,NEW RIVER,NC
724,93729,70.9,78.7,398.9,-75.623,35.232,CAPE HATTERAS,NC
725,93730,63.5,75.8,328.6,-74.457,39.458,ATLANTIC CITY,NJ
726,93736,63.4,74.9,339.7,-78.453,38.139,CHARLOTTESVILLE,VA
727,93738,61.9,74.6,321.8,-77.448,38.935,WASHINGTON,DC
728,93739,68.1,75.4,405.0,-75.496,37.941,WALLOPS ISLAND,VA
729,93740,67.8,79.6,338.5,-78.880,34.991,FAYETTEVILLE,NC
730,93741,66.1,76.5,357.0,-76.493,37.132,NEWPORT NEWS,VA
731,93759,65.9,78.4,327.4,-77.893,35.855,ROCKY MOUNT,NC
732,93765,72.4,77.6,442.0,-76.661,34.734,BEAUFORT,NC
733,93773,65.8,74.6,380.4,-77.007,36.984,WAKEFIELD,VA
734,93775,65.1,75.0,363.7,-77.434,37.708,RICHMOND/ASHLAND,VA
735,93778,62.2,71.5,370.5,-76.874,39.918,YORK,PA
736,93780,61.6,74.5,319.4,-74.841,39.941,MOUNT HOLLY,NJ
737,93782,66.3,79.5,318.7,-79.366,34.792,MAXTON,NC
738,93783,65.4,77.0,339.7,-79.477,36.047,BURLINGTON,NC
739,93784,61.0,78.6,261.4,-76.610,39.281,BALTIMORE,MD
740,93785,63.0,77.8,295.9,-79.064,35.933,CHAPEL HILL,NC
741,93786,65.6,74.3,381.6,-75.124,38.308,OCEAN CITY,MD
742,93801,66.8,78.5,339.1,-85.161,34.348,ROME,GA
743,93805,73.3,84.3,353.3,-84.353,30.393,TALLAHASSEE,FL
744,93806,68.5,80.7,333.5,-87.616,33.212,TUSCALOOSA,AL
745,93807,64.3,76.5,330.5,-80.222,36.134,WINSTON SALEM,NC
746,93808,63.9,75.0,345.3,-86.436,36.981,BOWLING GREEN,KY
747,93810,65.4,73.9,384.7,-89.250,37.780,CARBONDALE/MURPHYBORO,IL
748,93812,63.2,71.4,388.4,-84.419,39.103,CINCINNATI,OH
749,93814,62.0,72.0,360.0,-84.672,39.043,COVINGTON,KY
750,93815,61.4,70.7,369.9,-84.219,39.906,DAYTON,OH
751,93817,64.5,74.9,355.7,-87.537,38.043,EVANSVILLE,IN
752,93819,60.4,72.9,323.7,-86.272,39.710,INDIANAPOLIS,IN
753,93820,62.5,73.0,353.3,-84.606,38.041,LEXINGTON,KY
754,93821,62.9,76.4,312.6,-85.730,38.177,LOUISVILLE,KY
755,93822,63.8,73.4,366.8,-89.684,39.845,SPRINGFIELD,IL
756,93824,58.3,70.6,324.9,-81.892,39.944,ZANESVILLE,OH
757,93831,73.4,82.1,385.9,-80.717,32.483,BEAUFORT,SC
758,93837,73.3,86.1,329.2,-81.683,30.233,JACKSONVILLE,FL
759,93841,71.4,81.7,361.9,-87.022,30.724,MILTON,FL
760,93842,69.1,81.6,329.8,-84.942,32.516,COLUMBUS,GA
761,93846,66.9,79.0,333.5,-82.709,34.495,ANDERSON,SC
762,93862,68.3,78.8,357.0,-88.771,34.261,TUPELO,MS
763,93874,71.5,82.5,352.0,-89.070,30.407,GULFPORT,MS
764,93909,65.2,74.7,369.3,-94.890,38.831,OLATHE,KS
765,93915,69.2,82.9,314.4,-92.559,31.335,ALEXANDRIA,LA
766,93919,69.8,82.0,334.2,-90.472,31.178,MCCOMB,MS
767,93950,65.6,81.8,281.1,-95.783,34.899,MC ALESTER,OK
768,93953,68.1,78.6,357.0,-95.361,35.657,MUSKOGEE,OK
769,93967,66.1,76.0,364.4,-95.566,37.091,COFFEYVILLE,KS
770,93985,66.0,83.9,262.7,-98.061,32.782,MINERAL WELLS,TX
771,93986,63.7,82.3,253.4,-99.051,35.008,HOBART,OK
772,93987,68.3,83.2,299.0,-94.750,31.234,LUFKIN,TX
773,93988,68.3,80.2,337.2,-91.935,34.175,PINE BLUFF,AR
774,93989,63.2,73.0,363.7,-91.194,39.943,QUINCY,IL
775,93990,60.5,76.9,275.0,-99.830,39.376,HILL CITY,KS
776,93992,66.8,81.5,300.3,-92.813,33.221,EL DORADO,AR
777,93993,66.6,73.9,404.4,-94.170,36.005,FAYETTEVILLE,AR
778,93997,61.3,76.5,289.8,-98.828,38.872,RUSSELL,KS
779,94008,47.0,70.4,190.5,-106.621,48.214,GLASGOW,MT
780,94012,46.6,67.9,209.6,-109.780,48.559,HAVRE,MT
781,94014,50.1,70.6,220.7,-103.642,48.195,WILLISTON,ND
782,94017,48.7,70.4,207.8,-105.574,48.094,WOLF POINT,MT
783,94023,46.4,70.3,185.0,-105.542,44.339,GILLETTE,WY
784,94030,42.4,71.8,136.9,-109.509,40.441,VERNAL,UT
785,94032,47.0,64.7,247.9,-103.628,43.731,CUSTER,SD
786,94037,51.1,70.4,234.3,-103.546,45.604,BUFFALO,SD
787,94038,50.8,67.9,258.3,-102.655,46.014,HETTINGER,ND
788,94039,53.1,70.2,260.2,-102.518,43.021,PINE RIDGE,SD
789,94040,59.5,74.1,295.9,-100.591,40.206,MC COOK,NE
790,94041,54.0,68.0,299.0,-101.439,47.663,GARRISON,ND
791,94050,41.7,67.0,168.3,-107.885,40.049,MEEKER,CO
792,94051,45.2,69.5,180.7,-106.948,47.326,JORDAN,MT
793,94052,60.4,71.4,344.6,-100.408,45.546,MOBRIDGE,SD
794,94053,50.1,71.9,208.4,-104.153,42.065,TORRINGTON,WY
795,94054,42.2,70.5,144.9,-106.721,44.381,BUFFALO,WY
796,94055,50.0,69.5,231.2,-104.250,46.358,BAKER,MT
797,94056,51.5,71.5,227.5,-102.019,45.032,FAITH,SD
798,94057,43.5,69.7,162.8,-105.386,42.797,DOUGLAS,WY
799,94107,28.8,73.9,39.5,-117.864,42.591,ROME,OR
800,94119,40.2,67.2,152.9,-117.421,47.969,DEER PARK,WA
801,94128,45.4,69.7,180.7,-111.853,41.787,LOGAN,UT
802,94129,39.6,67.8,143.1,-117.109,46.744,PULLMAN/MOSCOW,WA
803,94173,37.8,53.3,265.7,-110.421,44.544,YELLOWSTONE,WY
804,94176,42.5,72.5,132.6,-117.321,47.683,SPOKANE,WA
805,94178,39.8,74.6,99.3,-114.487,42.482,TWIN FALLS,ID
806,94182,38.2,64.0,160.9,-116.102,44.889,MCCALL,ID
807,94185,31.2,66.6,87.6,-118.954,43.592,BURNS,OR
808,94194,42.6,67.1,176.4,-111.881,43.834,REXBURG,ID
809,94197,40.2,73.6,107.9,-119.517,48.464,OMAK,WA
810,94224,56.4,63.7,398.9,-123.878,46.158,ASTORIA,OR
811,94225,55.5,63.3,390.3,-123.937,46.971,HOQUIAM,WA
812,94227,52.3,66.3,297.8,-123.148,47.238,SHELTON,WA
813,94236,42.2,65.9,183.1,-121.724,42.147,KLAMATH FALLS,OR
814,94239,42.8,76.9,106.1,-120.207,47.399,WENATCHEE,WA
815,94240,55.0,62.9,388.4,-124.561,47.934,QUILLAYUTE,WA
816,94248,53.6,69.4,276.2,-122.214,47.493,RENTON,WA
817,94261,50.8,69.1,244.8,-122.949,45.541,PORTLAND,OR
818,94273,51.6,69.2,253.4,-123.134,45.195,MC MINNVILLE,OR
819,94274,52.4,67.2,287.3,-122.576,47.268,TACOMA,WA
820,94276,52.2,62.5,349.0,-123.023,48.522,FRIDAY HARBOR,WA
821,94281,51.1,70.1,237.4,-122.769,45.249,AURORA,OR
822,94298,51.5,71.2,230.6,-122.657,45.621,VANCOUVER,WA
823,94299,35.9,66.8,120.3,-120.567,41.483,ALTURAS,CA
824,94623,61.9,69.4,398.9,-69.712,43.964,WISCASSET,ME
825,94624,66.2,72.6,419.2,-69.993,41.688,CHATHAM,MA
826,94626,59.1,66.3,402.0,-69.595,45.462,GREENVILLE,ME
827,94700,57.4,66.2,375.5,-71.179,44.576,BERLIN,NH
828,94702,63.8,76.2,327.4,-73.146,41.175,BRIDGEPORT,CT
829,94704,58.8,69.0,355.1,-77.713,42.571,DANSVILLE,NY
830,94705,58.1,67.0,374.2,-72.579,44.203,BARRE/MONTPELIER,VT
831,94720,65.3,73.6,387.8,-70.280,41.669,HYANNIS,MA
832,94723,61.8,73.8,331.7,-71.124,42.717,LAWRENCE,MA
833,94724,65.3,71.9,414.9,-70.615,41.393,VINEYARD HAVEN,MA
834,94725,59.4,68.5,371.8,-74.846,44.936,MASSENA,NY
835,94726,64.1,72.8,381.0,-70.958,41.676,NEW BEDFORD,MA
836,94728,59.4,79.0,238.6,-73.967,40.783,NEW YORK,NY
837,94732,58.4,78.0,238.0,-75.011,40.082,PHILADELPHIA,PA
838,94740,55.3,62.6,398.3,-74.207,44.385,SARANAC LAKE,NY
839,94741,58.6,77.8,242.3,-74.061,40.850,TETERBORO,NJ
840,94745,61.0,74.5,310.7,-73.708,41.067,WHITE PLAINS,NY
841,94746,59.6,70.7,342.8,-71.876,42.267,WORCESTER,MA
842,94765,59.8,70.1,353.9,-72.305,43.626,LEBANON,NH
843,94789,62.1,78.5,276.2,-73.796,40.655,NEW YORK,NY
844,94790,59.2,67.6,382.9,-76.022,43.992,WATERTOWN,NY
845,94814,58.0,66.6,379.2,-84.691,44.368,HOUGHTON LAKE,MI
846,94815,59.7,69.8,357.0,-85.552,42.235,KALAMAZOO,MI
847,94817,59.2,69.5,353.9,-83.418,42.665,PONTIAC,MI
848,94818,59.4,69.3,360.0,-87.814,42.761,RACINE,WI
849,94822,59.5,71.1,335.4,-89.093,42.196,ROCKFORD,IL
850,94823,58.3,71.3,315.7,-80.231,40.501,PITTSBURGH,PA
851,94830,60.5,69.9,368.1,-83.801,41.589,TOLEDO,OH
852,94846,60.0,71.8,332.9,-87.914,41.986,CHICAGO,IL
853,94847,59.5,71.8,325.5,-83.349,42.215,DETROIT,MI
854,94849,57.8,67.4,363.1,-83.581,45.072,ALPENA,MI
855,94855,59.0,68.1,371.8,-88.557,43.984,OSHKOSH,WI
856,94860,60.5,69.7,371.1,-85.523,42.882,GRAND RAPIDS,MI
857,94870,62.8,71.5,380.4,-88.278,40.040,CHAMPAIGN/URBANA,IL
858,94871,60.8,69.0,386.6,-86.422,42.129,BENTON HARBOR,MI
859,94889,59.5,67.5,389.0,-83.744,42.223,ANN ARBOR,MI
860,94892,59.8,70.0,355.7,-88.246,41.914,CHICAGO/WEST CHICAGO,IL
861,94893,56.8,65.6,374.8,-88.114,45.818,IRON MOUNTAIN/KINGSFORD,MI
862,94895,60.8,68.8,390.3,-85.394,40.234,MUNCIE,IN
863,94898,60.4,68.3,391.5,-82.793,44.022,HARBOR BEACH,MI
864,94899,56.6,65.9,366.8,-87.875,47.467,COPPER HARBOR,MI
865,94908,60.7,68.8,388.4,-90.704,42.398,DUBUQUE,IA
866,94910,60.8,68.8,390.3,-92.401,42.554,WATERLOO,IA
867,94929,58.8,65.8,405.0,-90.919,46.549,ASHLAND,WI
868,94931,54.8,62.8,386.6,-92.839,47.387,HIBBING,MN
869,94938,57.4,65.9,380.4,-94.131,46.405,BRAINERD,MN
870,94946,60.3,71.7,338.5,-99.639,41.437,BROKEN BOW,NE
871,94949,61.6,72.5,346.5,-98.427,40.604,HASTINGS,NE
872,94950,62.0,71.0,374.8,-98.038,43.777,MITCHELL,SD
873,94957,64.6,72.8,389.0,-95.592,40.079,FALLS CITY,NE
874,94958,60.4,70.5,357.6,-98.952,41.624,ORD,NE
875,94960,59.1,70.4,339.1,-93.351,45.063,MINNEAPOLIS,MN
876,94961,56.4,64.4,387.8,-94.610,48.728,BAUDETTE,MN
877,94963,59.9,70.4,351.4,-93.470,44.832,MINNEAPOLIS,MN
878,94967,56.1,66.7,347.1,-95.068,46.901,PARK RAPIDS,MN
879,94971,60.0,66.6,412.4,-94.746,43.408,ESTHERVILLE,IA
880,94973,57.1,64.4,399.5,-91.444,46.026,HAYWARD,WI
881,94978,63.6,71.5,393.3,-96.178,41.764,TEKAMAH,NE
882,94982,61.9,70.0,389.0,-90.591,41.614,DAVENPORT,IA
883,94985,56.8,67.2,350.8,-90.189,44.637,MARSHFIELD,WI
884,94988,62.0,68.5,415.5,-92.918,42.113,MARSHALLTOWN,IA
885,94989,62.1,68.9,410.6,-93.622,41.992,AMES,IA
886,94990,57.4,74.4,265.1,-99.842,43.390,WINNER,SD
887,94991,63.8,72.3,384.1,-93.902,40.633,LAMONI,IA
888,94992,52.6,59.5,403.8,-90.344,47.747,GRAND MARAIS,MN
889,94993,59.0,68.2,369.9,-96.991,45.669,SISSETON,SD
890,94994,60.2,70.6,353.3,-90.678,43.156,BOSCOBEL,WI
