,wban,dewpt,tavg,wp,long,lat,stname,ststate
0,03013,27.1,41.0,277.4,-102.688,38.070,LAMAR,CO
1,03017,20.0,38.5,213.3,-104.658,39.833,DENVER,CO
2,03024,33.0,49.9,244.2,-101.394,35.700,BORGER,TX
3,03026,25.2,39.8,266.4,-102.284,39.245,BURLINGTON,CO
4,03027,23.8,38.7,260.8,-105.663,35.003,CLINES CORNERS,NM
5,03028,27.4,39.9,297.2,-102.614,37.283,SPRINGFIELD,CO
6,03029,20.6,37.8,228.8,-109.061,35.658,WINDOW ROCK,AZ
7,03030,30.9,46.2,262.0,-101.505,36.682,GUYMON,OK
8,03031,38.7,55.3,253.4,-102.387,31.921,ODESSA,TX
9,03032,44.0,60.0,265.1,-102.213,30.048,DRYDEN,TX
10,03102,31.0,58.8,137.5,-117.600,34.056,ONTARIO,CA
11,03103,20.6,34.1,276.8,-111.672,35.140,FLAGSTAFF,AZ
12,03104,29.6,58.4,128.9,-116.160,33.628,PALM SPRINGS,CA
13,03124,27.5,54.4,141.2,-110.344,31.588,FORT HUACHUCA/SIERRA VISTA,AZ
14,03131,41.0,61.3,214.6,-117.139,32.816,SAN DIEGO,CA
15,03144,30.7,62.1,111.6,-115.579,32.834,IMPERIAL,CA
16,03145,29.6,64.1,91.3,-114.617,32.650,YUMA,AZ
17,03159,23.5,47.2,164.0,-118.219,34.741,LANCASTER,CA
18,03160,21.3,48.2,134.4,-116.028,36.621,MERCURY,NV
19,03162,25.8,44.8,213.3,-111.448,36.926,PAGE,AZ
20,03164,28.4,52.3,167.1,-116.467,32.617,CAMPO,CA
21,03166,36.9,62.1,164.6,-117.979,33.872,FULLERTON,CA
22,03167,38.0,67.1,135.1,-118.334,33.923,HAWTHORNE,CA
23,03171,29.3,60.2,113.5,-117.439,33.952,RIVERSIDE,CA
24,03177,40.7,60.9,215.2,-117.279,33.128,CARLSBAD,CA
25,03178,39.0,61.6,189.9,-116.979,32.572,SAN DIEGO,CA
26,03179,34.4,58.2,173.9,-117.636,33.975,CHINO,CA
27,03195,19.8,35.8,242.9,-112.155,35.946,GRAND CANYON,AZ
28,03196,28.3,54.9,144.3,-110.846,31.421,NOGALES,AZ
29,03757,45.2,53.4,377.3,-76.429,38.142,ST INIGOES,MD
30,03802,37.4,49.4,313.2,-80.229,39.296,CLARKSBURG,WV
31,03804,36.9,50.4,291.6,-81.439,39.345,PARKERSBURG,WV
32,03810,41.2,53.3,314.4,-81.390,35.741,HICKORY,NC
33,03811,44.6,54.8,345.3,-88.917,35.593,JACKSON,TN
34,03812,40.1,51.4,325.5,-82.538,35.432,ASHEVILLE,NC
35,03813,51.4,59.5,382.9,-83.654,32.688,MACON,GA
36,03816,41.5,52.8,326.1,-88.774,37.056,PADUCAH,KY
37,03818,58.1,65.1,405.0,-85.184,30.836,MARIANNA,FL
38,03820,51.4,58.6,398.3,-81.965,33.370,AUGUSTA,GA
39,03822,55.6,64.2,377.3,-81.202,32.119,SAVANNAH,GA
40,03847,41.8,53.5,320.6,-85.085,35.951,CROSSVILLE,TN
41,03849,39.6,51.3,318.7,-84.077,37.087,LONDON,KY
42,03853,64.3,70.7,418.0,-81.417,30.400,MAYPORT,FL
43,03856,46.1,58.8,310.1,-86.786,34.644,HUNTSVILLE,AL
44,03859,36.6,51.7,270.1,-81.208,37.296,BLUEFIELD,WV
45,03860,38.6,50.9,309.5,-82.555,38.382,HUNTINGTON,WV
46,03866,51.0,59.7,373.0,-88.567,32.550,MERIDIAN,MS
47,03868,37.2,47.4,339.7,-87.309,39.452,TERRE HAUTE,IN
48,03870,45.4,55.4,349.0,-82.219,34.899,GREER,SC
49,03872,36.2,49.4,294.7,-81.125,37.795,BECKLEY,WV
50,03878,54.0,62.1,384.7,-86.012,31.861,TROY,AL
51,03887,37.3,47.5,339.7,-88.866,39.984,DECATUR,IL
52,03888,47.3,56.7,359.4,-84.521,33.779,ATLANTA,GA
53,03889,37.7,53.4,263.3,-83.314,37.591,JACKSON,KY
54,03893,37.4,48.0,333.5,-86.617,39.144,BLOOMINGTON,IN
55,03894,43.2,53.6,340.9,-87.415,36.622,CLARKSVILLE,TN
56,03904,52.4,61.8,363.1,-96.364,30.588,COLLEGE STATION,TX
57,03919,35.9,49.1,294.7,-97.661,38.813,SALINA,KS
58,03927,46.4,58.7,315.7,-97.041,32.896,DALLAS-FORT WORTH,TX
59,03928,37.0,50.7,288.5,-97.429,37.647,WICHITA,KS
60,03932,39.1,50.5,323.1,-99.200,35.340,CLINTON,OK
61,03935,42.6,50.5,381.0,-89.571,37.225,CAPE GIRARDEAU,MO
62,03936,36.4,48.4,312.0,-96.678,39.135,MANHATTAN,KS
63,03937,57.0,65.2,384.7,-93.228,30.125,LAKE CHARLES,LA
64,03940,51.7,61.1,362.5,-90.078,32.320,JACKSON,MS
65,03945,37.6,49.1,320.6,-92.218,38.817,COLUMBIA,MO
66,03947,37.6,48.2,334.2,-94.718,39.299,KANSAS CITY,MO
67,03949,54.1,62.5,379.8,-93.283,31.400,FORT POLK,LA
68,03950,41.9,53.0,329.8,-98.416,34.568,LAWTON,OK
69,03953,45.5,52.8,393.3,-90.646,35.831,JONESBORO,AR
70,03954,40.3,51.9,321.2,-97.647,35.534,OKLAHOMA CITY,OK
71,03959,39.4,49.3,346.5,-96.011,36.762,BARTLESVILLE,OK
72,03960,38.6,49.9,324.3,-90.157,38.571,CAHOKIA/ST.LOUIS,IL
73,03963,37.4,48.5,326.1,-92.156,38.591,JEFFERSON CITY,MO
74,03966,39.1,49.6,336.6,-90.656,38.657,ST LOUIS,MO
75,03967,36.7,47.5,330.5,-94.739,38.850,OLATHE,KS
76,03971,47.1,57.3,347.1,-96.868,32.681,DALLAS,TX
77,03975,42.6,51.1,371.1,-90.325,36.773,POPLAR BLUFF,MO
78,03981,43.7,53.2,355.7,-98.984,34.352,FREDERICK,OK
79,03991,46.4,54.5,379.8,-97.199,33.206,DENTON,TX
80,03994,39.0,50.2,326.1,-93.183,38.704,SEDALIA,MO
81,03996,52.7,61.0,380.4,-91.030,32.348,TALLULAH/VICKSBURG,MS
82,03997,37.2,47.0,346.5,-95.212,39.008,LAWRENCE,KS
83,03998,40.1,49.8,349.6,-95.504,37.328,PARSONS,KS
84,03999,47.9,59.1,332.9,-98.235,30.741,BURNET,TX
85,04109,31.6,38.1,399.5,-115.596,46.144,ELK CITY,ID
86,04110,22.9,32.8,334.2,-114.456,42.727,JEROME,ID
87,04111,14.6,29.5,252.2,-111.031,41.273,EVANSTON,WY
88,04112,12.7,21.8,339.7,-114.927,44.171,STANLEY,ID
89,04113,32.6,40.1,381.6,-119.261,45.826,HERMISTON,OR
90,04114,15.7,25.1,336.6,-114.215,41.523,CHALLIS,ID
91,04201,37.8,42.9,429.1,-122.861,45.773,SCAPPOOSE,OR
92,04724,36.1,44.8,363.1,-78.945,43.107,NIAGARA FALLS,NY
93,04725,34.5,44.1,347.7,-75.981,42.208,BINGHAMTON,NY
94,04726,32.4,46.0,286.1,-78.834,40.301,JOHNSTOWN,PA
95,04751,32.7,42.1,349.6,-78.640,41.803,BRADFORD,PA
96,04780,33.3,44.2,326.1,-71.756,42.552,FITCHBURG,MA
97,04781,39.9,49.9,345.3,-73.102,40.794,ISLIP,NY
98,04787,33.8,41.6,377.3,-78.899,41.178,DU BOIS,PA
99,04789,36.5,45.7,355.1,-74.265,41.509,MONTGOMERY,NY
100,04803,30.1,36.6,398.9,-89.465,45.631,RHINELANDER,WI
101,04804,36.7,47.8,325.5,-83.078,40.078,COLUMBUS,OH
102,04808,35.5,43.3,378.5,-88.481,41.770,CHICAGO/AURORA,IL
103,04826,30.4,40.3,339.7,-89.837,44.359,WISCONSIN RAPIDS,WI
104,04836,27.1,34.0,389.6,-68.307,47.286,FRENCHVILLE,ME
105,04838,35.4,44.7,353.3,-87.905,42.121,CHICAGO/PROSPECT HGTS/WHEELI,IL
106,04839,35.2,46.1,327.4,-86.097,42.746,HOLLAND,MI
107,04840,33.7,42.4,361.9,-88.486,43.770,FOND DU LAC,WI
108,04841,33.5,41.8,368.7,-87.851,43.769,SHEBOYGAN,WI
109,04842,35.3,45.6,336.6,-81.887,40.875,WOOSTER,OH
110,04843,33.7,47.0,291.6,-80.215,41.626,MEADVILLE,PA
111,04845,34.7,44.0,352.7,-87.938,42.595,KENOSHA,WI
112,04846,35.8,45.1,353.3,-87.006,41.453,VALPARAISO,IN
113,04848,35.5,46.8,321.8,-83.476,41.563,TOLEDO,OH
114,04849,35.1,47.0,312.6,-82.179,41.179,LORAIN/ELYRIA,OH
115,04850,36.6,46.7,340.9,-84.027,40.708,LIMA,OH
116,04851,35.2,46.2,326.1,-84.429,41.338,DEFIANCE,OH
117,04852,35.8,48.0,308.9,-81.420,40.470,NEW PHILADELPHIA,OH
118,04853,35.4,50.5,268.8,-81.684,41.518,CLEVELAND,OH
119,04854,33.6,40.3,397.0,-84.701,45.013,GAYLORD,MI
120,04855,35.0,46.3,321.2,-83.064,40.616,MARION,OH
121,04857,36.1,46.6,334.2,-80.696,41.778,ASHTABULA,OH
122,04858,36.3,47.7,320.6,-82.463,40.023,NEWARK,OH
127,12812,68.2,75.5,405.0,-81.991,26.917,PUNTA GORDA,FL
128,12815,64.9,74.8,363.1,-81.325,28.434,ORLANDO,FL
129,12816,62.1,70.0,392.1,-82.272,29.690,GAINESVILLE,FL
130,12818,64.1,73.2,374.8,-82.454,28.474,BROOKSVILLE,FL
131,12819,64.4,74.0,367.4,-81.810,28.821,LEESBURG,FL
132,12832,61.3,68.3,406.3,-85.033,29.733,APALACHICOLA,FL
133,12833,61.9,70.3,384.1,-83.105,29.550,CROSS CITY,FL
134,12834,65.7,74.1,386.6,-81.060,29.177,DAYTONA BEACH,FL
135,12835,67.7,76.7,378.5,-81.864,26.586,FORT MYERS,FL
136,12836,72.6,79.5,413.7,-81.754,24.553,KEY WEST,FL
137,12838,67.4,75.4,393.9,-80.646,28.103,MELBOURNE,FL
138,12839,70.2,78.4,392.1,-80.300,25.824,MIAMI,FL
139,12841,65.2,75.6,356.3,-81.333,28.545,ORLANDO,FL
140,12842,65.1,75.8,352.0,-82.540,27.961,TAMPA,FL
141,12843,67.2,77.5,358.8,-80.418,27.656,VERO BEACH,FL
142,12844,68.3,78.2,365.6,-80.099,26.685,WEST PALM BEACH,FL
143,12849,70.6,78.9,390.9,-80.154,26.072,FORT LAUDERDALE,FL
144,12854,65.1,74.6,369.3,-81.244,28.780,ORLANDO,FL
145,12871,66.4,75.5,376.1,-82.559,27.401,SARASOTA/BRADENTON,FL
146,12873,66.3,75.5,374.8,-82.688,27.911,ST PETERSBURG/CLEARWATER,FL
147,12876,65.9,75.1,374.2,-81.754,28.062,WINTER HAVEN,FL
148,12884,61.4,68.8,400.1,-89.408,29.350,BOOTHVILLE,LA
149,12885,69.2,78.9,368.7,-80.171,26.197,FORT LAUDERDALE,FL
150,12888,71.0,77.5,419.2,-80.433,25.648,MIAMI,FL
151,12894,67.4,77.8,357.6,-81.755,26.536,FORT MYERS,FL
152,12895,68.5,75.7,406.9,-80.377,27.498,FORT PIERCE,FL
153,12896,73.2,80.1,414.3,-81.052,24.726,MARATHON,FL
154,12897,67.8,78.4,355.1,-81.775,26.153,NAPLES,FL
155,12904,63.1,71.7,381.6,-97.654,26.228,HARLINGEN,TX
156,12912,58.7,64.8,420.5,-96.930,28.863,VICTORIA,TX
157,12916,56.7,67.0,352.0,-90.251,29.993,NEW ORLEANS,LA
158,12917,58.4,65.8,398.3,-94.021,29.951,BEAUMONT/PORT ARTHUR,TX
159,12918,56.8,65.7,373.6,-95.279,29.645,HOUSTON,TX
160,12919,64.9,73.6,381.6,-97.426,25.906,BROWNSVILLE,TX
161,12921,51.7,63.0,334.2,-98.464,29.533,SAN ANTONIO,TX
162,12923,61.5,66.6,439.6,-94.860,29.265,GALVESTON,TX
163,12924,59.8,66.6,409.4,-97.513,27.773,CORPUS CHRISTI,TX
164,12928,62.4,69.2,410.6,-97.817,27.500,KINGSVILLE,TX
165,12932,58.9,67.6,377.9,-98.027,27.741,ALICE,TX
166,12935,60.1,66.7,412.4,-96.251,28.728,PALACIOS,TX
167,12947,53.7,66.1,320.0,-99.220,28.458,COTULLA,TX
168,12957,66.3,72.3,426.0,-97.346,26.166,PORT ISABEL,TX
169,12959,61.5,72.2,349.6,-98.238,26.175,MC ALLEN,TX
170,12960,56.0,63.2,400.7,-95.364,29.993,HOUSTON,TX
171,12970,52.2,64.1,325.5,-98.471,29.337,SAN ANTONIO,TX
172,12971,52.4,62.6,350.8,-98.045,29.709,NEW BRAUNFELS,TX
173,12975,57.6,66.1,380.4,-95.240,29.521,HOUSTON,TX
174,12976,59.7,66.4,410.6,-95.462,29.110,ANGLETON/LAKE JACKSON,TX
175,12977,56.9,64.4,395.8,-95.656,29.622,HOUSTON,TX
176,13721,43.8,52.4,369.9,-76.400,38.283,PATUXENT RIVER,MD
177,13722,46.1,55.5,358.8,-78.786,35.871,RALEIGH/DURHAM,NC
178,13723,41.8,53.8,316.3,-79.944,36.098,GREENSBORO,NC
179,13728,43.2,53.7,339.7,-79.336,36.573,DANVILLE,VA
180,13729,35.1,46.8,315.7,-79.853,38.885,ELKINS,WV
181,13733,40.1,51.4,325.5,-79.207,37.338,LYNCHBURG,VA
182,13734,36.7,48.9,309.5,-77.984,39.402,MARTINSBURG,WV
183,13735,41.5,50.1,368.7,-75.078,39.366,MILLVILLE,NJ
184,13736,34.5,50.5,256.5,-79.916,39.643,MORGANTOWN,WV
185,13737,48.1,57.4,361.9,-76.192,36.904,NORFOLK,VA
186,13739,39.4,53.2,289.2,-75.231,39.868,PHILADELPHIA,PA
187,13740,44.1,46.6,483.9,-77.323,37.511,RICHMOND,VA
188,13741,39.2,52.3,299.0,-79.974,37.317,ROANOKE,VA
189,13743,42.0,53.1,329.8,-77.034,38.865,WASHINGTON,DC
190,13744,50.6,59.0,377.9,-79.731,34.188,FLORENCE,SC
191,13748,52.8,60.6,389.0,-77.906,34.268,WILMINGTON,NC
192,13750,48.0,57.6,357.0,-76.283,36.933,NORFOLK,VA
193,13752,43.3,52.8,355.1,-76.483,38.991,ANNAPOLIS,MD
194,13754,51.9,59.7,388.4,-76.883,34.900,CHERRY POINT,NC
195,13764,44.3,52.3,380.4,-75.359,38.689,GEORGETOWN,DE
196,13769,48.4,55.7,394.6,-76.033,36.817,OCEANA,VA
197,13776,49.6,58.6,367.4,-79.059,34.610,LUMBERTON,NC
198,13781,40.6,50.8,342.2,-75.601,39.673,WILMINGTON,DE
199,13786,50.1,57.4,395.8,-76.175,36.261,ELIZABETH CITY,NC
200,13810,40.2,51.4,326.8,-85.664,38.228,LOUISVILLE,KY
201,13833,53.7,61.7,385.9,-89.253,31.265,HATTIESBURG,MS
202,13837,50.2,61.3,336.0,-82.039,33.467,AUGUSTA,GA
203,13838,57.1,64.2,402.6,-88.068,30.626,MOBILE,AL
204,13839,55.3,60.2,440.8,-85.450,31.321,DOTHAN,AL
205,13841,37.3,47.9,333.5,-83.822,39.420,WILMINGTON,OH
206,13865,51.8,59.8,384.7,-88.751,32.333,MERIDIAN,MS
207,13866,38.1,52.1,285.5,-81.591,38.379,CHARLESTON,WV
208,13869,55.2,64.5,366.2,-84.194,31.536,ALBANY,GA
209,13870,57.0,64.9,389.6,-82.507,31.536,ALMA,GA
210,13871,48.8,58.8,351.4,-85.858,33.588,ANNISTON,AL
211,13873,48.5,56.7,379.8,-83.327,33.948,ATHENS,GA
212,13874,47.3,57.7,344.0,-84.427,33.640,ATLANTA,GA
213,13876,49.7,59.5,355.1,-86.754,33.564,BIRMINGHAM,AL
214,13877,41.1,51.5,339.7,-82.399,36.480,BRISTOL/JHNSN CTY/KNGSPRT,TN
215,13878,61.3,67.0,428.5,-81.391,31.252,BRUNSWICK,GA
216,13880,54.6,63.1,378.5,-80.041,32.899,CHARLESTON,SC
217,13881,43.3,54.6,328.0,-80.944,35.214,CHARLOTTE,NC
218,13882,46.2,56.4,346.5,-85.200,35.033,CHATTANOOGA,TN
219,13883,48.7,59.0,346.5,-81.118,33.942,COLUMBIA,SC
220,13884,56.5,63.8,398.9,-86.523,30.780,CRESTVIEW,FL
221,13886,43.7,56.0,313.8,-82.346,34.846,GREENVILLE,SC
222,13889,62.4,68.5,422.3,-81.693,30.494,JACKSONVILLE,FL
223,13893,45.5,57.8,315.0,-89.985,35.061,MEMPHIS,TN
224,13894,56.7,63.6,405.7,-88.246,30.688,MOBILE,AL
225,13895,51.5,62.2,342.8,-86.394,32.301,MONTGOMERY,AL
226,13896,46.2,57.4,331.7,-87.610,34.745,MUSCLE SHOALS,AL
227,13897,43.2,55.7,310.7,-86.689,36.119,NASHVILLE,TN
228,13899,57.3,65.6,383.5,-87.188,30.473,PENSACOLA,FL
229,13904,51.6,60.5,370.5,-97.681,30.179,AUSTIN/BERGSTROM,TX
230,13911,46.9,59.2,316.3,-97.441,32.769,FORT WORTH,TX
231,13920,37.3,49.0,317.5,-95.664,38.950,TOPEKA,KS
232,13927,51.1,60.9,355.7,-90.223,32.335,JACKSON,MS
233,13932,38.8,50.0,325.5,-97.037,37.168,WINFIELD/ARKANSAS CITY,KS
234,13935,54.5,63.8,365.6,-92.296,31.395,ALEXANDRIA,LA
235,13939,49.3,58.4,365.6,-90.986,33.483,GREENVILLE,MS
236,13942,52.8,60.3,393.9,-92.038,32.511,MONROE,LA
237,13957,51.1,60.6,360.7,-93.824,32.447,SHREVEPORT,LA
238,13958,51.3,61.5,350.2,-97.767,30.317,AUSTIN/CITY,TX
239,13959,49.5,58.5,367.4,-97.229,31.611,WACO,TX
240,13960,47.0,58.5,327.4,-96.851,32.847,DALLAS,TX
241,13961,46.9,58.9,320.6,-97.361,32.819,FORT WORTH,TX
242,13962,43.6,55.1,324.9,-99.682,32.411,ABILENE,TX
243,13963,45.7,55.9,345.9,-92.233,34.747,LITTLE ROCK,AR
244,13964,41.6,54.9,297.8,-94.365,35.334,FORT SMITH,AR
245,13966,42.7,54.0,327.4,-98.493,33.979,WICHITA FALLS,TX
246,13967,41.3,51.6,341.6,-97.600,35.389,OKLAHOMA CITY,OK
247,13968,42.5,52.6,345.3,-95.886,36.198,TULSA,OK
248,13969,39.0,51.0,314.4,-97.100,36.731,PONCA CITY,OK
249,13970,55.8,62.6,406.9,-91.147,30.537,BATON ROUGE,LA
250,13971,40.7,51.2,337.9,-93.155,36.261,HARRISON,AR
251,13972,49.2,59.3,350.2,-95.402,32.354,TYLER,TX
252,13973,45.8,57.7,321.2,-99.766,30.511,JUNCTION,TX
253,13975,35.6,48.5,298.4,-99.775,36.297,GAGE,OK
254,13976,57.6,65.8,384.7,-91.988,30.205,LAFAYETTE,LA
255,13977,48.8,57.0,379.8,-94.008,33.454,TEXARKANA,AR
256,13978,48.4,60.2,324.3,-90.084,33.496,GREENWOOD,MS
257,13981,38.9,49.3,337.9,-95.484,37.670,CHANUTE,KS
258,13984,34.4,47.0,302.1,-97.652,39.549,CONCORDIA,KS
259,13985,32.4,44.7,304.6,-99.970,37.773,DODGE CITY,KS
260,13986,35.9,48.8,299.0,-97.861,38.068,HUTCHINSON,KS
261,13987,39.5,50.5,329.2,-94.498,37.149,JOPLIN,MO
262,13988,37.9,50.5,304.6,-94.593,39.123,KANSAS CITY,MO
263,13989,36.3,48.4,310.7,-96.190,38.331,EMPORIA,KS
264,13993,37.1,47.1,342.8,-94.907,39.774,ST JOSEPH,MO
265,13994,37.9,51.7,287.9,-90.374,38.753,ST LOUIS,MO
266,13995,37.8,50.0,310.1,-93.390,37.240,SPRINGFIELD,MO
267,13996,36.7,48.5,315.0,-95.626,39.073,TOPEKA,KS
268,13997,38.0,49.1,326.8,-91.769,38.128,ROLLA/VICHY,MO
269,14605,31.4,40.9,347.1,-69.797,44.321,AUGUSTA,ME
270,14606,31.5,39.0,381.0,-68.824,44.808,BANGOR,ME
271,14607,28.3,35.4,386.6,-68.033,46.867,CARIBOU,ME
272,14609,30.0,35.6,415.5,-67.792,46.123,HOULTON,ME
273,14610,30.3,38.6,366.2,-68.686,45.648,MILLINOCKET,ME
274,14702,34.4,44.3,342.8,-71.289,42.470,BEDFORD,MA
275,14707,39.9,47.9,377.9,-72.049,41.328,GROTON NEW LONDON,CT
276,14710,35.6,45.3,346.5,-71.438,42.933,MANCHESTER,NH
277,14711,38.0,49.5,320.6,-76.763,40.194,HARRISBURG,PA
278,14712,37.3,49.0,317.5,-75.959,40.373,READING,PA
279,14719,39.5,47.8,372.4,-72.632,40.844,WESTHAMPTON BEACH,NY
280,14732,39.3,53.3,286.7,-73.881,40.779,NEW YORK,NY
281,14733,35.8,46.2,336.0,-78.736,42.941,BUFFALO,NY
282,14734,39.1,52.1,300.3,-74.169,40.716,NEWARK,NJ
283,14735,34.2,45.6,319.4,-73.803,42.748,ALBANY,NY
284,14736,34.6,47.6,296.6,-78.317,40.300,ALTOONA,PA
285,14739,36.6,48.6,312.0,-71.011,42.361,BOSTON,MA
286,14740,35.0,46.6,316.9,-72.683,41.938,WINDSOR LOCKS,CT
287,14742,31.9,43.5,314.4,-73.150,44.468,BURLINGTON,VT
288,14745,31.6,42.4,326.1,-71.501,43.195,CONCORD,NH
289,14747,36.0,46.0,342.2,-79.272,42.493,DUNKIRK,NY
290,14748,35.6,43.8,371.8,-76.892,42.159,ELMIRA/CORNING,NY
291,14750,32.8,42.8,339.7,-73.610,43.341,GLENS FALLS,NY
292,14751,36.1,50.1,284.2,-76.851,40.217,HARRISBURG,PA
293,14752,36.7,47.6,328.6,-72.651,41.736,HARTFORD,CT
294,14757,35.6,46.4,329.2,-73.884,41.627,POUGHKEEPSIE,NY
295,14758,38.4,47.3,361.9,-72.887,41.264,NEW HAVEN,CT
296,14762,33.0,50.7,234.9,-79.922,40.355,PITTSBURGH,PA
297,14763,33.4,42.1,361.3,-73.289,42.427,PITTSFIELD,MA
298,14764,33.9,42.6,361.9,-70.304,43.642,PORTLAND,ME
299,14765,37.1,47.8,332.3,-71.433,41.722,PROVIDENCE,RI
300,14768,35.5,46.6,324.9,-77.677,43.117,ROCHESTER,NY
301,14770,36.5,46.5,342.8,-76.864,40.821,SELINSGROVE,PA
302,14771,36.9,46.0,357.6,-76.103,43.109,SYRACUSE,NY
303,14775,34.3,44.7,334.8,-72.716,42.158,WESTFIELD/SPRINGFIELD,MA
304,14777,35.6,48.2,302.7,-75.727,41.339,WILKES-BARRE/SCRANTON,PA
305,14778,35.4,47.0,316.9,-76.922,41.243,WILLIAMSPORT,PA
306,14787,39.9,49.3,354.5,-71.284,41.530,NEWPORT,RI
307,14792,38.9,50.2,324.3,-74.814,40.277,TRENTON,NJ
308,14794,38.6,47.8,357.0,-71.799,41.350,WESTERLY,RI
309,14813,35.5,48.5,297.2,-81.464,41.038,AKRON,OH
310,14815,34.7,45.1,334.8,-85.251,42.308,BATTLE CREEK,MI
311,14819,34.9,47.4,304.0,-87.752,41.786,CHICAGO,IL
312,14820,35.1,48.2,295.3,-81.853,41.405,CLEVELAND,OH
313,14821,36.7,48.6,313.8,-82.881,39.991,COLUMBUS,OH
314,14822,35.2,45.6,335.4,-83.010,42.409,DETROIT,MI
315,14825,35.9,47.7,314.4,-83.669,41.014,FINDLAY,OH
316,14826,34.0,46.1,308.9,-83.749,42.967,FLINT,MI
317,14827,36.0,45.0,358.2,-85.206,41.006,FORT WAYNE,IN
318,14829,35.0,44.7,346.5,-85.792,41.527,GOSHEN,IN
319,14833,33.5,44.0,332.3,-84.459,42.260,JACKSON,MI
320,14835,35.9,45.2,353.3,-86.937,40.412,LAFAYETTE,IN
321,14836,33.9,44.5,331.1,-84.579,42.780,LANSING,MI
322,14837,33.1,42.3,353.3,-89.345,43.141,MADISON,WI
323,14839,34.2,44.5,336.0,-87.897,42.947,MILWAUKEE,WI
324,14840,34.3,46.0,315.0,-86.237,43.171,MUSKEGON,MI
325,14841,33.7,39.9,406.3,-84.796,45.571,PELLSTON,MI
326,14842,36.3,47.9,318.1,-89.684,40.668,PEORIA,IL
327,14845,34.6,45.6,325.5,-84.080,43.533,SAGINAW,MI
328,14847,33.6,40.8,387.8,-84.367,46.467,SAULT STE MARIE,MI
329,14848,34.5,44.5,340.9,-86.333,41.707,SOUTH BEND,IN
330,14850,34.0,44.1,339.1,-85.583,44.741,TRAVERSE CITY,MI
331,14852,35.0,47.2,308.3,-80.674,41.254,YOUNGSTOWN/WARREN,OH
332,14853,35.4,47.3,312.6,-83.230,42.237,DETROIT,MI
333,14858,30.9,38.1,385.9,-88.506,47.169,HANCOCK,MI
334,14860,35.2,48.1,298.4,-80.183,42.080,ERIE,PA
335,14880,35.6,43.9,369.9,-87.868,42.422,CHICAGO/WAUKEGAN,IL
336,14891,35.5,47.1,317.5,-82.518,40.820,MANSFIELD,OH
337,14894,34.6,49.2,274.4,-80.647,40.176,WHEELING,WV
338,14895,34.5,48.2,286.7,-81.443,40.918,AKRON,OH
339,14897,31.7,39.4,377.9,-89.627,44.929,WAUSAU,WI
340,14898,34.1,41.5,384.7,-88.120,44.513,GREEN BAY,WI
341,14910,30.8,37.0,404.4,-95.393,45.883,ALEXANDRIA,MN
342,14913,29.2,36.7,379.8,-92.194,46.844,DULUTH,MN
343,14914,28.8,36.3,379.8,-96.811,46.925,FARGO,ND
344,14916,27.6,33.8,403.2,-97.176,47.949,GRAND FORKS,ND
345,14918,28.5,33.3,430.9,-93.403,48.566,INTERNATIONAL FALLS,MN
346,14919,25.8,33.7,370.5,-98.678,46.930,JAMESTOWN,ND
347,14920,33.0,43.1,338.5,-91.256,43.754,LA CROSSE,WI
348,14921,32.6,41.0,366.2,-90.181,43.212,LONE ROCK,WI
349,14922,31.7,41.4,344.0,-93.229,44.883,MINNEAPOLIS,MN
350,14923,34.7,44.0,352.7,-90.523,41.465,MOLINE,IL
351,14925,32.3,39.4,389.0,-92.492,43.904,ROCHESTER,MN
352,14926,31.3,38.1,393.9,-94.052,45.545,ST CLOUD,MN
353,14927,32.5,41.0,364.4,-93.048,44.930,ST PAUL,MN
354,14929,27.4,37.1,340.3,-98.421,45.450,ABERDEEN,SD
355,14931,37.6,45.5,377.9,-91.125,40.783,BURLINGTON,IA
356,14933,33.9,45.7,313.2,-93.666,41.538,DES MOINES,IA
357,14935,32.6,43.0,333.5,-98.313,40.958,GRAND ISLAND,NE
358,14936,28.8,38.9,335.4,-98.229,44.385,HURON,SD
359,14937,35.1,42.8,379.8,-91.543,41.633,IOWA CITY,IA
360,14939,34.0,44.9,326.8,-96.764,40.831,LINCOLN,NE
361,14940,32.7,39.1,402.0,-93.331,43.158,MASON CITY,IA
362,14941,32.2,42.9,328.6,-97.437,41.981,NORFOLK,NE
363,14942,34.8,45.2,334.8,-95.899,41.310,OMAHA,NE
364,14943,32.5,41.4,357.6,-96.379,42.391,SIOUX CITY,IA
365,14944,30.2,38.3,369.9,-96.754,43.577,SIOUX FALLS,SD
366,14946,29.1,38.6,345.3,-97.154,44.931,WATERTOWN,SD
367,14991,30.8,40.1,349.6,-91.485,44.865,EAU CLAIRE,WI
368,14992,32.1,40.6,364.4,-95.082,44.547,REDWOOD FALLS,MN
369,21504,69.1,76.8,399.5,-155.051,19.723,HILO,HI
370,21510,69.2,80.5,346.5,-156.049,19.736,KAILUA/KONA,HI
371,22010,50.1,61.8,327.4,-100.922,29.367,DEL RIO,TX
372,22516,67.6,78.5,350.8,-156.433,20.902,KAHULUI,HI
373,22521,68.9,80.2,345.9,-157.943,21.328,HONOLULU,HI
374,22534,67.6,77.1,371.1,-157.099,21.157,KAUNAKAKAI,HI
375,22536,69.8,78.9,377.9,-159.341,21.979,LIHUE,HI
376,22551,67.6,79.4,338.5,-158.067,21.317,KAPOLEI,HI
377,23007,38.3,52.1,288.5,-100.288,34.434,CHILDRESS,TX
378,23009,31.6,48.9,238.6,-104.541,33.308,ROSWELL,NM
379,23023,39.6,54.9,270.1,-102.208,31.932,MIDLAND,TX
380,23034,44.2,57.0,307.0,-100.494,31.351,SAN ANGELO,TX
381,23042,35.8,50.4,275.6,-101.821,33.668,LUBBOCK,TX
382,23044,32.2,54.8,183.1,-106.376,31.811,EL PASO,TX
383,23047,31.9,47.7,257.1,-101.706,35.219,AMARILLO,TX
384,23048,27.9,47.7,206.6,-103.603,35.182,TUCUMCARI,NM
385,23049,25.2,40.4,258.3,-106.089,35.617,SANTA FE,NM
386,23050,26.2,44.5,221.4,-106.616,35.042,ALBUQUERQUE,NM
387,23051,26.2,43.5,233.1,-103.154,36.446,CLAYTON,NM
388,23052,21.4,38.1,235.5,-104.502,36.741,RATON,NM
389,23054,20.1,40.9,188.1,-105.143,35.654,LAS VEGAS,NM
390,23061,15.2,31.0,241.1,-105.866,37.436,ALAMOSA,CO
391,23064,31.3,43.9,299.0,-100.725,37.927,GARDEN CITY,KS
392,23065,28.0,39.9,306.4,-101.693,39.368,GOODLAND,KS
393,23066,26.3,36.3,334.8,-108.538,39.134,GRAND JUNCTION,CO
394,23067,23.7,43.0,207.8,-103.527,38.051,LA JUNTA,CO
395,23070,20.1,40.4,193.6,-104.341,37.259,TRINIDAD,CO
396,23078,30.8,50.2,214.0,-107.721,32.262,DEMING,NM
397,23081,20.0,37.0,230.6,-108.789,35.511,GALLUP,NM
398,23090,22.8,40.0,231.2,-108.229,36.744,FARMINGTON,NM
399,23091,38.4,56.5,235.5,-102.912,30.915,FORT STOCKTON,TX
400,23110,36.2,49.5,293.5,-119.950,36.333,LEMOORE,CA
401,23129,39.0,62.8,178.8,-118.163,33.828,LONG BEACH,CA
402,23130,29.2,61.1,106.7,-118.489,34.210,VAN NUYS,CA
403,23136,33.5,61.3,140.0,-119.083,34.217,CAMARILLO,CA
404,23152,29.9,59.5,123.3,-118.359,34.201,BURBANK,CA
405,23153,19.4,37.9,212.7,-117.087,38.060,TONOPAH,NV
406,23154,16.2,29.5,275.6,-114.845,39.295,ELY,NV
407,23155,38.5,53.5,273.1,-119.056,35.434,BAKERSFIELD,CA
408,23157,15.1,42.6,123.3,-118.363,37.373,BISHOP,CA
409,23158,25.9,60.6,86.4,-114.717,33.619,BLYTHE,CA
410,23159,17.5,28.5,312.0,-112.146,37.706,BRYCE CANYON,UT
411,23160,30.7,59.1,132.6,-110.955,32.131,TUCSON,AZ
412,23161,21.6,52.3,107.3,-116.787,34.854,DAGGETT,CA
413,23169,22.4,54.3,99.9,-115.155,36.079,LAS VEGAS,NV
414,23174,38.4,62.3,177.6,-118.406,33.938,LOS ANGELES,CA
415,23176,21.7,34.7,284.8,-113.028,38.443,MILFORD,UT
416,23179,24.1,60.5,75.3,-114.623,34.766,NEEDLES,CA
417,23182,25.0,48.5,167.1,-118.084,34.629,PALMDALE,CA
418,23183,33.3,62.1,132.6,-111.990,33.443,PHOENIX,AZ
419,23184,24.8,43.7,213.3,-112.421,34.652,PRESCOTT,AZ
420,23185,24.7,38.5,276.2,-119.771,39.484,RENO,NV
421,23187,21.5,48.3,135.7,-118.724,34.744,SANDBERG,CA
422,23188,42.2,63.4,206.6,-117.169,32.735,SAN DIEGO,CA
423,23190,38.9,57.0,236.2,-119.844,34.426,SANTA BARBARA,CA
424,23191,34.0,59.8,156.6,-118.416,33.405,AVALON,CA
425,23194,25.0,42.0,235.5,-110.722,35.022,WINSLOW,AZ
426,23199,27.4,61.2,93.1,-115.667,32.817,EL CENTRO,CA
427,23213,39.0,51.3,310.1,-122.812,38.509,SANTA ROSA,CA
428,23225,23.3,40.9,226.9,-120.708,39.292,EMIGRANT GAP,CA
429,23230,41.0,52.1,329.2,-122.221,37.755,OAKLAND,CA
430,23232,39.4,51.2,317.5,-121.493,38.513,SACRAMENTO,CA
431,23233,41.9,53.8,318.1,-121.605,36.663,SALINAS,CA
432,23237,40.4,51.3,331.7,-121.237,37.894,STOCKTON,CA
433,23244,41.4,50.9,353.9,-122.048,37.415,MOUNTAIN VIEW,CA
434,23254,38.5,52.9,280.5,-122.052,37.992,CONCORD,CA
435,23257,41.3,50.1,365.0,-120.513,37.285,MERCED,CA
436,23259,42.6,53.5,332.9,-121.845,36.588,MONTEREY,CA
437,23273,41.6,56.9,271.9,-120.465,34.916,SANTA MARIA,CA
438,23275,38.7,49.4,333.5,-123.201,39.126,UKIAH,CA
439,23277,41.4,53.5,314.4,-121.789,36.936,WATSONVILLE,CA
440,23285,38.2,44.3,410.6,-121.817,37.694,LIVERMORE,CA
441,24011,23.7,33.3,339.7,-100.748,46.774,BISMARCK,ND
442,24012,20.5,32.1,304.6,-102.802,46.797,DICKINSON,ND
443,24013,23.3,32.9,339.1,-101.281,48.259,MINOT,ND
444,24015,23.2,38.3,257.7,-103.232,40.172,AKRON,CO
445,24017,22.8,34.8,300.9,-103.095,42.838,CHADRON,NE
446,24018,17.2,34.3,226.3,-104.807,41.158,CHEYENNE,WY
447,24021,16.1,30.8,255.9,-108.733,42.817,LANDER,WY
448,24022,14.9,29.1,262.0,-105.674,41.313,LARAMIE,WY
449,24023,27.5,38.4,321.2,-100.668,41.122,NORTH PLATTE,NE
450,24024,24.2,35.9,306.4,-101.601,44.051,PHILIP,SD
451,24025,26.8,37.0,332.3,-100.286,44.383,PIERRE,SD
452,24027,15.5,28.6,278.1,-109.065,41.594,ROCK SPRINGS,WY
453,24028,22.4,35.9,278.7,-103.595,41.874,SCOTTSBLUFF,NE
454,24029,20.0,32.4,292.2,-106.976,44.774,SHERIDAN,WY
455,24030,23.6,35.4,304.6,-102.985,41.101,SIDNEY,NE
456,24032,26.3,37.1,321.8,-100.551,42.859,VALENTINE,NE
457,24033,19.5,34.5,255.3,-108.543,45.808,BILLINGS,MT
458,24036,18.6,32.3,272.5,-109.467,47.049,LEWISTOWN,MT
459,24037,20.8,33.3,291.6,-105.886,46.428,MILES CITY,MT
460,24044,22.2,34.0,303.3,-102.800,42.057,ALLIANCE,NE
461,24046,18.6,31.3,286.7,-107.521,40.495,CRAIG,CO
462,24048,18.9,29.7,316.3,-108.082,44.517,GREYBULL,WY
463,24057,15.8,30.2,260.2,-107.200,41.806,RAWLINS,WY
464,24061,15.7,29.4,269.4,-108.459,43.064,RIVERTON,WY
465,24062,19.2,28.9,334.2,-107.951,43.966,WORLAND,WY
466,24089,16.1,32.5,234.3,-106.473,42.898,CASPER,WY
467,24090,21.1,34.7,276.2,-103.054,44.046,RAPID CITY,SD
468,24091,26.9,39.0,302.7,-101.620,40.510,IMPERIAL,NE
469,24110,28.0,36.7,357.6,-119.319,47.208,MOSES LAKE,WA
470,24121,20.5,30.8,325.5,-115.792,40.825,ELKO,NV
471,24126,23.8,37.3,279.9,-112.011,41.196,OGDEN,UT
472,24127,24.2,39.8,252.2,-111.968,40.787,SALT LAKE CITY,UT
473,24128,22.7,34.7,300.9,-117.807,40.902,WINNEMUCCA,NV
474,24130,23.3,30.3,385.3,-117.810,44.838,BAKER CITY,OR
475,24131,27.0,37.2,332.3,-116.220,43.565,BOISE,ID
476,24132,18.7,26.7,363.7,-111.152,45.794,BOZEMAN,MT
477,24133,22.2,32.5,326.8,-113.772,42.543,BURLEY,ID
478,24135,13.6,21.5,361.9,-112.513,45.953,BUTTE,MT
479,24138,15.8,25.8,326.8,-112.552,45.255,DILLON,MT
480,24141,27.6,37.0,345.9,-119.514,47.304,EPHRATA,WA
481,24143,19.3,31.5,294.7,-111.382,47.473,GREAT FALLS,MT
482,24144,18.1,30.8,286.1,-111.964,46.606,HELENA,MT
483,24145,20.3,28.9,353.9,-112.067,43.516,IDAHO FALLS,ID
484,24146,23.5,31.3,370.5,-114.264,48.304,KALISPELL,MT
485,24149,30.5,40.0,346.5,-117.014,46.375,LEWISTON,ID
486,24150,16.5,31.4,254.0,-110.448,45.699,LIVINGSTON,MT
487,24152,25.0,30.9,407.5,-118.425,45.511,MEACHAM,OR
488,24153,22.0,29.3,378.5,-114.093,46.921,MISSOULA,MT
489,24154,18.0,25.5,372.4,-115.645,47.457,MULLAN PASS,ID
490,24155,29.5,38.5,353.9,-118.834,45.698,PENDLETON,OR
491,24156,22.7,32.1,342.2,-112.571,42.920,POCATELLO,ID
492,24157,27.4,34.9,378.5,-117.528,47.621,SPOKANE,WA
493,24160,31.6,40.0,365.6,-118.287,46.095,WALLA WALLA,WA
494,24162,26.8,37.9,318.1,-117.013,44.021,ONTARIO,OR
495,24163,32.1,39.4,385.3,-119.118,46.265,PASCO,WA
496,24164,11.3,21.7,316.3,-110.108,42.584,BIG PINEY,WY
497,24172,22.5,35.6,284.2,-118.565,40.066,LOVELOCK,NV
498,24215,28.5,39.8,316.3,-122.333,41.333,MOUNT SHASTA,CA
499,24216,35.2,51.2,257.1,-122.254,40.152,RED BLUFF,CA
500,24217,35.1,42.1,392.1,-122.537,48.794,BELLINGHAM,WA
501,24219,33.7,42.4,361.9,-121.167,45.619,THE DALLES,OR
502,24220,27.2,36.7,344.0,-120.530,47.034,ELLENSBURG,WA
503,24221,37.8,43.4,419.8,-123.214,44.133,EUGENE,OR
504,24225,35.4,43.7,369.9,-122.871,42.389,MEDFORD,OR
505,24227,36.3,41.1,434.6,-122.903,46.973,OLYMPIA,WA
506,24229,39.0,45.3,407.5,-122.600,45.591,PORTLAND,OR
507,24230,24.9,33.7,353.9,-121.150,44.254,REDMOND,OR
508,24231,40.0,46.1,411.2,-123.355,43.239,ROSEBURG,OR
509,24232,37.1,44.7,382.9,-122.995,44.908,SALEM,OR
510,24233,38.0,43.8,416.1,-122.314,47.461,SEATTLE,WA
511,24234,38.2,45.9,381.6,-122.301,47.530,SEATTLE,WA
512,24235,31.1,38.2,388.4,-123.381,42.617,SEXTON SUMMIT,OR
513,24242,37.9,46.0,374.8,-122.400,45.549,PORTLAND,OR
514,24243,27.4,38.9,312.0,-120.534,46.564,YAKIMA,WA
515,24255,38.0,42.4,443.3,-122.650,48.350,WHIDBEY ISLAND,WA
516,24257,35.6,50.7,268.8,-122.313,40.515,REDDING,CA
517,24259,28.3,38.6,331.7,-122.468,41.781,MONTAGUE,CA
518,24283,43.3,48.8,424.2,-124.109,40.978,ARCATA/EUREKA,CA
519,24286,43.5,49.8,409.4,-124.237,41.780,CRESCENT CITY,CA
520,25308,34.3,41.1,395.8,-131.570,55.043,ANNETTE,AK
521,25309,33.2,36.1,472.8,-134.575,58.355,JUNEAU,AK
522,25323,27.2,32.1,428.5,-135.520,59.245,HAINES,AK
523,25325,35.4,39.8,442.0,-131.712,55.357,KETCHIKAN,AK
524,25331,17.1,24.2,379.2,-149.092,61.596,PALMER,AK
525,25333,37.6,40.7,469.8,-135.360,57.048,SITKA,AK
526,25335,28.1,34.8,393.9,-135.313,59.460,SKAGWAY,AK
527,25339,31.5,34.7,465.5,-139.628,59.510,YAKUTAT,AK
528,25501,29.2,36.3,387.2,-152.492,57.750,KODIAK,AK
529,25503,26.0,30.3,440.2,-156.654,58.684,KING SALMON,AK
530,25506,24.0,28.4,437.1,-154.915,59.753,ILIAMNA,AK
531,25507,24.8,32.3,376.7,-151.477,59.647,HOMER,AK
532,25624,32.9,34.7,497.5,-162.722,55.207,COLD BAY,AK
533,26409,18.3,23.9,409.4,-149.855,61.217,ANCHORAGE,AK
534,26410,26.6,30.7,444.5,-145.451,60.489,CORDOVA,AK
535,26411,7.2,9.3,484.6,-147.855,64.817,FAIRBANKS,AK
536,26412,0.1,3.6,447.6,-141.946,62.961,NORTHWAY,AK
537,26415,8.1,11.8,445.7,-145.718,63.995,DELTA JUNCTION/FT GREELY,AK
538,26422,3.4,8.1,421.1,-141.148,64.777,EAGLE,AK
539,26425,8.6,13.4,421.1,-145.458,62.160,GULKANA,AK
540,26435,7.7,12.4,422.9,-149.072,64.550,NENANA,AK
541,26451,19.8,23.8,443.9,-149.993,61.175,ANCHORAGE,AK
542,26491,19.2,25.2,402.0,-149.961,61.179,ANCHORAGE,AK
543,26492,22.9,27.6,430.3,-148.839,60.785,PORTAGE GLACIER,AK
544,26502,11.7,14.0,480.2,-158.742,64.327,KALTAG,AK
545,26510,12.3,16.0,447.6,-155.603,62.953,MC GRATH,AK
546,26523,20.3,23.3,466.7,-151.239,60.580,KENAI,AK
547,26528,15.1,22.8,366.8,-150.092,62.322,TALKEETNA,AK
548,26529,6.9,9.6,469.1,-152.107,65.174,TANANA,AK
549,26533,4.7,7.4,468.5,-151.509,66.916,BETTLES,AK
550,26615,22.5,24.5,490.1,-161.826,60.786,BETHEL,AK
551,26616,10.1,14.8,424.2,-162.597,66.885,KOTZEBUE,AK
552,26617,17.7,21.5,447.6,-165.443,64.513,NOME,AK
553,26642,11.1,15.1,440.2,-164.548,67.732,KIVALINA,AK
554,27406,-1.4,4.7,387.2,-148.477,70.192,DEADHORSE,AK
555,27502,1.0,2.9,487.6,-156.763,71.287,BARROW,AK
556,27503,-0.7,3.2,437.1,-159.995,70.639,WAINWRIGHT,AK
557,27515,-2.8,1.7,422.3,-151.002,70.212,NUIQSUT,AK
558,53119,40.9,50.2,357.0,-119.629,36.319,HANFORD,CA
559,53120,33.5,54.6,199.2,-116.917,33.033,RAMONA,CA
560,53121,39.7,57.2,243.5,-117.349,33.219,OCEANSIDE,CA
561,53123,22.8,53.2,110.4,-115.196,36.212,LAS VEGAS,NV
562,53144,19.6,47.8,122.7,-117.865,34.988,EDWARDS,CA
563,53146,26.7,54.0,136.9,-110.428,31.607,FORT HUACHUCA,AZ
564,53802,37.9,47.2,354.5,-88.280,39.478,MATTOON/CHARLESTON,IL
565,53819,49.2,56.5,395.2,-84.567,33.355,ATLANTA,GA
566,53820,54.5,62.0,394.6,-87.044,31.416,EVERGREEN,AL
567,53838,45.3,55.7,342.8,-83.830,34.272,GAINESVILLE,GA
568,53841,38.8,49.3,336.6,-84.903,38.185,FRANKFORT,KY
569,53843,54.7,66.7,326.1,-86.394,31.309,ANDALUSIA (FT RUCKER),AL
570,53844,36.6,47.9,322.4,-82.657,39.756,LANCASTER,OH
571,53847,57.7,66.1,381.6,-87.023,30.704,MILTON,FL
572,53850,46.1,57.7,325.5,-82.886,34.672,CLEMSON,SC
573,53852,47.7,56.3,372.4,-86.945,34.653,DECATUR,AL
574,53853,57.4,68.1,346.5,-86.472,30.400,DESTIN,FL
575,53854,51.3,60.7,361.9,-80.858,33.462,ORANGEBURG,SC
576,53855,36.5,47.9,321.2,-84.525,39.364,HAMILTON,OH
577,53858,57.1,63.4,416.1,-88.532,30.464,PASCAGOULA,MS
578,53859,35.9,48.5,303.3,-84.226,39.594,DAYTON,OH
579,53860,63.1,64.0,520.9,-81.515,30.336,JACKSONVILLE,FL
580,53861,54.5,63.1,376.7,-85.751,31.356,FORT RUCKER/OZARK,AL
581,53864,50.2,59.8,358.2,-86.782,33.178,ALABASTER,AL
582,53865,58.0,63.4,432.8,-89.821,30.345,SLIDELL,LA
583,53866,37.5,49.1,318.7,-85.803,39.578,SHELBYVILLE,IN
584,53867,50.4,58.4,384.1,-80.996,33.971,COLUMBIA,SC
585,53868,43.4,54.7,328.0,-84.233,36.023,OAK RIDGE,TN
586,53869,46.7,56.7,349.6,-89.831,35.940,BLYTHEVILLE,AR
587,53870,43.7,55.1,326.8,-81.156,35.197,GASTONIA,NC
588,53871,46.1,54.7,371.8,-81.058,34.987,ROCK HILL,SC
589,53872,45.5,55.0,357.0,-80.621,35.017,MONROE,NC
590,53873,48.0,55.6,389.6,-84.849,34.123,CARTERSVILLE,GA
591,53874,47.9,55.8,384.1,-82.159,34.249,GREENWOOD,SC
592,53879,36.5,49.0,305.2,-94.371,38.960,LEE'S SUMMIT,MO
593,53901,38.1,50.2,312.0,-91.903,36.878,WEST PLAINS,MO
594,53902,53.6,61.2,392.7,-95.414,30.352,CONROE,TX
595,53903,53.1,60.9,389.0,-95.587,30.747,HUNTSVILLE,TX
596,53904,40.3,48.8,369.3,-90.428,38.929,ST CHARLES,MO
597,53905,49.8,59.7,353.3,-93.744,32.540,SHREVEPORT,LA
598,53908,41.6,52.1,338.5,-95.984,36.039,TULSA,OK
599,53909,46.5,56.5,349.6,-97.318,32.973,FORT WORTH,TX
600,53910,55.4,63.1,392.1,-95.553,30.062,HOUSTON,TX
601,53912,50.0,59.6,358.2,-96.398,32.027,CORSICANA,TX
602,53913,39.9,52.2,310.7,-97.416,35.850,GUTHRIE,OK
603,53914,47.2,56.8,356.3,-96.590,33.180,MC KINNEY,TX
604,53915,58.5,66.6,387.2,-91.884,30.038,NEW IBERIA,LA
605,53916,37.8,47.9,342.2,-93.579,39.823,CHILLICOTHE,MO
606,53917,58.2,67.7,365.0,-90.028,30.043,NEW ORLEANS,LA
607,53918,41.3,51.5,342.8,-92.470,36.369,MOUNTAIN HOME,AR
608,53919,50.2,58.0,387.2,-91.751,33.638,MONTICELLO,AR
609,53920,44.9,53.3,374.2,-93.095,35.258,RUSSELLVILLE,AR
610,53921,45.6,54.5,366.2,-93.578,34.547,MOUNT IDA,AR
611,53922,41.5,51.6,344.6,-94.307,36.282,FAYETTEVILLE/SPRINGDALE,AR
612,53925,49.1,55.5,410.6,-94.399,34.047,DE QUEEN,AR
613,53959,47.5,55.5,382.2,-90.234,35.135,WEST MEMPHIS,AR
614,53988,54.5,62.6,384.7,-92.967,31.150,FORT POLK,LA
615,54704,35.3,44.7,351.4,-71.174,42.191,NORWOOD,MA
616,54728,29.0,38.1,352.0,-71.545,44.368,WHITEFIELD,NH
617,54733,34.5,45.9,319.4,-70.918,42.584,BEVERLY,MA
618,54734,34.6,45.7,324.3,-73.483,41.371,DANBURY,CT
619,54737,38.9,47.9,360.0,-76.294,40.120,LANCASTER,PA
620,54740,31.3,41.3,338.5,-72.518,43.344,SPRINGFIELD,VT
621,54742,30.1,40.2,336.0,-72.019,44.419,SAINT JOHNSBURY,VT
622,54743,36.7,49.4,302.1,-74.283,40.876,CALDWELL,NJ
623,54756,33.2,41.8,363.1,-72.291,42.570,ORANGE,MA
624,54757,33.0,44.6,315.0,-77.992,42.109,WELLSVILLE,NY
625,54767,35.2,46.6,320.0,-72.184,41.742,WILLIMANTIC,CT
626,54768,33.4,43.1,345.3,-73.171,42.696,NORTH ADAMS,MA
627,54769,38.8,46.4,384.1,-70.729,41.910,PLYMOUTH,MA
628,54770,32.7,42.0,350.8,-72.004,42.805,JAFFREY,NH
629,54771,31.2,40.9,343.4,-72.614,44.534,MORRISVILLE,VT
630,54772,30.5,39.7,351.4,-70.948,43.991,FRYEBURG,ME
631,54773,36.0,45.0,358.2,-76.385,43.350,FULTON,NY
632,54777,36.7,46.0,353.9,-71.021,41.876,TAUNTON,MA
633,54778,35.7,46.1,335.4,-77.056,42.643,PENN YAN,NY
634,54779,37.1,46.5,352.7,-74.737,41.009,ANDOVER,NJ
635,54780,42.0,52.0,346.5,-71.923,41.073,MONTAUK,NY
636,54781,33.5,43.0,348.3,-73.247,42.891,BENNINGTON,VT
637,54782,38.7,48.1,353.9,-75.557,40.238,POTTSTOWN,PA
638,54785,37.7,48.6,329.2,-74.669,40.624,SOMERVILLE,NJ
639,54786,37.9,47.8,345.3,-75.123,40.330,DOYLESTOWN,PA
640,54787,39.7,51.3,320.6,-73.417,40.734,FARMINGDALE,NY
641,54788,36.2,47.1,328.6,-72.828,41.510,MERIDEN,CT
642,54789,34.2,43.8,347.1,-75.379,41.139,MOUNT POCONO,PA
643,54790,40.4,49.0,368.1,-72.869,40.822,SHIRLEY,NY
644,54791,32.9,43.2,335.4,-70.922,43.278,ROCHESTER,NH
645,54792,33.8,45.1,320.6,-78.412,41.047,CLEARFIELD,PA
646,54793,35.4,45.5,340.3,-74.623,41.200,SUSSEX,NJ
647,54813,33.3,42.7,349.6,-86.651,46.429,MUNISING,MI
648,63870,55.2,63.1,388.4,-86.312,31.043,FLORALA,AL
649,63871,57.0,64.9,389.6,-85.601,30.846,BONIFAY,FL
650,63872,54.5,62.9,379.8,-85.129,31.951,EUFAULA,AL
651,64775,35.3,44.2,359.4,-75.412,43.234,ROME,NY
652,64776,32.2,40.6,365.6,-73.468,44.651,PLATTSBURG,NY
653,73805,58.3,66.4,387.2,-85.788,30.349,PANAMA CITY,FL
654,92805,70.3,79.4,378.5,-80.108,26.250,POMPANO BEACH,FL
655,92806,67.6,74.9,405.0,-82.628,27.765,ST PETERSBURG,FL
656,92809,69.6,79.1,372.4,-80.241,25.999,HOLLYWOOD,FL
657,93005,21.4,34.9,277.4,-107.760,37.143,DURANGO,CO
658,93009,8.0,23.0,244.2,-106.316,39.228,LEADVILLE,CO
659,93010,20.4,34.2,272.5,-103.716,39.189,LIMON,CO
660,93013,22.5,37.4,259.6,-107.898,38.505,MONTROSE,CO
661,93026,28.9,51.9,175.7,-109.604,31.469,DOUGLAS BISBEE,AZ
662,93027,23.4,41.3,223.2,-109.379,34.518,ST JOHNS,AZ
663,93037,15.6,39.1,157.3,-104.711,38.812,COLORADO SPRINGS,CO
664,93042,29.1,46.1,239.2,-102.547,36.023,DALHART,TX
665,93045,27.5,50.1,178.2,-107.268,33.237,TRUTH OR CONSEQUENCES,NM
666,93058,18.5,41.5,165.3,-104.498,38.290,PUEBLO,CO
667,93067,19.1,37.8,209.6,-104.849,39.570,DENVER,CO
668,93069,22.9,37.0,270.7,-108.628,37.303,CORTEZ,CO
669,93073,16.7,31.3,258.3,-106.868,39.223,ASPEN,CO
670,93084,31.5,54.3,180.7,-109.635,32.855,SAFFORD,AZ
671,93102,24.6,38.2,279.3,-118.700,39.417,FALLON,NV
672,93104,18.9,48.9,109.2,-117.683,35.683,CHINA LAKE,CA
673,93110,35.7,60.6,165.9,-119.206,34.201,OXNARD,CA
674,93112,45.6,60.3,283.0,-117.200,32.700,SAN DIEGO,CA
675,93115,42.1,62.5,214.6,-117.117,32.567,IMPERIAL BEACH,CA
676,93129,20.5,35.0,263.3,-113.097,37.702,CEDAR CITY,UT
677,93134,33.8,62.6,132.6,-118.296,34.028,LOS ANGELES,CA
678,93138,26.5,62.6,79.0,-116.505,33.828,PALM SPRINGS,CA
679,93141,18.3,34.6,237.4,-110.750,39.545,PRICE,UT
680,93167,23.0,47.4,157.3,-113.937,35.259,KINGMAN,AZ
681,93184,40.6,61.0,212.7,-117.866,33.680,SANTA ANA,CA
682,93193,41.5,51.8,341.6,-119.719,36.780,FRESNO,CA
683,93197,37.3,61.6,172.7,-118.451,34.016,SANTA MONICA,CA
684,93206,39.5,58.2,230.0,-120.641,35.237,SAN LUIS OBISPO,CA
685,93209,37.7,50.5,301.5,-120.627,35.673,PASO ROBLES,CA
686,93210,39.8,51.2,323.7,-121.618,39.490,OROVILLE,CA
687,93225,39.2,49.6,338.5,-121.590,38.696,SACRAMENTO,CA
688,93227,38.5,50.1,319.4,-122.280,38.213,NAPA,CA
689,93230,20.2,33.6,278.1,-119.995,38.894,SOUTH LAKE TAHOE,CA
690,93241,37.1,51.6,278.1,-121.961,38.377,VACAVILLE,CA
691,93242,41.5,50.3,365.6,-120.111,36.988,MADERA,CA
692,93706,38.9,51.0,312.6,-77.730,39.708,HAGERSTOWN,MD
693,93718,53.7,61.2,393.9,-78.721,33.816,NORTH MYRTLE BEACH,SC
694,93719,51.4,59.2,387.8,-77.047,35.068,NEW BERN,NC
695,93720,45.0,51.8,401.3,-75.510,38.341,SALISBURY,MD
696,93721,40.2,50.7,337.2,-76.684,39.172,BALTIMORE,MD
697,93727,51.3,59.6,379.8,-77.433,34.700,NEW RIVER,NC
698,93729,55.0,61.9,405.0,-75.623,35.232,CAPE HATTERAS,NC
699,93730,42.2,51.1,364.4,-74.457,39.458,ATLANTIC CITY,NJ
700,93736,39.3,52.4,299.0,-78.453,38.139,CHARLOTTESVILLE,VA
701,93738,39.5,50.1,335.4,-77.448,38.935,WASHINGTON,DC
702,93739,47.1,54.0,400.7,-75.496,37.941,WALLOPS ISLAND,VA
703,93740,48.4,57.7,361.9,-78.880,34.991,FAYETTEVILLE,NC
704,93741,47.6,54.7,397.6,-76.493,37.132,NEWPORT NEWS,VA
705,93759,48.6,56.2,389.6,-77.893,35.855,ROCKY MOUNT,NC
706,93762,36.7,49.8,296.6,-77.43333,39.73333,SITE R,PA
707,93765,54.4,60.2,424.2,-76.661,34.734,BEAUFORT,NC
708,93773,46.0,54.8,368.1,-77.007,36.984,WAKEFIELD,VA
709,93778,38.1,47.8,348.3,-76.874,39.918,YORK,PA
710,93780,39.8,49.4,351.4,-74.841,39.941,MOUNT HOLLY,NJ
711,93782,47.4,57.2,353.3,-79.366,34.792,MAXTON,NC
712,93783,43.3,53.4,345.9,-79.477,36.047,BURLINGTON,NC
713,93784,40.4,54.1,291.6,-76.610,39.281,BALTIMORE,MD
714,93785,43.7,55.4,322.4,-79.064,35.933,CHAPEL HILL,NC
715,93786,45.6,52.8,394.6,-75.124,38.308,OCEAN CITY,MD
716,93801,47.3,56.0,370.5,-85.161,34.348,ROME,GA
717,93805,59.1,69.2,357.0,-84.353,30.393,TALLAHASSEE,FL
718,93806,50.5,59.5,368.1,-87.616,33.212,TUSCALOOSA,AL
719,93807,40.5,54.0,294.7,-80.222,36.134,WINSTON SALEM,NC
720,93808,43.3,53.3,347.7,-86.436,36.981,BOWLING GREEN,KY
721,93810,39.7,49.9,341.6,-89.250,37.780,CARBONDALE/MURPHYBORO,IL
722,93812,39.4,48.1,365.6,-84.419,39.103,CINCINNATI,OH
723,93814,38.1,49.1,328.0,-84.672,39.043,COVINGTON,KY
724,93815,37.0,47.8,330.5,-84.219,39.906,DAYTON,OH
725,93817,40.7,51.0,340.9,-87.537,38.043,EVANSVILLE,IN
726,93819,36.2,48.0,315.0,-86.272,39.710,INDIANAPOLIS,IN
727,93820,39.4,50.5,328.0,-84.606,38.041,LEXINGTON,KY
728,93821,39.8,52.9,299.0,-85.730,38.177,LOUISVILLE,KY
729,93822,38.1,48.6,336.0,-89.684,39.845,SPRINGFIELD,IL
730,93824,36.1,48.8,302.1,-81.892,39.944,ZANESVILLE,OH
731,93831,56.4,63.9,395.8,-80.717,32.483,BEAUFORT,SC
732,93837,62.4,73.3,347.1,-81.683,30.233,JACKSONVILLE,FL
733,93841,56.0,63.6,393.9,-87.022,30.724,MILTON,FL
734,93842,50.5,61.1,343.4,-84.942,32.516,COLUMBUS,GA
735,93845,59.5,67.0,397.6,-83.277,30.783,VALDOSTA,GA
736,93846,46.5,55.5,365.6,-82.709,34.495,ANDERSON,SC
737,93862,47.5,57.6,349.0,-88.771,34.261,TUPELO,MS
738,93874,56.6,64.1,395.8,-89.070,30.407,GULFPORT,MS
739,93909,37.4,47.8,336.6,-94.890,38.831,OLATHE,KS
740,93915,54.9,62.1,400.1,-92.559,31.335,ALEXANDRIA,LA
741,93919,55.4,62.7,398.3,-90.472,31.178,MCCOMB,MS
742,93950,43.7,55.2,324.9,-95.783,34.899,MC ALESTER,OK
743,93953,42.8,53.0,344.0,-95.361,35.657,MUSKOGEE,OK
744,93967,40.4,50.2,348.3,-95.566,37.091,COFFEYVILLE,KS
745,93985,45.7,56.5,337.2,-98.061,32.782,MINERAL WELLS,TX
746,93986,41.4,51.1,350.8,-99.051,35.008,HOBART,OK
747,93987,52.8,59.9,400.7,-94.750,31.234,LUFKIN,TX
748,93988,47.8,56.0,379.2,-91.935,34.175,PINE BLUFF,AR
749,93989,36.3,47.4,325.5,-91.194,39.943,QUINCY,IL
750,93990,32.6,44.0,318.1,-99.830,39.376,HILL CITY,KS
751,93992,49.3,57.3,383.5,-92.813,33.221,EL DORADO,AR
752,93993,42.4,49.9,387.8,-94.170,36.005,FAYETTEVILLE,AR
753,93997,35.2,46.1,327.4,-98.828,38.872,RUSSELL,KS
754,94008,21.3,31.9,321.2,-106.621,48.214,GLASGOW,MT
755,94012,21.6,31.5,332.9,-109.780,48.559,HAVRE,MT
756,94014,21.7,30.8,346.5,-103.642,48.195,WILLISTON,ND
757,94017,21.6,32.0,324.9,-105.574,48.094,WOLF POINT,MT
758,94023,18.6,32.9,263.9,-105.542,44.339,GILLETTE,WY
759,94030,21.1,33.8,289.2,-109.509,40.441,VERNAL,UT
760,94032,15.6,32.6,226.3,-103.628,43.731,CUSTER,SD
761,94037,20.7,34.5,273.1,-103.546,45.604,BUFFALO,SD
762,94038,20.0,31.0,313.8,-102.655,46.014,HETTINGER,ND
763,94039,21.2,33.9,289.2,-102.518,43.021,PINE RIDGE,SD
764,94040,30.8,41.0,335.4,-100.591,40.206,MC COOK,NE
765,94041,24.7,33.1,360.7,-101.439,47.663,GARRISON,ND
766,94050,19.4,32.7,278.7,-107.885,40.049,MEEKER,CO
767,94051,21.6,31.6,331.1,-106.948,47.326,JORDAN,MT
768,94052,27.5,36.9,345.9,-100.408,45.546,MOBRIDGE,SD
769,94053,21.0,35.6,262.0,-104.153,42.065,TORRINGTON,WY
770,94054,18.6,34.8,239.2,-106.721,44.381,BUFFALO,WY
771,94055,19.6,31.7,296.6,-104.250,46.358,BAKER,MT
772,94056,20.6,35.4,259.0,-102.019,45.032,FAITH,SD
773,94057,18.5,32.7,265.1,-105.386,42.797,DOUGLAS,WY
774,94107,23.8,27.8,445.7,-117.864,42.591,ROME,OR
775,94119,27.3,33.3,406.9,-117.421,47.969,DEER PARK,WA
776,94128,21.8,33.4,305.8,-111.853,41.787,LOGAN,UT
777,94173,11.7,18.8,376.1,-110.421,44.544,YELLOWSTONE,WY
778,94176,28.8,37.3,361.9,-117.321,47.683,SPOKANE,WA
779,94178,22.9,34.0,314.4,-114.487,42.482,TWIN FALLS,ID
780,94182,19.2,26.5,376.7,-116.102,44.889,MCCALL,ID
781,94185,18.1,27.5,338.5,-118.954,43.592,BURNS,OR
782,94194,19.6,29.1,337.9,-111.881,43.834,REXBURG,ID
783,94197,26.8,36.1,347.1,-119.517,48.464,OMAK,WA
784,94224,40.5,47.0,404.4,-123.878,46.158,ASTORIA,OR
785,94225,39.2,45.5,407.5,-123.937,46.971,HOQUIAM,WA
786,94227,37.5,40.7,467.9,-123.148,47.238,SHELTON,WA
787,94236,25.7,34.3,358.2,-121.724,42.147,KLAMATH FALLS,OR
788,94239,29.1,38.7,343.4,-120.207,47.399,WENATCHEE,WA
789,94240,38.1,43.9,416.1,-124.561,47.934,QUILLAYUTE,WA
790,94261,36.8,42.0,426.6,-122.949,45.541,PORTLAND,OR
791,94266,37.0,41.8,434.6,-123.498,48.120,PORT ANGELES,WA
792,94273,37.4,43.7,406.3,-123.134,45.195,MC MINNVILLE,OR
793,94274,39.2,43.8,439.6,-122.576,47.268,TACOMA,WA
794,94276,37.0,42.0,430.9,-123.023,48.522,FRIDAY HARBOR,WA
795,94281,37.6,43.6,411.8,-122.769,45.249,AURORA,OR
796,94298,38.2,43.9,418.0,-122.657,45.621,VANCOUVER,WA
797,94299,25.0,33.6,357.6,-120.567,41.483,ALTURAS,CA
798,94623,33.2,41.2,373.6,-69.712,43.964,WISCASSET,ME
799,94624,40.7,47.5,398.9,-69.993,41.688,CHATHAM,MA
800,94626,29.1,35.6,398.3,-69.595,45.462,GREENVILLE,ME
801,94700,28.0,37.0,352.7,-71.179,44.576,BERLIN,NH
802,94702,38.7,49.6,330.5,-73.146,41.175,BRIDGEPORT,CT
803,94704,35.5,46.1,332.3,-77.713,42.571,DANSVILLE,NY
804,94705,29.8,38.8,353.9,-72.579,44.203,BARRE/MONTPELIER,VT
805,94720,39.4,46.9,385.9,-70.280,41.669,HYANNIS,MA
806,94723,34.8,45.9,324.3,-71.124,42.717,LAWRENCE,MA
807,94725,32.8,40.6,376.7,-74.846,44.936,MASSENA,NY
808,94726,38.4,46.7,371.8,-70.958,41.676,NEW BEDFORD,MA
809,94728,38.2,53.4,270.1,-73.967,40.783,NEW YORK,NY
810,94732,39.8,51.8,315.0,-75.011,40.082,PHILADELPHIA,PA
811,94740,30.9,37.1,405.0,-74.207,44.385,SARANAC LAKE,NY
812,94741,36.8,51.4,276.8,-74.061,40.850,TETERBORO,NJ
813,94745,37.6,48.5,329.2,-73.708,41.067,WHITE PLAINS,NY
814,94746,33.1,44.5,318.1,-71.876,42.267,WORCESTER,MA
815,94765,31.6,41.6,339.1,-72.305,43.626,LEBANON,NH
816,94789,39.4,52.5,299.0,-73.796,40.655,NEW YORK,NY
817,94790,35.1,42.8,379.8,-76.022,43.992,WATERTOWN,NY
818,94814,32.9,40.6,378.5,-84.691,44.368,HOUGHTON LAKE,MI
819,94815,34.2,44.9,329.8,-85.552,42.235,KALAMAZOO,MI
820,94817,34.6,43.9,352.7,-83.418,42.665,PONTIAC,MI
821,94818,34.1,44.2,339.1,-87.814,42.761,RACINE,WI
822,94822,34.6,43.3,362.5,-89.093,42.196,ROCKFORD,IL
823,94823,34.5,48.6,281.1,-80.231,40.501,PITTSBURGH,PA
824,94830,35.1,45.0,343.4,-83.801,41.589,TOLEDO,OH
825,94846,35.4,44.6,354.5,-87.914,41.986,CHICAGO,IL
826,94847,35.7,46.0,337.2,-83.349,42.215,DETROIT,MI
827,94849,34.3,41.8,382.9,-83.581,45.072,ALPENA,MI
828,94855,32.8,41.8,356.3,-88.557,43.984,OSHKOSH,WI
829,94860,34.9,45.5,331.7,-85.523,42.882,GRAND RAPIDS,MI
830,94870,37.3,45.9,365.6,-88.278,40.040,CHAMPAIGN/URBANA,IL
831,94871,35.5,46.2,331.1,-86.422,42.129,BENTON HARBOR,MI
832,94889,34.1,42.8,361.9,-83.744,42.223,ANN ARBOR,MI
833,94892,34.3,43.3,357.0,-88.246,41.914,CHICAGO/WEST CHICAGO,IL
834,94893,30.0,37.3,384.1,-88.114,45.818,IRON MOUNTAIN/KINGSFORD,MI
835,94895,36.5,47.8,322.4,-85.394,40.234,MUNCIE,IN
836,94898,35.0,45.2,338.5,-82.793,44.022,HARBOR BEACH,MI
837,94899,32.2,40.8,362.5,-87.875,47.467,COPPER HARBOR,MI
838,94908,32.9,40.7,376.7,-90.704,42.398,DUBUQUE,IA
839,94910,33.3,40.8,382.2,-92.401,42.554,WATERLOO,IA
840,94929,31.4,37.4,408.7,-90.919,46.549,ASHLAND,WI
841,94931,27.6,32.9,420.5,-92.839,47.387,HIBBING,MN
842,94938,29.7,37.1,381.6,-94.131,46.405,BRAINERD,MN
843,94946,29.4,40.5,320.0,-99.639,41.437,BROKEN BOW,NE
844,94949,32.3,38.3,409.4,-98.427,40.604,HASTINGS,NE
845,94950,30.2,39.4,350.8,-98.038,43.777,MITCHELL,SD
846,94957,35.9,47.4,319.4,-95.592,40.079,FALLS CITY,NE
847,94958,30.4,40.4,337.9,-98.952,41.624,ORD,NE
848,94960,31.7,41.9,336.0,-93.351,45.063,MINNEAPOLIS,MN
849,94961,27.7,33.3,414.9,-94.610,48.728,BAUDETTE,MN
850,94963,32.6,42.2,345.9,-93.470,44.832,MINNEAPOLIS,MN
851,94967,28.8,35.5,393.9,-95.068,46.901,PARK RAPIDS,MN
852,94971,31.6,37.5,410.6,-94.746,43.408,ESTHERVILLE,IA
853,94973,29.6,37.2,377.9,-91.444,46.026,HAYWARD,WI
854,94978,34.4,43.0,363.7,-96.178,41.764,TEKAMAH,NE
855,94982,34.9,43.1,371.1,-90.591,41.614,DAVENPORT,IA
856,94985,30.5,40.4,339.7,-90.189,44.637,MARSHFIELD,WI
857,94988,34.3,41.8,382.9,-92.918,42.113,MARSHALLTOWN,IA
858,94989,34.6,42.1,382.9,-93.622,41.992,AMES,IA
859,94990,27.3,40.4,288.5,-99.842,43.390,WINNER,SD
860,94991,36.1,46.4,337.2,-93.902,40.633,LAMONI,IA
861,94992,31.0,36.5,418.0,-90.344,47.747,GRAND MARAIS,MN
862,94993,29.1,38.4,348.3,-96.991,45.669,SISSETON,SD
863,94994,32.9,42.1,352.7,-90.678,43.156,BOSCOBEL,WI
