,wban,dewpt,tavg,wp,long,lat,stname,ststate
0,03013,21.1,32.3,311.4,-102.688,38.070,LAMAR,CO
1,03017,19.5,33.9,263.3,-104.658,39.833,DENVER,CO
2,03024,22.4,38.8,240.5,-101.394,35.700,BORGER,TX
3,03026,20.2,31.6,307.7,-102.284,39.245,BURLINGTON,CO
4,03027,21.0,31.4,324.3,-105.663,35.003,CLINES CORNERS,NM
5,03028,20.6,34.4,272.5,-102.614,37.283,SPRINGFIELD,CO
6,03029,23.2,34.6,310.1,-109.061,35.658,WINDOW ROCK,AZ
7,03030,22.9,37.2,268.2,-101.505,36.682,GUYMON,OK
8,03031,28.8,41.7,292.9,-102.387,31.921,ODESSA,TX
9,03032,33.1,48.1,268.2,-102.213,30.048,DRYDEN,TX
10,03102,36.8,59.1,190.5,-117.600,34.056,ONTARIO,CA
11,03103,21.8,34.0,297.2,-111.672,35.140,FLAGSTAFF,AZ
12,03104,34.2,56.6,186.8,-116.160,33.628,PALM SPRINGS,CA
13,03124,28.9,48.4,210.9,-110.344,31.588,FORT HUACHUCA/SIERRA VISTA,AZ
14,03131,42.1,59.6,246.0,-117.139,32.816,SAN DIEGO,CA
15,03144,35.7,57.6,193.0,-115.579,32.834,IMPERIAL,CA
16,03154,40.9,55.5,279.9,-117.350,33.300,CAMP PENDLETON,CA
17,03159,32.2,46.0,283.0,-118.219,34.741,LANCASTER,CA
18,03160,25.1,49.0,164.0,-116.028,36.621,MERCURY,NV
19,03162,27.8,37.6,339.1,-111.448,36.926,PAGE,AZ
20,03164,29.8,51.0,194.2,-116.467,32.617,CAMPO,CA
21,03166,41.8,61.7,219.5,-117.979,33.872,FULLERTON,CA
22,03167,44.1,62.7,235.5,-118.334,33.923,HAWTHORNE,CA
23,03170,23.1,33.9,319.4,-116.006,39.601,EUREKA,NV
24,03171,35.9,58.8,183.8,-117.439,33.952,RIVERSIDE,CA
25,03177,41.7,59.4,243.5,-117.279,33.128,CARLSBAD,CA
26,03179,40.0,57.4,245.4,-117.636,33.975,CHINO,CA
27,03184,34.8,56.2,197.3,-112.082,33.688,PHOENIX,AZ
28,03192,36.0,56.5,207.8,-111.911,33.623,SCOTTSDALE,AZ
29,03195,22.6,33.4,319.4,-112.155,35.946,GRAND CANYON,AZ
30,03196,29.5,51.1,189.9,-110.846,31.421,NOGALES,AZ
31,03757,21.5,34.7,281.8,-76.429,38.142,ST INIGOES,MD
32,03802,21.0,28.5,374.2,-80.229,39.296,CLARKSBURG,WV
33,03804,19.4,28.9,337.9,-81.439,39.345,PARKERSBURG,WV
34,03810,23.6,39.3,250.3,-81.390,35.741,HICKORY,NC
35,03811,25.9,37.3,312.6,-88.917,35.593,JACKSON,TN
36,03812,23.9,37.0,285.5,-82.538,35.432,ASHEVILLE,NC
37,03813,32.5,44.2,313.2,-83.654,32.688,MACON,GA
38,03816,24.6,34.1,341.6,-88.774,37.056,PADUCAH,KY
39,03818,41.0,50.0,361.9,-85.184,30.836,MARIANNA,FL
40,03820,31.9,44.0,307.0,-81.965,33.370,AUGUSTA,GA
41,03822,37.1,49.6,305.2,-81.202,32.119,SAVANNAH,GA
42,03847,24.2,35.0,320.6,-85.085,35.951,CROSSVILLE,TN
43,03849,21.5,34.4,286.1,-84.077,37.087,LONDON,KY
44,03853,46.5,55.3,368.7,-81.417,30.400,MAYPORT,FL
45,03856,29.1,41.0,307.7,-86.786,34.644,HUNTSVILLE,AL
46,03859,20.5,33.0,291.0,-81.208,37.296,BLUEFIELD,WV
47,03860,22.1,31.4,343.4,-82.555,38.382,HUNTINGTON,WV
48,03866,32.4,44.2,312.0,-88.567,32.550,MERIDIAN,MS
49,03868,20.4,27.6,379.8,-87.309,39.452,TERRE HAUTE,IN
50,03870,27.1,41.6,269.4,-82.219,34.899,GREER,SC
51,03872,20.1,30.0,331.7,-81.125,37.795,BECKLEY,WV
52,03878,35.1,46.9,313.8,-86.012,31.861,TROY,AL
53,03887,20.7,26.8,400.7,-88.866,39.984,DECATUR,IL
54,03888,29.1,41.6,299.0,-84.521,33.779,ATLANTA,GA
55,03889,22.1,33.6,307.7,-83.314,37.591,JACKSON,KY
56,03893,20.7,28.2,374.2,-86.617,39.144,BLOOMINGTON,IN
57,03894,25.2,35.3,332.3,-87.415,36.622,CLARKSVILLE,TN
58,03901,32.1,45.2,292.9,-94.711,32.385,LONGVIEW,TX
59,03904,36.9,47.5,333.5,-96.364,30.588,COLLEGE STATION,TX
60,03919,19.6,32.5,284.8,-97.661,38.813,SALINA,KS
61,03927,29.9,44.6,268.8,-97.041,32.896,DALLAS-FORT WORTH,TX
62,03928,20.6,34.1,276.8,-97.429,37.647,WICHITA,KS
63,03932,23.7,38.5,262.0,-99.200,35.340,CLINTON,OK
64,03935,25.5,33.4,369.9,-89.571,37.225,CAPE GIRARDEAU,MO
65,03936,18.7,30.1,306.4,-96.678,39.135,MANHATTAN,KS
66,03937,40.3,48.9,368.1,-93.228,30.125,LAKE CHARLES,LA
67,03940,32.9,45.2,305.2,-90.078,32.320,JACKSON,MS
68,03945,21.1,32.3,311.4,-92.218,38.817,COLUMBIA,MO
69,03947,19.6,31.4,300.9,-94.718,39.299,KANSAS CITY,MO
70,03949,36.1,47.7,317.5,-93.283,31.400,FORT POLK,LA
71,03950,25.0,40.1,259.6,-98.416,34.568,LAWTON,OK
72,03953,27.9,37.9,336.0,-90.646,35.831,JONESBORO,AR
73,03954,23.9,39.1,257.1,-97.647,35.534,OKLAHOMA CITY,OK
74,03957,21.0,35.1,268.8,-98.553,37.284,MEDICINE LODGE,KS
75,03959,22.1,35.1,285.5,-96.011,36.762,BARTLESVILLE,OK
76,03960,22.7,32.6,333.5,-90.157,38.571,CAHOKIA/ST.LOUIS,IL
77,03962,27.0,41.1,274.4,-93.096,34.478,HOT SPRINGS,AR
78,03963,20.4,32.6,295.9,-92.156,38.591,JEFFERSON CITY,MO
79,03965,22.2,37.6,252.8,-97.086,36.160,STILLWATER,OK
80,03966,20.9,31.5,320.6,-90.656,38.657,ST LOUIS,MO
81,03967,19.9,32.4,291.0,-94.739,38.850,OLATHE,KS
82,03971,30.3,46.9,245.4,-96.868,32.681,DALLAS,TX
83,03974,21.0,33.8,287.3,-97.219,37.750,WICHITA,KS
84,03975,24.8,34.7,335.4,-90.325,36.773,POPLAR BLUFF,MO
85,03981,26.6,41.4,264.5,-98.984,34.352,FREDERICK,OK
86,03991,29.4,42.7,287.9,-97.199,33.206,DENTON,TX
87,03994,20.8,33.4,290.4,-93.183,38.704,SEDALIA,MO
88,03996,34.0,44.6,331.1,-91.030,32.348,TALLULAH/VICKSBURG,MS
89,03997,18.0,29.8,299.6,-95.212,39.008,LAWRENCE,KS
90,03998,22.7,34.4,305.2,-95.504,37.328,PARSONS,KS
91,04109,30.3,35.0,434.0,-115.596,46.144,ELK CITY,ID
92,04110,25.1,29.7,433.4,-114.456,42.727,JEROME,ID
93,04111,20.8,28.2,376.1,-111.031,41.273,EVANSTON,WY
94,04112,12.4,19.1,384.1,-114.927,44.171,STANLEY,ID
95,04113,31.6,36.1,438.3,-119.261,45.826,HERMISTON,OR
96,04114,19.3,25.1,406.3,-114.215,41.523,CHALLIS,ID
97,04201,38.1,41.8,457.4,-122.861,45.773,SCAPPOOSE,OR
98,04724,12.5,19.3,382.2,-78.945,43.107,NIAGARA FALLS,NY
99,04725,10.6,17.7,374.8,-75.981,42.208,BINGHAMTON,NY
100,04726,14.9,22.4,370.5,-78.834,40.301,JOHNSTOWN,PA
101,04751,10.1,16.7,384.7,-78.640,41.803,BRADFORD,PA
102,04780,10.4,22.1,294.7,-71.756,42.552,FITCHBURG,MA
103,04781,16.6,28.7,294.1,-73.102,40.794,ISLIP,NY
104,04787,14.2,20.4,395.2,-78.899,41.178,DU BOIS,PA
105,04789,12.6,22.9,318.7,-74.265,41.509,MONTGOMERY,NY
106,04803,6.5,11.2,422.3,-89.465,45.631,RHINELANDER,WI
107,04804,17.8,25.1,376.1,-83.078,40.078,COLUMBUS,OH
108,04808,15.2,21.1,402.0,-88.481,41.770,CHICAGO/AURORA,IL
109,04826,9.3,16.8,366.2,-89.837,44.359,WISCONSIN RAPIDS,WI
110,04836,-0.1,6.3,382.2,-68.307,47.286,FRENCHVILLE,ME
111,04838,15.3,22.5,376.1,-87.905,42.121,CHICAGO/PROSPECT HGTS/WHEELI,IL
112,04839,16.1,23.7,369.3,-86.097,42.746,HOLLAND,MI
113,04840,11.6,19.2,366.2,-88.486,43.770,FOND DU LAC,WI
114,04841,12.5,19.3,382.2,-87.851,43.769,SHEBOYGAN,WI
115,04842,15.5,21.9,392.1,-81.887,40.875,WOOSTER,OH
116,04843,13.5,20.7,374.8,-80.215,41.626,MEADVILLE,PA
117,04845,15.0,21.3,393.3,-87.938,42.595,KENOSHA,WI
118,04846,16.2,21.3,418.6,-87.006,41.453,VALPARAISO,IN
119,04848,14.4,22.3,362.5,-83.476,41.563,TOLEDO,OH
120,04849,15.6,21.8,395.8,-82.179,41.179,LORAIN/ELYRIA,OH
121,04850,16.8,24.0,377.3,-84.027,40.708,LIMA,OH
122,04851,15.4,22.0,387.8,-84.429,41.338,DEFIANCE,OH
123,04852,17.8,25.8,363.1,-81.420,40.470,NEW PHILADELPHIA,OH
124,04853,16.0,24.8,347.1,-81.684,41.518,CLEVELAND,OH
125,04854,9.6,12.6,463.0,-84.701,45.013,GAYLORD,MI
126,04855,16.0,22.4,392.1,-83.064,40.616,MARION,OH
127,04857,13.7,19.8,397.0,-80.696,41.778,ASHTABULA,OH
128,04858,18.1,25.5,374.2,-82.463,40.023,NEWARK,OH
132,12812,55.2,63.9,375.5,-81.991,26.917,PUNTA GORDA,FL
133,12815,53.0,62.0,369.3,-81.325,28.434,ORLANDO,FL
134,12816,46.1,54.4,376.7,-82.272,29.690,GAINESVILLE,FL
135,12818,50.1,58.2,382.2,-82.454,28.474,BROOKSVILLE,FL
136,12819,50.3,59.7,361.3,-81.810,28.821,LEESBURG,FL
137,12832,44.6,55.6,332.9,-85.033,29.733,APALACHICOLA,FL
138,12833,45.9,54.8,366.8,-83.105,29.550,CROSS CITY,FL
139,12834,51.2,59.4,381.0,-81.060,29.177,DAYTONA BEACH,FL
140,12835,56.8,66.2,365.6,-81.864,26.586,FORT MYERS,FL
141,12836,64.5,72.2,397.0,-81.754,24.553,KEY WEST,FL
142,12838,54.7,62.9,383.5,-80.646,28.103,MELBOURNE,FL
143,12839,59.6,70.9,339.7,-80.300,25.824,MIAMI,FL
144,12841,51.8,62.0,350.2,-81.333,28.545,ORLANDO,FL
145,12842,51.7,62.4,342.8,-82.540,27.961,TAMPA,FL
146,12843,55.2,64.3,369.3,-80.418,27.656,VERO BEACH,FL
147,12844,59.0,69.1,356.3,-80.099,26.685,WEST PALM BEACH,FL
148,12849,60.4,69.3,375.5,-80.154,26.072,FORT LAUDERDALE,FL
149,12850,63.4,72.4,376.1,-81.683,24.583,KEY WEST,FL
150,12854,51.2,60.7,360.7,-81.244,28.780,ORLANDO,FL
151,12871,54.2,62.7,377.9,-82.559,27.401,SARASOTA/BRADENTON,FL
152,12873,53.9,62.2,381.0,-82.688,27.911,ST PETERSBURG/CLEARWATER,FL
153,12876,51.8,62.2,347.1,-81.754,28.062,WINTER HAVEN,FL
154,12882,59.6,69.9,353.9,-80.280,25.907,MIAMI,FL
155,12885,59.8,70.0,355.7,-80.171,26.197,FORT LAUDERDALE,FL
156,12888,60.1,69.7,365.0,-80.433,25.648,MIAMI,FL
157,12894,56.3,65.8,363.7,-81.755,26.536,FORT MYERS,FL
158,12895,56.3,64.1,390.9,-80.377,27.498,FORT PIERCE,FL
159,12896,64.8,72.2,402.0,-81.052,24.726,MARATHON,FL
160,12897,59.2,67.7,381.0,-81.775,26.153,NAPLES,FL
161,12904,47.5,62.5,280.5,-97.654,26.228,HARLINGEN,TX
162,12912,41.9,51.7,349.6,-96.930,28.863,VICTORIA,TX
163,12916,41.1,52.0,332.3,-90.251,29.993,NEW ORLEANS,LA
164,12917,41.1,50.5,355.1,-94.021,29.951,BEAUMONT/PORT ARTHUR,TX
165,12918,41.2,50.6,355.1,-95.279,29.645,HOUSTON,TX
166,12919,48.5,55.7,396.4,-97.426,25.906,BROWNSVILLE,TX
167,12921,36.9,49.5,304.0,-98.464,29.533,SAN ANTONIO,TX
168,12923,45.3,51.1,419.8,-94.860,29.265,GALVESTON,TX
169,12924,44.0,52.3,375.5,-97.513,27.773,CORPUS CHRISTI,TX
170,12926,46.6,52.7,414.9,-97.283,27.700,CORPUS CHRISTI,TX
171,12928,45.7,53.1,391.5,-97.817,27.500,KINGSVILLE,TX
172,12932,42.4,53.1,336.0,-98.027,27.741,ALICE,TX
173,12935,44.0,50.6,404.4,-96.251,28.728,PALACIOS,TX
174,12947,40.4,62.5,196.1,-99.220,28.458,COTULLA,TX
175,12957,48.9,54.4,426.6,-97.346,26.166,PORT ISABEL,TX
176,12959,46.4,55.5,363.7,-98.238,26.175,MC ALLEN,TX
177,12960,39.8,49.9,343.4,-95.364,29.993,HOUSTON,TX
178,12962,35.1,48.0,298.4,-99.174,29.359,HONDO,TX
179,12970,37.3,49.0,317.5,-98.471,29.337,SAN ANTONIO,TX
180,12971,37.5,49.0,320.6,-98.045,29.709,NEW BRAUNFELS,TX
181,12972,43.6,52.2,369.9,-97.046,28.084,ROCKPORT,TX
182,12975,41.3,51.1,349.0,-95.240,29.521,HOUSTON,TX
183,12976,42.8,49.0,411.2,-95.462,29.110,ANGLETON/LAKE JACKSON,TX
184,12977,40.4,49.9,353.3,-95.656,29.622,HOUSTON,TX
185,13721,22.0,33.4,309.5,-76.400,38.283,PATUXENT RIVER,MD
186,13722,25.5,39.8,270.7,-78.786,35.871,RALEIGH/DURHAM,NC
187,13723,23.8,38.3,266.4,-79.944,36.098,GREENSBORO,NC
188,13728,23.5,38.0,265.7,-79.336,36.573,DANVILLE,VA
189,13729,20.7,27.6,385.3,-79.853,38.885,ELKINS,WV
190,13733,21.4,34.0,290.4,-79.207,37.338,LYNCHBURG,VA
191,13734,16.7,30.4,270.7,-77.984,39.402,MARTINSBURG,WV
192,13736,17.3,28.4,310.1,-79.916,39.643,MORGANTOWN,WV
193,13737,27.5,40.0,297.2,-76.192,36.904,NORFOLK,VA
194,13739,17.9,30.9,281.8,-75.231,39.868,PHILADELPHIA,PA
195,13740,24.2,37.5,283.0,-77.323,37.511,RICHMOND,VA
196,13741,20.3,35.8,249.7,-79.974,37.317,ROANOKE,VA
197,13743,20.3,35.6,252.2,-77.034,38.865,WASHINGTON,DC
198,13744,31.7,44.7,294.1,-79.731,34.188,FLORENCE,SC
199,13748,34.9,45.8,327.4,-77.906,34.268,WILMINGTON,NC
200,13750,28.0,43.0,263.3,-76.283,36.933,NORFOLK,VA
201,13754,33.0,45.3,305.2,-76.883,34.900,CHERRY POINT,NC
202,13762,29.8,43.7,279.9,-76.136,36.695,FENTRESS,VA
203,13764,22.0,33.6,306.4,-75.359,38.689,GEORGETOWN,DE
204,13769,29.3,40.7,315.0,-76.033,36.817,OCEANA,VA
205,13773,21.3,33.6,294.7,-77.300,38.500,QUANTICO,VA
206,13776,32.1,43.5,317.5,-79.059,34.610,LUMBERTON,NC
207,13781,18.6,30.4,300.3,-75.601,39.673,WILMINGTON,DE
208,13786,31.4,42.9,315.7,-76.175,36.261,ELIZABETH CITY,NC
209,13809,22.1,30.2,364.4,-87.606,38.764,LAWRENCEVILLE,IL
210,13810,21.5,32.9,308.9,-85.664,38.228,LOUISVILLE,KY
211,13833,36.9,47.5,333.5,-89.253,31.265,HATTIESBURG,MS
212,13837,31.2,47.1,254.6,-82.039,33.467,AUGUSTA,GA
213,13838,40.3,50.3,345.3,-88.068,30.626,MOBILE,AL
214,13839,37.7,48.9,324.9,-85.450,31.321,DOTHAN,AL
215,13841,18.7,26.7,363.7,-83.822,39.420,WILMINGTON,OH
216,13865,33.0,44.4,318.1,-88.751,32.333,MERIDIAN,MS
217,13866,22.1,32.5,324.9,-81.591,38.379,CHARLESTON,WV
218,13869,37.2,48.6,321.8,-84.194,31.536,ALBANY,GA
219,13870,38.4,49.4,328.6,-82.507,31.536,ALMA,GA
220,13871,30.7,42.5,310.1,-85.858,33.588,ANNISTON,AL
221,13873,28.9,42.0,289.8,-83.327,33.948,ATHENS,GA
222,13874,29.0,43.1,276.2,-84.427,33.640,ATLANTA,GA
223,13876,30.1,42.3,304.0,-86.754,33.564,BIRMINGHAM,AL
224,13877,25.3,35.1,337.2,-82.399,36.480,BRISTOL/JHNSN CTY/KNGSPRT,TN
225,13878,42.4,52.0,353.3,-81.391,31.252,BRUNSWICK,GA
226,13880,36.6,48.8,309.5,-80.041,32.899,CHARLESTON,SC
227,13881,25.0,40.4,255.3,-80.944,35.214,CHARLOTTE,NC
228,13882,27.8,39.8,305.2,-85.200,35.033,CHATTANOOGA,TN
229,13883,31.3,44.7,287.9,-81.118,33.942,COLUMBIA,SC
230,13884,38.3,49.9,319.4,-86.523,30.780,CRESTVIEW,FL
231,13886,25.8,42.4,241.1,-82.346,34.846,GREENVILLE,SC
232,13889,45.4,53.5,379.2,-81.693,30.494,JACKSONVILLE,FL
233,13891,26.2,37.0,321.8,-83.986,35.818,KNOXVILLE,TN
234,13893,27.0,41.0,275.6,-89.985,35.061,MEMPHIS,TN
235,13894,38.2,48.6,337.2,-88.246,30.688,MOBILE,AL
236,13895,33.8,46.7,297.2,-86.394,32.301,MONTGOMERY,AL
237,13896,28.1,40.2,304.0,-87.610,34.745,MUSCLE SHOALS,AL
238,13897,26.1,37.7,309.5,-86.689,36.119,NASHVILLE,TN
239,13899,40.0,51.3,325.5,-87.188,30.473,PENSACOLA,FL
240,13904,36.6,46.1,350.8,-97.681,30.179,AUSTIN/BERGSTROM,TX
241,13920,18.7,32.5,271.3,-95.664,38.950,TOPEKA,KS
242,13927,32.7,45.4,299.0,-90.223,32.335,JACKSON,MS
243,13932,20.4,34.5,268.2,-97.037,37.168,WINFIELD/ARKANSAS CITY,KS
244,13935,35.8,45.5,347.1,-92.296,31.395,ALEXANDRIA,LA
245,13939,31.9,42.2,334.2,-90.986,33.483,GREENVILLE,MS
246,13942,33.1,44.1,324.3,-92.038,32.511,MONROE,LA
247,13957,32.6,45.1,301.5,-93.824,32.447,SHREVEPORT,LA
248,13958,36.3,48.7,306.4,-97.767,30.317,AUSTIN/CITY,TX
249,13959,33.6,44.5,326.1,-97.229,31.611,WACO,TX
250,13960,30.6,45.7,264.5,-96.851,32.847,DALLAS,TX
251,13961,30.7,45.9,263.3,-97.361,32.819,FORT WORTH,TX
252,13962,28.8,43.0,275.0,-99.682,32.411,ABILENE,TX
253,13963,26.0,41.3,257.7,-92.233,34.747,LITTLE ROCK,AR
254,13964,26.0,39.8,277.4,-94.365,35.334,FORT SMITH,AR
255,13966,27.3,41.8,269.4,-98.493,33.979,WICHITA FALLS,TX
256,13967,23.0,40.5,227.5,-97.600,35.389,OKLAHOMA CITY,OK
257,13968,23.7,38.5,262.0,-95.886,36.198,TULSA,OK
258,13969,21.6,35.7,269.4,-97.100,36.731,PONCA CITY,OK
259,13970,37.4,49.0,318.7,-91.147,30.537,BATON ROUGE,LA
260,13971,23.9,37.6,277.4,-93.155,36.261,HARRISON,AR
261,13972,32.0,45.9,281.8,-95.402,32.354,TYLER,TX
262,13973,31.9,44.7,297.2,-99.766,30.511,JUNCTION,TX
263,13975,21.5,36.2,261.4,-99.775,36.297,GAGE,OK
264,13977,30.2,43.1,294.1,-94.008,33.454,TEXARKANA,AR
265,13978,31.5,42.1,329.2,-90.084,33.496,GREENWOOD,MS
266,13981,22.0,33.9,301.5,-95.484,37.670,CHANUTE,KS
267,13984,18.5,31.6,280.5,-97.652,39.549,CONCORDIA,KS
268,13985,19.0,33.9,256.5,-99.970,37.773,DODGE CITY,KS
269,13986,19.6,32.5,284.8,-97.861,38.068,HUTCHINSON,KS
270,13987,22.4,35.3,287.3,-94.498,37.149,JOPLIN,MO
271,13988,19.5,33.8,265.1,-94.593,39.123,KANSAS CITY,MO
272,13989,19.9,32.1,295.3,-96.190,38.331,EMPORIA,KS
273,13993,18.0,28.5,320.0,-94.907,39.774,ST JOSEPH,MO
274,13994,20.9,33.2,294.7,-90.374,38.753,ST LOUIS,MO
275,13995,21.8,34.6,287.9,-93.390,37.240,SPRINGFIELD,MO
276,13996,19.8,32.0,295.3,-95.626,39.073,TOPEKA,KS
277,14605,5.6,16.3,306.4,-69.797,44.321,AUGUSTA,ME
278,14606,6.0,14.7,341.6,-68.824,44.808,BANGOR,ME
279,14607,1.4,8.5,368.7,-68.033,46.867,CARIBOU,ME
280,14609,2.4,10.2,355.7,-67.792,46.123,HOULTON,ME
281,14610,3.6,12.8,330.5,-68.686,45.648,MILLINOCKET,ME
282,14702,11.1,21.8,311.4,-71.289,42.470,BEDFORD,MA
283,14707,16.4,26.5,325.5,-72.049,41.328,GROTON NEW LONDON,CT
284,14710,9.8,21.6,292.2,-71.438,42.933,MANCHESTER,NH
285,14711,16.8,26.7,329.2,-76.763,40.194,HARRISBURG,PA
286,14712,15.8,26.2,320.0,-75.959,40.373,READING,PA
287,14719,16.6,27.0,320.6,-72.632,40.844,WESTHAMPTON BEACH,NY
288,14732,15.8,29.8,265.7,-73.881,40.779,NEW YORK,NY
289,14733,12.2,20.4,355.1,-78.736,42.941,BUFFALO,NY
290,14734,15.7,28.5,282.4,-74.169,40.716,NEWARK,NJ
291,14735,8.8,19.7,305.8,-73.803,42.748,ALBANY,NY
292,14736,16.5,25.0,353.3,-78.317,40.300,ALTOONA,PA
293,14737,14.3,25.9,299.6,-75.449,40.651,ALLENTOWN,PA
294,14739,13.6,26.1,284.8,-71.011,42.361,BOSTON,MA
295,14740,11.1,23.3,287.3,-72.683,41.938,WINDSOR LOCKS,CT
296,14742,5.2,15.9,305.8,-73.150,44.468,BURLINGTON,VT
297,14745,7.8,18.3,311.4,-71.501,43.195,CONCORD,NH
298,14747,13.6,19.6,398.9,-79.272,42.493,DUNKIRK,NY
299,14748,11.8,19.9,357.0,-76.892,42.159,ELMIRA/CORNING,NY
300,14750,6.4,15.2,339.7,-73.610,43.341,GLENS FALLS,NY
301,14751,16.3,27.2,312.0,-76.851,40.217,HARRISBURG,PA
302,14752,12.1,24.6,283.6,-72.651,41.736,HARTFORD,CT
303,14756,22.1,32.7,321.8,-70.061,41.253,NANTUCKET,MA
304,14757,12.0,24.2,287.9,-73.884,41.627,POUGHKEEPSIE,NY
305,14758,14.8,28.4,270.1,-72.887,41.264,NEW HAVEN,CT
306,14762,15.2,25.5,321.2,-79.922,40.355,PITTSBURGH,PA
307,14763,9.2,17.4,353.3,-73.289,42.427,PITTSFIELD,MA
308,14764,9.4,21.1,293.5,-70.304,43.642,PORTLAND,ME
309,14765,14.0,26.2,289.8,-71.433,41.722,PROVIDENCE,RI
310,14768,11.6,19.6,358.8,-77.677,43.117,ROCHESTER,NY
311,14770,15.4,25.0,332.9,-76.864,40.821,SELINSGROVE,PA
312,14771,10.8,17.3,387.2,-76.103,43.109,SYRACUSE,NY
313,14775,9.7,20.4,310.1,-72.716,42.158,WESTFIELD/SPRINGFIELD,MA
314,14777,12.8,23.5,312.6,-75.727,41.339,WILKES-BARRE/SCRANTON,PA
315,14778,13.2,24.3,306.4,-76.922,41.243,WILLIAMSPORT,PA
316,14787,16.5,28.0,302.7,-71.284,41.530,NEWPORT,RI
317,14792,15.7,28.1,288.5,-74.814,40.277,TRENTON,NJ
318,14794,16.2,27.3,308.9,-71.799,41.350,WESTERLY,RI
319,14813,15.8,23.7,363.7,-81.464,41.038,AKRON,OH
320,14815,14.5,23.0,351.4,-85.251,42.308,BATTLE CREEK,MI
321,14819,17.4,25.2,366.2,-87.752,41.786,CHICAGO,IL
322,14820,15.7,23.0,374.8,-81.853,41.405,CLEVELAND,OH
323,14821,18.1,26.1,363.1,-82.881,39.991,COLUMBUS,OH
324,14822,13.4,22.9,332.9,-83.010,42.409,DETROIT,MI
325,14825,16.0,22.6,388.4,-83.669,41.014,FINDLAY,OH
326,14826,13.1,21.0,361.3,-83.749,42.967,FLINT,MI
327,14827,16.4,21.7,414.9,-85.206,41.006,FORT WAYNE,IN
328,14829,15.9,21.3,412.4,-85.792,41.527,GOSHEN,IN
329,14833,13.8,20.5,384.7,-84.459,42.260,JACKSON,MI
330,14835,17.7,23.0,415.5,-86.937,40.412,LAFAYETTE,IN
331,14836,13.7,20.4,384.7,-84.579,42.780,LANSING,MI
332,14837,13.2,19.9,384.7,-89.345,43.141,MADISON,WI
333,14839,13.6,22.5,344.0,-87.897,42.947,MILWAUKEE,WI
334,14840,16.0,23.4,373.0,-86.237,43.171,MUSKEGON,MI
335,14841,8.8,13.1,432.8,-84.796,45.571,PELLSTON,MI
336,14842,18.0,25.9,365.0,-89.684,40.668,PEORIA,IL
337,14845,13.2,20.9,365.6,-84.080,43.533,SAGINAW,MI
338,14847,4.9,11.3,385.3,-84.367,46.467,SAULT STE MARIE,MI
339,14848,16.2,22.5,394.6,-86.333,41.707,SOUTH BEND,IN
340,14850,12.3,18.4,395.8,-85.583,44.741,TRAVERSE CITY,MI
341,14852,15.0,21.5,389.6,-80.674,41.254,YOUNGSTOWN/WARREN,OH
342,14853,13.6,23.2,331.7,-83.230,42.237,DETROIT,MI
343,14858,8.7,13.9,412.4,-88.506,47.169,HANCOCK,MI
344,14860,14.1,22.2,358.8,-80.183,42.080,ERIE,PA
345,14880,13.4,21.2,363.7,-87.868,42.422,CHICAGO/WAUKEGAN,IL
346,14891,16.6,22.3,406.9,-82.518,40.820,MANSFIELD,OH
347,14894,17.6,26.0,355.7,-80.647,40.176,WHEELING,WV
348,14895,15.6,26.6,310.1,-81.443,40.918,AKRON,OH
349,14897,8.8,14.8,395.8,-89.627,44.929,WAUSAU,WI
350,14898,11.3,17.6,391.5,-88.120,44.513,GREEN BAY,WI
351,14910,10.7,15.4,424.8,-95.393,45.883,ALEXANDRIA,MN
352,14913,5.7,12.7,373.6,-92.194,46.844,DULUTH,MN
353,14914,9.8,16.0,392.7,-96.811,46.925,FARGO,ND
354,14916,7.2,12.5,410.0,-97.176,47.949,GRAND FORKS,ND
355,14918,2.1,6.3,431.5,-93.403,48.566,INTERNATIONAL FALLS,MN
356,14919,10.8,16.4,405.7,-98.678,46.930,JAMESTOWN,ND
357,14920,13.3,20.7,371.1,-91.256,43.754,LA CROSSE,WI
358,14921,13.2,20.9,365.6,-90.181,43.212,LONE ROCK,WI
359,14922,11.9,19.0,376.1,-93.229,44.883,MINNEAPOLIS,MN
360,14923,16.4,22.5,398.3,-90.523,41.465,MOLINE,IL
361,14925,13.0,16.9,443.3,-92.492,43.904,ROCHESTER,MN
362,14926,10.7,16.5,401.3,-94.052,45.545,ST CLOUD,MN
363,14927,12.4,18.6,393.9,-93.048,44.930,ST PAUL,MN
364,14929,12.5,18.2,404.4,-98.421,45.450,ABERDEEN,SD
365,14931,18.9,25.1,397.6,-91.125,40.783,BURLINGTON,IA
366,14933,16.9,26.4,336.0,-93.666,41.538,DES MOINES,IA
367,14935,17.3,27.6,323.1,-98.313,40.958,GRAND ISLAND,NE
368,14936,14.3,19.6,413.7,-98.229,44.385,HURON,SD
369,14937,17.2,22.2,421.7,-91.543,41.633,IOWA CITY,IA
370,14938,19.7,28.0,358.8,-92.543,40.097,KIRKSVILLE,MO
371,14939,17.5,28.1,318.1,-96.764,40.831,LINCOLN,NE
372,14940,15.3,19.1,446.3,-93.331,43.158,MASON CITY,IA
373,14941,17.4,25.9,353.9,-97.437,41.981,NORFOLK,NE
374,14942,18.2,27.8,335.4,-95.899,41.310,OMAHA,NE
375,14943,17.3,24.2,383.5,-96.379,42.391,SIOUX CITY,IA
376,14944,15.2,21.7,389.6,-96.754,43.577,SIOUX FALLS,SD
377,14946,12.9,17.3,432.2,-97.154,44.931,WATERTOWN,SD
378,14950,17.4,24.9,371.8,-92.448,41.107,OTTUMWA,IA
379,14972,15.0,20.5,410.0,-95.202,43.164,SPENCER,IA
380,14990,17.2,21.5,436.5,-91.709,41.884,CEDAR RAPIDS,IA
381,14991,9.5,16.0,385.9,-91.485,44.865,EAU CLAIRE,WI
382,21504,61.2,73.0,333.5,-155.051,19.723,HILO,HI
383,21510,62.0,74.7,322.4,-156.049,19.736,KAILUA/KONA,HI
384,22010,36.0,49.4,292.2,-100.922,29.367,DEL RIO,TX
385,22501,61.2,70.8,365.6,-159.789,22.025,"KEKAHA, KAUAI",HI
386,22516,60.9,71.0,357.6,-156.433,20.902,KAHULUI,HI
387,22519,63.1,72.5,369.9,-157.768,21.451,KANEOHE,HI
388,22521,62.7,72.3,366.2,-157.943,21.328,HONOLULU,HI
389,22534,61.8,68.5,411.8,-157.099,21.157,KAUNAKAKAI,HI
390,22536,60.2,71.5,340.3,-159.341,21.979,LIHUE,HI
391,22551,61.6,70.5,376.1,-158.067,21.317,KAPOLEI,HI
392,23007,24.9,41.6,239.2,-100.288,34.434,CHILDRESS,TX
393,23009,26.7,37.6,320.6,-104.541,33.308,ROSWELL,NM
394,23023,29.9,41.7,309.5,-102.208,31.932,MIDLAND,TX
395,23034,31.2,44.5,289.2,-100.494,31.351,SAN ANGELO,TX
396,23040,27.3,41.9,268.2,-103.201,31.780,WINK,TX
397,23042,25.6,39.1,281.8,-101.821,33.668,LUBBOCK,TX
398,23044,28.3,44.2,252.2,-106.376,31.811,EL PASO,TX
399,23047,23.0,36.7,276.2,-101.706,35.219,AMARILLO,TX
400,23048,24.4,36.7,297.8,-103.603,35.182,TUCUMCARI,NM
401,23049,20.5,33.3,286.7,-106.089,35.617,SANTA FE,NM
402,23050,24.3,37.4,286.1,-106.616,35.042,ALBUQUERQUE,NM
403,23051,21.8,36.6,260.2,-103.154,36.446,CLAYTON,NM
404,23052,20.1,32.0,299.6,-104.502,36.741,RATON,NM
405,23061,12.6,22.7,322.4,-105.866,37.436,ALAMOSA,CO
406,23064,20.1,32.9,286.7,-100.725,37.927,GARDEN CITY,KS
407,23065,20.5,31.9,307.7,-101.693,39.368,GOODLAND,KS
408,23066,23.1,31.6,357.6,-108.538,39.134,GRAND JUNCTION,CO
409,23067,21.8,35.3,278.1,-103.527,38.051,LA JUNTA,CO
410,23070,21.1,34.0,286.1,-104.341,37.259,TRINIDAD,CO
411,23078,29.0,41.6,297.2,-107.721,32.262,DEMING,NM
412,23081,24.4,33.7,345.3,-108.789,35.511,GALLUP,NM
413,23090,24.0,33.4,342.8,-108.229,36.744,FARMINGTON,NM
414,23091,32.0,44.3,304.0,-102.912,30.915,FORT STOCKTON,TX
415,23110,40.9,47.0,411.8,-119.950,36.333,LEMOORE,CA
416,23129,45.1,60.7,271.3,-118.163,33.828,LONG BEACH,CA
417,23130,38.3,59.6,201.6,-118.489,34.210,VAN NUYS,CA
418,23136,41.1,59.6,233.7,-119.083,34.217,CAMARILLO,CA
419,23152,37.8,59.5,197.3,-118.359,34.201,BURBANK,CA
420,23153,20.3,40.2,197.9,-117.087,38.060,TONOPAH,NV
421,23154,22.2,33.3,313.8,-114.845,39.295,ELY,NV
422,23155,42.6,50.3,384.7,-119.056,35.434,BAKERSFIELD,CA
423,23157,19.0,44.6,142.5,-118.363,37.373,BISHOP,CA
424,23158,33.6,57.5,172.7,-114.717,33.619,BLYTHE,CA
425,23159,19.9,28.7,350.2,-112.146,37.706,BRYCE CANYON,UT
426,23160,33.6,55.4,192.4,-110.955,32.131,TUCSON,AZ
427,23161,29.5,51.1,189.9,-116.787,34.854,DAGGETT,CA
428,23169,29.3,52.9,170.8,-115.155,36.079,LAS VEGAS,NV
429,23174,44.7,59.9,275.6,-118.406,33.938,LOS ANGELES,CA
430,23176,23.9,31.9,367.4,-113.028,38.443,MILFORD,UT
431,23179,31.5,58.3,145.5,-114.623,34.766,NEEDLES,CA
432,23182,32.6,48.1,261.4,-118.084,34.629,PALMDALE,CA
433,23183,36.9,58.6,196.1,-111.990,33.443,PHOENIX,AZ
434,23184,26.1,41.9,251.6,-112.421,34.652,PRESCOTT,AZ
435,23185,25.8,40.3,268.2,-119.771,39.484,RENO,NV
436,23187,25.1,51.3,144.3,-118.724,34.744,SANDBERG,CA
437,23188,43.7,60.9,250.9,-117.169,32.735,SAN DIEGO,CA
438,23190,45.8,56.1,344.6,-119.844,34.426,SANTA BARBARA,CA
439,23191,35.8,59.6,175.7,-118.416,33.405,AVALON,CA
440,23194,28.4,37.3,354.5,-110.722,35.022,WINSLOW,AZ
441,23199,33.9,57.7,173.9,-115.667,32.817,EL CENTRO,CA
442,23213,43.2,50.3,395.2,-122.812,38.509,SANTA ROSA,CA
443,23225,22.1,48.8,136.9,-120.708,39.292,EMIGRANT GAP,CA
444,23230,43.0,51.1,377.9,-122.221,37.755,OAKLAND,CA
445,23232,42.7,49.9,393.3,-121.493,38.513,SACRAMENTO,CA
446,23233,42.4,57.4,276.2,-121.605,36.663,SALINAS,CA
447,23234,47.5,54.0,408.1,-122.398,37.620,SAN FRANCISCO,CA
448,23237,42.5,48.4,416.1,-121.237,37.894,STOCKTON,CA
449,23244,41.8,52.3,338.5,-122.048,37.415,MOUNTAIN VIEW,CA
450,23254,42.0,51.4,355.7,-122.052,37.992,CONCORD,CA
451,23257,41.4,47.6,410.6,-120.513,37.285,MERCED,CA
452,23258,41.9,48.4,405.0,-120.953,37.626,MODESTO,CA
453,23259,41.7,55.6,289.8,-121.845,36.588,MONTEREY,CA
454,23273,42.7,58.1,271.9,-120.465,34.916,SANTA MARIA,CA
455,23275,40.9,50.9,345.9,-123.201,39.126,UKIAH,CA
456,23277,43.9,55.5,323.7,-121.789,36.936,WATSONVILLE,CA
457,23285,40.4,51.5,328.6,-121.817,37.694,LIVERMORE,CA
458,23293,41.3,51.5,342.8,-121.928,37.362,SAN JOSE,CA
459,24011,12.6,19.1,388.4,-100.748,46.774,BISMARCK,ND
460,24013,10.4,17.3,378.5,-101.281,48.259,MINOT,ND
461,24015,19.6,28.7,344.6,-103.232,40.172,AKRON,CO
462,24017,17.4,26.2,348.3,-103.095,42.838,CHADRON,NE
463,24018,16.5,32.1,244.8,-104.807,41.158,CHEYENNE,WY
464,24021,14.9,22.4,370.5,-108.733,42.817,LANDER,WY
465,24022,16.8,26.5,332.3,-105.674,41.313,LARAMIE,WY
466,24023,16.1,27.2,308.9,-100.668,41.122,NORTH PLATTE,NE
467,24024,15.4,26.0,316.3,-101.601,44.051,PHILIP,SD
468,24025,16.0,24.7,349.0,-100.286,44.383,PIERRE,SD
469,24027,19.8,29.0,343.4,-109.065,41.594,ROCK SPRINGS,WY
470,24028,17.4,25.2,366.2,-103.595,41.874,SCOTTSBLUFF,NE
471,24029,15.7,26.1,320.0,-106.976,44.774,SHERIDAN,WY
472,24030,18.6,28.7,327.4,-102.985,41.101,SIDNEY,NE
473,24032,16.0,25.2,340.3,-100.551,42.859,VALENTINE,NE
474,24033,17.0,29.8,283.6,-108.543,45.808,BILLINGS,MT
475,24036,16.3,25.8,335.4,-109.467,47.049,LEWISTOWN,MT
476,24037,15.2,21.7,389.6,-105.886,46.428,MILES CITY,MT
477,24044,17.4,24.5,379.8,-102.800,42.057,ALLIANCE,NE
478,24046,15.5,23.4,363.1,-107.521,40.495,CRAIG,CO
479,24048,12.6,17.4,423.5,-108.082,44.517,GREYBULL,WY
480,24057,19.1,27.4,358.8,-107.200,41.806,RAWLINS,WY
481,24061,15.3,22.5,376.1,-108.459,43.064,RIVERTON,WY
482,24062,10.8,15.1,433.4,-107.951,43.966,WORLAND,WY
483,24089,17.6,26.7,343.4,-106.473,42.898,CASPER,WY
484,24090,16.1,27.9,297.8,-103.054,44.046,RAPID CITY,SD
485,24091,18.0,30.4,290.4,-101.620,40.510,IMPERIAL,NE
486,24110,29.6,32.9,463.0,-119.319,47.208,MOSES LAKE,WA
487,24121,24.6,33.8,347.1,-115.792,40.825,ELKO,NV
488,24126,26.1,33.5,379.8,-112.011,41.196,OGDEN,UT
489,24127,26.9,34.3,380.4,-111.968,40.787,SALT LAKE CITY,UT
490,24128,24.5,35.0,325.5,-117.807,40.902,WINNEMUCCA,NV
491,24130,24.6,28.6,446.3,-117.810,44.838,BAKER CITY,OR
492,24131,27.3,31.7,438.9,-116.220,43.565,BOISE,ID
493,24132,17.7,24.3,389.6,-111.152,45.794,BOZEMAN,MT
494,24133,25.7,31.2,415.5,-113.772,42.543,BURLEY,ID
495,24135,17.5,24.5,381.6,-112.513,45.953,BUTTE,MT
496,24137,15.3,25.2,328.0,-112.376,48.608,CUT BANK,MT
497,24138,18.9,30.2,308.3,-112.552,45.255,DILLON,MT
498,24141,29.3,32.7,460.5,-119.514,47.304,EPHRATA,WA
499,24143,17.0,26.9,329.2,-111.382,47.473,GREAT FALLS,MT
500,24144,15.7,24.5,347.1,-111.964,46.606,HELENA,MT
501,24145,21.7,25.7,445.1,-112.067,43.516,IDAHO FALLS,ID
502,24146,19.1,22.8,450.7,-114.264,48.304,KALISPELL,MT
503,24149,32.5,38.2,414.9,-117.014,46.375,LEWISTON,ID
504,24150,17.5,32.6,252.2,-110.448,45.699,LIVINGSTON,MT
505,24152,27.0,32.9,408.1,-118.425,45.511,MEACHAM,OR
506,24153,21.5,26.0,434.0,-114.093,46.921,MISSOULA,MT
507,24154,22.4,27.7,418.0,-115.645,47.457,MULLAN PASS,ID
508,24155,31.6,36.1,438.3,-118.834,45.698,PENDLETON,OR
509,24156,26.5,30.1,455.6,-112.571,42.920,POCATELLO,ID
510,24157,28.9,31.0,489.5,-117.528,47.621,SPOKANE,WA
511,24160,32.4,37.4,429.1,-118.287,46.095,WALLA WALLA,WA
512,24162,26.8,31.4,434.6,-117.013,44.021,ONTARIO,OR
513,24163,32.9,35.6,477.2,-119.118,46.265,PASCO,WA
514,24164,11.9,18.7,381.6,-110.108,42.584,BIG PINEY,WY
515,24172,20.3,34.1,272.5,-118.565,40.066,LOVELOCK,NV
516,24215,31.1,42.8,312.0,-122.333,41.333,MOUNT SHASTA,CA
517,24216,38.9,51.7,302.7,-122.254,40.152,RED BLUFF,CA
518,24217,37.5,42.5,430.9,-122.537,48.794,BELLINGHAM,WA
519,24219,34.1,39.4,423.5,-121.167,45.619,THE DALLES,OR
520,24220,29.0,34.7,413.1,-120.530,47.034,ELLENSBURG,WA
521,24221,40.0,43.7,458.1,-123.214,44.133,EUGENE,OR
522,24222,39.4,44.1,437.7,-122.280,47.908,EVERETT,WA
523,24225,36.8,42.2,422.9,-122.871,42.389,MEDFORD,OR
524,24227,40.5,42.7,490.1,-122.903,46.973,OLYMPIA,WA
525,24229,38.6,43.5,433.4,-122.600,45.591,PORTLAND,OR
526,24230,30.4,37.5,387.8,-121.150,44.254,REDMOND,OR
527,24231,41.4,46.6,429.1,-123.355,43.239,ROSEBURG,OR
528,24232,39.4,44.2,435.9,-122.995,44.908,SALEM,OR
529,24233,40.6,45.1,442.0,-122.314,47.461,SEATTLE,WA
530,24234,41.0,47.3,408.1,-122.301,47.530,SEATTLE,WA
531,24235,31.5,46.1,271.9,-123.381,42.617,SEXTON SUMMIT,OR
532,24242,36.6,45.1,366.8,-122.400,45.549,PORTLAND,OR
533,24243,28.9,34.7,411.2,-120.534,46.564,YAKIMA,WA
534,24255,40.4,45.6,428.5,-122.650,48.350,WHIDBEY ISLAND,WA
535,24257,38.5,51.7,296.6,-122.313,40.515,REDDING,CA
536,24259,31.6,38.7,388.4,-122.468,41.781,MONTAGUE,CA
537,24283,44.8,50.2,426.6,-124.109,40.978,ARCATA/EUREKA,CA
538,24286,45.9,50.8,436.5,-124.237,41.780,CRESCENT CITY,CA
539,25308,39.0,42.1,470.4,-131.570,55.043,ANNETTE,AK
540,25309,30.2,35.1,429.7,-134.575,58.355,JUNEAU,AK
541,25323,24.3,30.1,408.7,-135.520,59.245,HAINES,AK
542,25325,37.4,41.3,453.1,-131.712,55.357,KETCHIKAN,AK
543,25331,12.0,17.9,400.1,-149.092,61.596,PALMER,AK
544,25333,34.5,41.1,399.5,-135.360,57.048,SITKA,AK
545,25335,21.9,32.1,328.0,-135.313,59.460,SKAGWAY,AK
546,25339,30.5,35.3,432.2,-139.628,59.510,YAKUTAT,AK
547,25501,31.9,36.3,440.8,-152.492,57.750,KODIAK,AK
548,25503,16.4,21.1,427.2,-156.654,58.684,KING SALMON,AK
549,25506,17.0,23.0,400.7,-154.915,59.753,ILIAMNA,AK
550,25507,23.9,30.7,389.6,-151.477,59.647,HOMER,AK
551,25516,27.8,30.2,482.7,-151.702,59.443,SELDOVIA,AK
552,25624,27.6,31.1,458.1,-162.722,55.207,COLD BAY,AK
553,26409,12.6,17.9,412.4,-149.855,61.217,ANCHORAGE,AK
554,26410,27.5,30.3,473.5,-145.451,60.489,CORDOVA,AK
555,26438,22.7,29.6,386.6,-149.417,60.128,SEWARD,AK
556,26451,13.1,20.4,373.0,-149.993,61.175,ANCHORAGE,AK
557,26491,12.9,20.1,374.8,-149.961,61.179,ANCHORAGE,AK
558,26492,23.5,26.5,467.3,-148.839,60.785,PORTAGE GLACIER,AK
559,26523,15.2,19.5,435.2,-151.239,60.580,KENAI,AK
560,26528,8.1,16.3,352.0,-150.092,62.322,TALKEETNA,AK
561,26615,4.8,8.1,453.7,-161.826,60.786,BETHEL,AK
562,26616,-1.8,3.9,395.8,-162.597,66.885,KOTZEBUE,AK
563,26617,5.1,9.2,435.2,-165.443,64.513,NOME,AK
564,27406,-15.4,-11.4,427.9,-148.477,70.192,DEADHORSE,AK
565,27502,-13.3,-10.3,454.4,-156.763,71.287,BARROW,AK
566,27515,-16.2,-13.4,458.7,-151.002,70.212,NUIQSUT,AK
567,53119,42.4,47.6,429.7,-119.629,36.319,HANFORD,CA
568,53120,36.4,53.5,245.4,-116.917,33.033,RAMONA,CA
569,53121,43.4,55.8,312.0,-117.349,33.219,OCEANSIDE,CA
570,53123,28.1,51.3,173.3,-115.196,36.212,LAS VEGAS,NV
571,53146,27.3,47.2,205.3,-110.428,31.607,FORT HUACHUCA,AZ
572,53802,20.5,27.1,390.9,-88.280,39.478,MATTOON/CHARLESTON,IL
573,53819,30.4,41.6,319.4,-84.567,33.355,ATLANTA,GA
574,53820,36.9,50.6,288.5,-87.044,31.416,EVERGREEN,AL
575,53838,27.5,41.2,280.5,-83.830,34.272,GAINESVILLE,GA
576,53841,21.1,30.7,337.2,-84.903,38.185,FRANKFORT,KY
577,53842,18.4,25.9,373.0,-86.296,39.825,INDIANAPOLIS,IN
578,53844,19.2,26.6,374.8,-82.657,39.756,LANCASTER,OH
579,53847,39.2,51.8,305.8,-87.023,30.704,MILTON,FL
580,53850,26.8,43.9,236.2,-82.886,34.672,CLEMSON,SC
581,53852,29.1,41.6,299.0,-86.945,34.653,DECATUR,AL
582,53853,42.6,53.0,340.9,-86.472,30.400,DESTIN,FL
583,53854,31.8,45.8,279.9,-80.858,33.462,ORANGEBURG,SC
584,53855,20.4,28.9,355.7,-84.525,39.364,HAMILTON,OH
585,53858,39.8,49.6,348.3,-88.532,30.464,PASCAGOULA,MS
586,53859,19.6,27.4,368.1,-84.226,39.594,DAYTON,OH
587,53860,45.2,55.1,350.2,-81.515,30.336,JACKSONVILLE,FL
588,53861,36.9,47.9,327.4,-85.751,31.356,FORT RUCKER/OZARK,AL
589,53863,28.8,40.7,307.0,-84.302,33.875,ATLANTA,GA
590,53864,32.2,44.3,307.0,-86.782,33.178,ALABASTER,AL
591,53865,39.4,50.3,331.1,-89.821,30.345,SLIDELL,LA
592,53866,20.0,28.3,359.4,-85.803,39.578,SHELBYVILLE,IN
593,53867,31.2,45.2,279.9,-80.996,33.971,COLUMBIA,SC
594,53868,26.1,37.5,312.6,-84.233,36.023,OAK RIDGE,TN
595,53869,28.8,37.3,361.9,-89.831,35.940,BLYTHEVILLE,AR
596,53870,25.6,40.7,260.2,-81.156,35.197,GASTONIA,NC
597,53871,27.6,40.0,299.0,-81.058,34.987,ROCK HILL,SC
598,53872,27.2,41.3,275.0,-80.621,35.017,MONROE,NC
599,53873,28.8,39.6,324.3,-84.849,34.123,CARTERSVILLE,GA
600,53874,29.1,42.3,288.5,-82.159,34.249,GREENWOOD,SC
601,53879,19.6,32.8,280.5,-94.371,38.960,LEE'S SUMMIT,MO
602,53901,21.8,34.5,289.8,-91.903,36.878,WEST PLAINS,MO
603,53902,37.5,46.7,356.3,-95.414,30.352,CONROE,TX
604,53903,37.0,47.9,329.2,-95.587,30.747,HUNTSVILLE,TX
605,53904,21.8,30.4,355.1,-90.428,38.929,ST CHARLES,MO
606,53905,30.9,44.3,287.3,-93.744,32.540,SHREVEPORT,LA
607,53907,29.3,46.0,243.5,-97.094,32.664,ARLINGTON,TX
608,53908,23.4,37.9,265.7,-95.984,36.039,TULSA,OK
609,53909,29.4,43.0,283.6,-97.318,32.973,FORT WORTH,TX
610,53910,39.5,49.1,350.8,-95.553,30.062,HOUSTON,TX
611,53911,31.9,45.9,280.5,-96.267,32.710,TERRELL,TX
612,53912,32.8,46.4,286.7,-96.398,32.027,CORSICANA,TX
613,53913,23.1,37.9,261.4,-97.416,35.850,GUTHRIE,OK
614,53914,30.0,42.8,295.3,-96.590,33.180,MC KINNEY,TX
615,53915,40.7,50.6,347.1,-91.884,30.038,NEW IBERIA,LA
616,53916,19.5,30.2,318.1,-93.579,39.823,CHILLICOTHE,MO
617,53917,42.5,53.1,337.9,-90.028,30.043,NEW ORLEANS,LA
618,53918,23.5,36.8,282.4,-92.470,36.369,MOUNTAIN HOME,AR
619,53919,29.6,42.5,293.5,-91.751,33.638,MONTICELLO,AR
620,53920,26.6,39.4,292.2,-93.095,35.258,RUSSELLVILLE,AR
621,53921,26.9,40.4,282.4,-93.578,34.547,MOUNT IDA,AR
622,53922,23.1,36.6,279.3,-94.307,36.282,FAYETTEVILLE/SPRINGDALE,AR
623,53925,29.4,41.0,312.6,-94.399,34.047,DE QUEEN,AR
624,53959,29.8,38.5,358.8,-90.234,35.135,WEST MEMPHIS,AR
625,53988,36.3,49.6,293.5,-92.967,31.150,FORT POLK,LA
626,54704,12.8,23.5,312.6,-71.174,42.191,NORWOOD,MA
627,54728,3.4,10.9,361.9,-71.545,44.368,WHITEFIELD,NH
628,54733,12.1,24.1,291.0,-70.918,42.584,BEVERLY,MA
629,54734,11.0,23.8,278.1,-73.483,41.371,DANBURY,CT
630,54737,16.2,26.1,328.6,-76.294,40.120,LANCASTER,PA
631,54740,6.2,15.4,332.3,-72.518,43.344,SPRINGFIELD,VT
632,54742,4.5,12.2,358.8,-72.019,44.419,SAINT JOHNSBURY,VT
633,54743,13.3,26.5,274.4,-74.283,40.876,CALDWELL,NJ
634,54756,8.9,17.8,340.3,-72.291,42.570,ORANGE,MA
635,54757,9.9,17.8,359.4,-77.992,42.109,WELLSVILLE,NY
636,54767,12.3,22.2,325.5,-72.184,41.742,WILLIMANTIC,CT
637,54768,8.3,17.7,331.1,-73.171,42.696,NORTH ADAMS,MA
638,54769,16.6,25.9,339.1,-70.729,41.910,PLYMOUTH,MA
639,54770,8.5,17.5,337.9,-72.004,42.805,JAFFREY,NH
640,54771,2.0,11.1,331.1,-72.614,44.534,MORRISVILLE,VT
641,54772,5.0,15.0,317.5,-70.948,43.991,FRYEBURG,ME
642,54773,9.6,17.9,351.4,-76.385,43.350,FULTON,NY
643,54777,15.1,25.6,317.5,-71.021,41.876,TAUNTON,MA
644,54778,11.3,19.8,349.0,-77.056,42.643,PENN YAN,NY
645,54779,13.0,23.2,321.2,-74.737,41.009,ANDOVER,NJ
646,54780,19.7,31.6,299.6,-71.923,41.073,MONTAUK,NY
647,54781,8.7,17.6,339.7,-73.247,42.891,BENNINGTON,VT
648,54782,16.0,26.4,320.0,-75.557,40.238,POTTSTOWN,PA
649,54785,14.6,26.7,292.2,-74.669,40.624,SOMERVILLE,NJ
650,54786,16.6,25.8,340.9,-75.123,40.330,DOYLESTOWN,PA
651,54787,16.4,29.5,278.7,-73.417,40.734,FARMINGDALE,NY
652,54788,12.1,24.4,286.7,-72.828,41.510,MERIDEN,CT
653,54789,11.2,19.7,349.0,-75.379,41.139,MOUNT POCONO,PA
654,54790,17.0,28.6,302.1,-72.869,40.822,SHIRLEY,NY
655,54791,8.8,19.4,310.7,-70.922,43.278,ROCHESTER,NH
656,54792,13.7,21.4,365.6,-78.412,41.047,CLEARFIELD,PA
657,54793,12.2,23.3,305.8,-74.623,41.200,SUSSEX,NJ
658,54813,8.7,16.7,356.3,-86.651,46.429,MUNISING,MI
659,63870,38.6,49.7,327.4,-86.312,31.043,FLORALA,AL
660,63872,35.8,46.9,324.9,-85.129,31.951,EUFAULA,AL
661,63873,36.9,48.0,326.1,-85.654,31.346,FORT RUCKER/OZARK,AL
662,63874,34.6,47.0,304.6,-86.611,31.846,GREENVILLE,AL
663,64775,8.7,15.1,387.8,-75.412,43.234,ROME,NY
664,64776,5.8,14.8,336.0,-73.468,44.651,PLATTSBURG,NY
665,73805,41.5,51.4,347.7,-85.788,30.349,PANAMA CITY,FL
666,92805,58.5,71.4,316.9,-80.108,26.250,POMPANO BEACH,FL
667,92806,54.3,63.3,370.5,-82.628,27.765,ST PETERSBURG,FL
668,92809,59.4,69.8,352.7,-80.241,25.999,HOLLYWOOD,FL
669,93005,21.5,28.4,385.9,-107.760,37.143,DURANGO,CO
670,93009,9.9,21.9,289.2,-106.316,39.228,LEADVILLE,CO
671,93010,18.5,29.3,315.7,-103.716,39.189,LIMON,CO
672,93013,20.9,30.8,332.3,-107.898,38.505,MONTROSE,CO
673,93026,27.5,45.5,226.3,-109.604,31.469,DOUGLAS BISBEE,AZ
674,93027,26.8,36.3,343.4,-109.379,34.518,ST JOHNS,AZ
675,93037,19.0,32.8,271.3,-104.711,38.812,COLORADO SPRINGS,CO
676,93042,22.6,36.7,270.7,-102.547,36.023,DALHART,TX
677,93045,28.2,41.2,291.0,-107.268,33.237,TRUTH OR CONSEQUENCES,NM
678,93058,19.8,33.5,273.1,-104.498,38.290,PUEBLO,CO
679,93067,19.3,33.7,263.3,-104.849,39.570,DENVER,CO
680,93069,22.8,31.4,355.7,-108.628,37.303,CORTEZ,CO
681,93073,14.9,24.3,336.0,-106.868,39.223,ASPEN,CO
682,93075,24.0,30.8,389.6,-109.754,38.755,MOAB,UT
683,93084,31.0,48.7,233.1,-109.635,32.855,SAFFORD,AZ
684,93102,21.5,36.9,252.2,-118.700,39.417,FALLON,NV
685,93104,30.6,48.1,234.9,-117.683,35.683,CHINA LAKE,CA
686,93110,43.1,60.6,246.6,-119.206,34.201,OXNARD,CA
687,93111,44.8,62.4,247.2,-119.117,34.117,POINT MUGU,CA
688,93112,47.1,58.7,326.1,-117.200,32.700,SAN DIEGO,CA
689,93115,44.6,59.0,286.1,-117.117,32.567,IMPERIAL BEACH,CA
690,93129,24.1,33.4,344.6,-113.097,37.702,CEDAR CITY,UT
691,93134,42.0,62.0,218.3,-118.296,34.028,LOS ANGELES,CA
692,93138,32.9,61.8,131.4,-116.505,33.828,PALM SPRINGS,CA
693,93141,20.3,33.1,286.7,-110.750,39.545,PRICE,UT
694,93167,29.9,45.5,257.7,-113.937,35.259,KINGMAN,AZ
695,93184,43.7,62.8,229.4,-117.866,33.680,SANTA ANA,CA
696,93193,42.5,49.0,405.7,-119.719,36.780,FRESNO,CA
697,93197,42.1,61.4,225.7,-118.451,34.016,SANTA MONICA,CA
698,93205,41.7,48.5,399.5,-121.570,39.098,MARYSVILLE,CA
699,93206,42.1,56.5,283.6,-120.641,35.237,SAN LUIS OBISPO,CA
700,93209,39.4,50.7,324.9,-120.627,35.673,PASO ROBLES,CA
701,93210,41.7,49.5,382.2,-121.618,39.490,OROVILLE,CA
702,93225,42.2,47.9,419.8,-121.590,38.696,SACRAMENTO,CA
703,93227,42.9,48.0,431.5,-122.280,38.213,NAPA,CA
704,93228,43.0,53.0,347.1,-122.121,37.659,HAYWARD,CA
705,93230,22.5,38.1,250.3,-119.995,38.894,SOUTH LAKE TAHOE,CA
706,93241,40.5,50.1,352.0,-121.961,38.377,VACAVILLE,CA
707,93242,41.1,47.9,399.5,-120.111,36.988,MADERA,CA
708,93706,17.0,29.3,291.0,-77.730,39.708,HAGERSTOWN,MD
709,93718,35.4,47.2,314.4,-78.721,33.816,NORTH MYRTLE BEACH,SC
710,93719,32.5,45.6,292.9,-77.047,35.068,NEW BERN,NC
711,93720,23.6,36.1,294.1,-75.510,38.341,SALISBURY,MD
712,93721,19.2,30.8,304.0,-76.684,39.172,BALTIMORE,MD
713,93727,33.4,45.0,315.7,-77.433,34.700,NEW RIVER,NC
714,93729,37.8,46.3,368.1,-75.623,35.232,CAPE HATTERAS,NC
715,93730,20.3,31.1,317.5,-74.457,39.458,ATLANTIC CITY,NJ
716,93736,19.3,34.4,254.0,-78.453,38.139,CHARLOTTESVILLE,VA
717,93738,19.5,29.7,326.1,-77.448,38.935,WASHINGTON,DC
718,93739,25.7,35.3,340.9,-75.496,37.941,WALLOPS ISLAND,VA
719,93740,29.4,42.7,287.9,-78.880,34.991,FAYETTEVILLE,NC
720,93741,27.0,40.2,286.7,-76.493,37.132,NEWPORT NEWS,VA
721,93759,28.5,40.2,310.1,-77.893,35.855,ROCKY MOUNT,NC
722,93762,16.3,28.0,299.6,-77.43333,39.73333,SITE R,PA
723,93765,36.5,45.4,360.0,-76.661,34.734,BEAUFORT,NC
724,93773,25.6,37.9,298.4,-77.007,36.984,WAKEFIELD,VA
725,93775,22.7,34.7,300.9,-77.434,37.708,RICHMOND/ASHLAND,VA
726,93778,16.9,26.0,342.8,-76.874,39.918,YORK,PA
727,93780,17.7,28.7,312.0,-74.841,39.941,MOUNT HOLLY,NJ
728,93782,30.1,42.0,308.3,-79.366,34.792,MAXTON,NC
729,93783,23.6,38.3,263.3,-79.477,36.047,BURLINGTON,NC
730,93784,18.9,32.9,268.2,-76.610,39.281,BALTIMORE,MD
731,93785,25.5,39.8,270.7,-79.064,35.933,CHAPEL HILL,NC
732,93786,24.5,34.4,335.4,-75.124,38.308,OCEAN CITY,MD
733,93801,29.6,39.8,334.2,-85.161,34.348,ROME,GA
734,93805,39.6,52.6,300.3,-84.353,30.393,TALLAHASSEE,FL
735,93807,22.3,38.2,246.6,-80.222,36.134,WINSTON SALEM,NC
736,93808,24.1,34.7,323.7,-86.436,36.981,BOWLING GREEN,KY
737,93810,22.8,31.8,349.0,-89.250,37.780,CARBONDALE/MURPHYBORO,IL
738,93812,20.1,29.5,340.3,-84.419,39.103,CINCINNATI,OH
739,93814,19.6,30.2,320.0,-84.672,39.043,COVINGTON,KY
740,93815,19.1,26.3,378.5,-84.219,39.906,DAYTON,OH
741,93817,23.3,33.1,336.0,-87.537,38.043,EVANSVILLE,IN
742,93819,18.5,25.3,385.9,-86.272,39.710,INDIANAPOLIS,IN
743,93820,22.1,31.1,348.3,-84.606,38.041,LEXINGTON,KY
744,93821,21.9,33.8,301.5,-85.730,38.177,LOUISVILLE,KY
745,93822,20.0,27.4,375.5,-89.684,39.845,SPRINGFIELD,IL
746,93824,17.3,25.5,358.8,-81.892,39.944,ZANESVILLE,OH
747,93837,44.9,58.0,303.3,-81.683,30.233,JACKSONVILLE,FL
748,93841,38.5,49.6,327.4,-87.022,30.724,MILTON,FL
749,93842,32.2,45.8,286.1,-84.942,32.516,COLUMBUS,GA
750,93846,28.5,41.7,288.5,-82.709,34.495,ANDERSON,SC
751,93862,28.7,40.8,304.6,-88.771,34.261,TUPELO,MS
752,93874,39.5,50.1,335.4,-89.070,30.407,GULFPORT,MS
753,93909,19.9,31.3,307.7,-94.890,38.831,OLATHE,KS
754,93915,36.5,46.4,344.0,-92.559,31.335,ALEXANDRIA,LA
755,93919,35.7,47.1,320.6,-90.472,31.178,MCCOMB,MS
756,93950,26.1,40.3,272.5,-95.783,34.899,MC ALESTER,OK
757,93953,24.5,38.3,276.2,-95.361,35.657,MUSKOGEE,OK
758,93967,22.8,35.3,293.5,-95.566,37.091,COFFEYVILLE,KS
759,93985,29.0,43.5,270.7,-98.061,32.782,MINERAL WELLS,TX
760,93986,25.6,38.7,287.3,-99.051,35.008,HOBART,OK
761,93987,35.5,48.5,297.2,-94.750,31.234,LUFKIN,TX
762,93988,28.6,40.2,312.0,-91.935,34.175,PINE BLUFF,AR
763,93989,18.9,27.6,351.4,-91.194,39.943,QUINCY,IL
764,93990,18.1,32.0,268.8,-99.830,39.376,HILL CITY,KS
765,93992,30.4,42.0,313.2,-92.813,33.221,EL DORADO,AR
766,93993,24.1,35.2,315.7,-94.170,36.005,FAYETTEVILLE,AR
767,93997,19.3,32.3,283.0,-98.828,38.872,RUSSELL,KS
768,94008,13.3,19.5,394.6,-106.621,48.214,GLASGOW,MT
769,94012,14.7,21.0,393.3,-109.780,48.559,HAVRE,MT
770,94014,12.1,17.9,402.0,-103.642,48.195,WILLISTON,ND
771,94017,12.6,18.8,393.9,-105.574,48.094,WOLF POINT,MT
772,94023,17.7,27.7,328.0,-105.542,44.339,GILLETTE,WY
773,94030,19.6,27.2,371.8,-109.509,40.441,VERNAL,UT
774,94032,12.9,28.4,242.3,-103.628,43.731,CUSTER,SD
775,94037,15.0,25.6,316.3,-103.546,45.604,BUFFALO,SD
776,94038,13.6,21.5,361.9,-102.655,46.014,HETTINGER,ND
777,94039,16.1,25.8,331.7,-102.518,43.021,PINE RIDGE,SD
778,94040,17.9,31.1,278.7,-100.591,40.206,MC COOK,NE
779,94041,12.8,17.5,425.4,-101.439,47.663,GARRISON,ND
780,94050,15.8,22.7,382.2,-107.885,40.049,MEEKER,CO
781,94051,15.4,21.5,397.6,-106.948,47.326,JORDAN,MT
782,94052,14.5,22.0,369.9,-100.408,45.546,MOBRIDGE,SD
783,94053,18.3,32.7,262.0,-104.153,42.065,TORRINGTON,WY
784,94054,16.4,30.3,267.6,-106.721,44.381,BUFFALO,WY
785,94055,14.6,21.3,385.3,-104.250,46.358,BAKER,MT
786,94056,13.6,25.5,294.1,-102.019,45.032,FAITH,SD
787,94057,16.7,27.1,320.6,-105.386,42.797,DOUGLAS,WY
788,94107,25.3,32.6,381.0,-117.864,42.591,ROME,OR
789,94119,27.0,28.2,510.4,-117.421,47.969,DEER PARK,WA
790,94128,24.2,28.9,430.9,-111.853,41.787,LOGAN,UT
791,94129,30.9,35.6,434.0,-117.109,46.744,PULLMAN/MOSCOW,WA
792,94173,11.1,15.0,442.6,-110.421,44.544,YELLOWSTONE,WY
793,94176,28.7,32.8,445.7,-117.321,47.683,SPOKANE,WA
794,94178,26.3,32.4,404.4,-114.487,42.482,TWIN FALLS,ID
795,94182,20.3,24.6,437.7,-116.102,44.889,MCCALL,ID
796,94185,25.2,31.4,401.3,-118.954,43.592,BURNS,OR
797,94194,20.1,22.9,471.0,-111.881,43.834,REXBURG,ID
798,94197,27.2,30.7,458.1,-119.517,48.464,OMAK,WA
799,94224,41.7,46.3,440.8,-123.878,46.158,ASTORIA,OR
800,94225,43.4,46.2,477.8,-123.937,46.971,HOQUIAM,WA
801,94227,40.6,42.8,490.1,-123.148,47.238,SHELTON,WA
802,94236,28.4,37.0,360.0,-121.724,42.147,KLAMATH FALLS,OR
803,94239,28.4,32.8,438.9,-120.207,47.399,WENATCHEE,WA
804,94240,42.7,45.6,475.3,-124.561,47.934,QUILLAYUTE,WA
805,94248,41.6,44.9,466.7,-122.214,47.493,RENTON,WA
806,94261,39.2,42.7,461.8,-122.949,45.541,PORTLAND,OR
807,94266,40.4,43.3,474.7,-123.498,48.120,PORT ANGELES,WA
808,94273,39.7,44.0,445.7,-123.134,45.195,MC MINNVILLE,OR
809,94274,41.4,44.5,471.0,-122.576,47.268,TACOMA,WA
810,94276,40.6,43.4,477.2,-123.023,48.522,FRIDAY HARBOR,WA
811,94281,39.3,43.5,447.6,-122.769,45.249,AURORA,OR
812,94298,37.0,42.0,430.9,-122.657,45.621,VANCOUVER,WA
813,94299,27.6,37.8,332.9,-120.567,41.483,ALTURAS,CA
814,94623,8.7,18.6,322.4,-69.712,43.964,WISCASSET,ME
815,94624,20.5,29.7,344.0,-69.993,41.688,CHATHAM,MA
816,94626,2.1,10.2,349.6,-69.595,45.462,GREENVILLE,ME
817,94700,1.5,10.1,339.7,-71.179,44.576,BERLIN,NH
818,94702,15.4,27.6,291.0,-73.146,41.175,BRIDGEPORT,CT
819,94705,3.1,11.5,344.6,-72.579,44.203,BARRE/MONTPELIER,VT
820,94720,19.3,28.8,337.9,-70.280,41.669,HYANNIS,MA
821,94723,11.9,22.8,308.3,-71.124,42.717,LAWRENCE,MA
822,94724,18.4,29.1,317.5,-70.615,41.393,VINEYARD HAVEN,MA
823,94725,3.1,10.6,361.9,-74.846,44.936,MASSENA,NY
824,94726,16.9,26.7,331.1,-70.958,41.676,NEW BEDFORD,MA
825,94728,14.2,29.9,241.1,-73.967,40.783,NEW YORK,NY
826,94732,15.9,30.5,257.1,-75.011,40.082,PHILADELPHIA,PA
827,94741,14.2,28.4,261.4,-74.061,40.850,TETERBORO,NJ
828,94746,11.2,21.4,319.4,-71.876,42.267,WORCESTER,MA
829,94765,6.9,16.3,329.8,-72.305,43.626,LEBANON,NH
830,94789,15.8,30.7,253.4,-73.796,40.655,NEW YORK,NY
831,94790,7.4,15.4,355.7,-76.022,43.992,WATERTOWN,NY
832,94814,9.9,15.1,413.7,-84.691,44.368,HOUGHTON LAKE,MI
833,94815,14.9,21.7,383.5,-85.552,42.235,KALAMAZOO,MI
834,94817,12.8,19.3,388.4,-83.418,42.665,PONTIAC,MI
835,94818,14.5,22.1,368.1,-87.814,42.761,RACINE,WI
836,94822,14.5,20.9,391.5,-89.093,42.196,ROCKFORD,IL
837,94823,17.7,24.1,393.3,-80.231,40.501,PITTSBURGH,PA
838,94830,14.7,20.7,399.5,-83.801,41.589,TOLEDO,OH
839,94846,15.8,22.3,390.3,-87.914,41.986,CHICAGO,IL
840,94847,14.3,21.3,379.2,-83.349,42.215,DETROIT,MI
841,94849,8.9,14.3,408.7,-83.581,45.072,ALPENA,MI
842,94855,11.3,18.7,369.9,-88.557,43.984,OSHKOSH,WI
843,94860,14.4,21.2,383.5,-85.523,42.882,GRAND RAPIDS,MI
844,94870,19.9,25.0,420.5,-88.278,40.040,CHAMPAIGN/URBANA,IL
845,94871,16.4,21.9,410.6,-86.422,42.129,BENTON HARBOR,MI
846,94889,12.9,22.3,334.8,-83.744,42.223,ANN ARBOR,MI
847,94892,15.5,21.0,410.0,-88.246,41.914,CHICAGO/WEST CHICAGO,IL
848,94893,6.5,12.6,392.7,-88.114,45.818,IRON MOUNTAIN/KINGSFORD,MI
849,94895,17.7,24.4,387.2,-85.394,40.234,MUNCIE,IN
850,94898,12.3,19.7,370.5,-82.793,44.022,HARBOR BEACH,MI
851,94899,10.5,17.1,384.7,-87.875,47.467,COPPER HARBOR,MI
852,94908,14.7,19.6,422.3,-90.704,42.398,DUBUQUE,IA
853,94910,16.3,20.6,435.9,-92.401,42.554,WATERLOO,IA
854,94929,8.0,14.8,379.2,-90.919,46.549,ASHLAND,WI
855,94931,3.9,10.6,378.5,-92.839,47.387,HIBBING,MN
856,94938,8.7,14.0,410.6,-94.131,46.405,BRAINERD,MN
857,94946,17.7,28.8,310.1,-99.639,41.437,BROKEN BOW,NE
858,94949,16.4,29.0,286.1,-98.427,40.604,HASTINGS,NE
859,94950,16.3,22.4,398.3,-98.038,43.777,MITCHELL,SD
860,94957,17.3,29.2,297.2,-95.592,40.079,FALLS CITY,NE
861,94958,16.0,25.9,328.6,-98.952,41.624,ORD,NE
862,94960,12.1,19.6,368.7,-93.351,45.063,MINNEAPOLIS,MN
863,94961,2.5,8.3,396.4,-94.610,48.728,BAUDETTE,MN
864,94963,12.2,18.6,389.6,-93.470,44.832,MINNEAPOLIS,MN
865,94967,6.5,11.8,409.4,-95.068,46.901,PARK RAPIDS,MN
866,94971,15.3,19.0,448.8,-94.746,43.408,ESTHERVILLE,IA
867,94973,6.6,12.9,388.4,-91.444,46.026,HAYWARD,WI
868,94978,18.5,26.5,363.7,-96.178,41.764,TEKAMAH,NE
869,94982,15.5,21.5,400.1,-90.591,41.614,DAVENPORT,IA
870,94985,9.8,16.0,392.7,-90.189,44.637,MARSHFIELD,WI
871,94988,16.8,22.0,417.4,-92.918,42.113,MARSHALLTOWN,IA
872,94989,16.4,22.6,396.4,-93.622,41.992,AMES,IA
873,94990,16.7,27.5,314.4,-99.842,43.390,WINNER,SD
874,94991,17.8,27.2,338.5,-93.902,40.633,LAMONI,IA
875,94992,8.1,15.3,371.1,-90.344,47.747,GRAND MARAIS,MN
876,94993,13.5,18.8,413.1,-96.991,45.669,SISSETON,SD
877,94994,13.4,20.4,379.2,-90.678,43.156,BOSCOBEL,WI
