,wban,dewpt,tavg,wp,long,lat,stname,ststate
0,03013,41.5,58.3,253.4,-102.688,38.070,LAMAR,CO
1,03016,34.7,55.0,208.4,-107.726,39.526,RIFLE,CO
2,03017,35.7,56.5,204.1,-104.658,39.833,DENVER,CO
3,03024,46.9,63.1,265.7,-101.394,35.700,BORGER,TX
4,03026,38.2,56.1,238.0,-102.284,39.245,BURLINGTON,CO
5,03027,38.6,52.6,286.1,-105.663,35.003,CLINES CORNERS,NM
6,03028,42.5,57.4,277.4,-102.614,37.283,SPRINGFIELD,CO
7,03029,33.6,53.3,213.3,-109.061,35.658,WINDOW ROCK,AZ
8,03030,44.5,61.2,257.7,-101.505,36.682,GUYMON,OK
9,03031,49.7,68.1,242.9,-102.387,31.921,ODESSA,TX
10,03032,55.4,74.0,246.0,-102.213,30.048,DRYDEN,TX
11,03102,52.1,74.6,203.5,-117.600,34.056,ONTARIO,CA
12,03103,36.8,49.9,296.6,-111.672,35.140,FLAGSTAFF,AZ
13,03104,49.2,79.2,139.4,-116.160,33.628,PALM SPRINGS,CA
14,03124,47.3,66.5,231.8,-110.344,31.588,FORT HUACHUCA/SIERRA VISTA,AZ
15,03131,58.5,73.3,292.2,-117.139,32.816,SAN DIEGO,CA
16,03144,49.0,81.1,125.2,-115.579,32.834,IMPERIAL,CA
17,03145,51.6,82.2,137.5,-114.617,32.650,YUMA,AZ
18,03154,57.9,70.2,324.3,-117.350,33.300,CAMP PENDLETON,CA
19,03159,43.0,67.2,179.4,-118.219,34.741,LANCASTER,CA
20,03160,43.8,66.5,193.6,-116.028,36.621,MERCURY,NV
21,03162,42.6,63.8,207.2,-111.448,36.926,PAGE,AZ
22,03164,46.8,64.7,245.4,-116.467,32.617,CAMPO,CA
23,03166,57.7,75.6,255.3,-117.979,33.872,FULLERTON,CA
24,03167,58.9,75.7,268.8,-118.334,33.923,HAWTHORNE,CA
25,03170,33.7,52.9,218.9,-116.006,39.601,EUREKA,NV
26,03171,52.1,75.0,199.8,-117.439,33.952,RIVERSIDE,CA
27,03177,60.2,71.9,334.2,-117.279,33.128,CARLSBAD,CA
28,03178,58.1,71.4,311.4,-116.979,32.572,SAN DIEGO,CA
29,03179,54.7,74.2,235.5,-117.636,33.975,CHINO,CA
30,03184,49.0,76.1,160.9,-112.082,33.688,PHOENIX,AZ
31,03192,49.6,76.8,160.9,-111.911,33.623,SCOTTSDALE,AZ
32,03195,37.3,51.7,279.9,-112.155,35.946,GRAND CANYON,AZ
33,03196,48.1,67.5,230.6,-110.846,31.421,NOGALES,AZ
34,03757,51.5,58.2,406.9,-76.429,38.142,ST INIGOES,MD
35,03802,43.8,53.8,347.7,-80.229,39.296,CLARKSBURG,WV
36,03804,43.6,53.4,350.8,-81.439,39.345,PARKERSBURG,WV
37,03810,48.0,59.4,329.8,-81.390,35.741,HICKORY,NC
38,03811,50.3,61.2,339.1,-88.917,35.593,JACKSON,TN
39,03812,46.5,57.4,336.0,-82.538,35.432,ASHEVILLE,NC
40,03813,55.4,64.3,372.4,-83.654,32.688,MACON,GA
41,03816,47.7,60.2,313.8,-88.774,37.056,PADUCAH,KY
42,03820,56.2,64.0,390.9,-81.965,33.370,AUGUSTA,GA
43,03822,59.0,68.2,369.9,-81.202,32.119,SAVANNAH,GA
44,03847,48.5,58.5,350.8,-85.085,35.951,CROSSVILLE,TN
45,03849,46.5,57.6,332.9,-84.077,37.087,LONDON,KY
46,03853,65.3,73.5,389.6,-81.417,30.400,MAYPORT,FL
47,03856,51.3,65.1,299.6,-86.786,34.644,HUNTSVILLE,AL
48,03859,43.5,56.1,309.5,-81.208,37.296,BLUEFIELD,WV
49,03860,46.8,56.0,362.5,-82.555,38.382,HUNTINGTON,WV
50,03866,53.5,66.4,313.2,-88.567,32.550,MERIDIAN,MS
51,03868,43.6,56.5,305.2,-87.309,39.452,TERRE HAUTE,IN
52,03870,50.9,60.2,363.7,-82.219,34.899,GREER,SC
53,03872,43.1,54.2,330.5,-81.125,37.795,BECKLEY,WV
54,03878,57.4,67.1,361.3,-86.012,31.861,TROY,AL
55,03887,42.3,57.6,272.5,-88.866,39.984,DECATUR,IL
56,03888,53.1,62.8,358.8,-84.521,33.779,ATLANTA,GA
57,03889,46.8,58.3,327.4,-83.314,37.591,JACKSON,KY
58,03893,44.5,56.8,314.4,-86.617,39.144,BLOOMINGTON,IN
59,03894,49.4,60.2,339.7,-87.415,36.622,CLARKSVILLE,TN
60,03901,54.3,70.2,275.6,-94.711,32.385,LONGVIEW,TX
61,03904,56.6,74.0,260.2,-96.364,30.588,COLLEGE STATION,TX
62,03919,41.9,61.4,223.8,-97.661,38.813,SALINA,KS
63,03927,51.7,71.2,233.1,-97.041,32.896,DALLAS-FORT WORTH,TX
64,03928,43.6,62.8,228.8,-97.429,37.647,WICHITA,KS
65,03932,47.0,64.0,255.9,-99.200,35.340,CLINTON,OK
66,03935,47.3,58.6,330.5,-89.571,37.225,CAPE GIRARDEAU,MO
67,03936,43.4,58.7,273.8,-96.678,39.135,MANHATTAN,KS
68,03937,60.2,71.8,336.0,-93.228,30.125,LAKE CHARLES,LA
69,03940,53.9,68.6,289.8,-90.078,32.320,JACKSON,MS
70,03945,44.6,58.8,288.5,-92.218,38.817,COLUMBIA,MO
71,03947,44.8,58.4,296.6,-94.718,39.299,KANSAS CITY,MO
72,03949,55.6,69.4,302.7,-93.283,31.400,FORT POLK,LA
73,03950,48.0,65.8,247.9,-98.416,34.568,LAWTON,OK
74,03953,49.7,61.6,323.7,-90.646,35.831,JONESBORO,AR
75,03954,47.8,64.9,255.9,-97.647,35.534,OKLAHOMA CITY,OK
76,03957,44.0,61.7,245.4,-98.553,37.284,MEDICINE LODGE,KS
77,03959,46.9,60.0,305.2,-96.011,36.762,BARTLESVILLE,OK
78,03960,44.5,59.3,280.5,-90.157,38.571,CAHOKIA/ST.LOUIS,IL
79,03962,49.9,66.8,260.2,-93.096,34.478,HOT SPRINGS,AR
80,03963,44.5,58.5,291.0,-92.156,38.591,JEFFERSON CITY,MO
81,03965,48.3,62.5,291.6,-97.086,36.160,STILLWATER,OK
82,03966,46.0,57.9,321.2,-90.656,38.657,ST LOUIS,MO
83,03967,44.3,57.9,296.6,-94.739,38.850,OLATHE,KS
84,03971,51.8,70.8,238.0,-96.868,32.681,DALLAS,TX
85,03974,44.4,60.9,259.6,-97.219,37.750,WICHITA,KS
86,03975,48.2,59.9,325.5,-90.325,36.773,POPLAR BLUFF,MO
87,03981,48.9,67.1,244.2,-98.984,34.352,FREDERICK,OK
88,03991,52.1,68.3,270.1,-97.199,33.206,DENTON,TX
89,03994,43.8,59.8,265.1,-93.183,38.704,SEDALIA,MO
90,03996,54.9,67.8,314.4,-91.030,32.348,TALLULAH/VICKSBURG,MS
91,03997,44.2,57.1,305.8,-95.212,39.008,LAWRENCE,KS
92,03998,46.0,59.9,293.5,-95.504,37.328,PARSONS,KS
93,03999,52.5,72.6,227.5,-98.235,30.741,BURNET,TX
94,04109,46.2,56.1,350.8,-115.596,46.144,ELK CITY,ID
95,04110,38.0,56.8,227.5,-114.456,42.727,JEROME,ID
96,04111,30.1,50.1,206.6,-111.031,41.273,EVANSTON,WY
97,04112,29.1,44.6,257.7,-114.927,44.171,STANLEY,ID
98,04113,44.5,56.9,312.6,-119.261,45.826,HERMISTON,OR
99,04114,33.0,50.8,233.7,-114.215,41.523,CHALLIS,ID
100,04201,50.7,57.5,404.4,-122.861,45.773,SCAPPOOSE,OR
101,04724,41.2,50.3,360.0,-78.945,43.107,NIAGARA FALLS,NY
102,04725,38.6,48.0,353.9,-75.981,42.208,BINGHAMTON,NY
103,04726,38.7,50.5,316.9,-78.834,40.301,JOHNSTOWN,PA
104,04751,38.5,47.2,365.0,-78.640,41.803,BRADFORD,PA
105,04780,38.6,50.1,321.2,-71.756,42.552,FITCHBURG,MA
106,04781,44.3,55.1,336.0,-73.102,40.794,ISLIP,NY
107,04787,40.4,51.5,328.6,-78.899,41.178,DU BOIS,PA
108,04789,41.6,50.9,357.6,-74.265,41.509,MONTGOMERY,NY
109,04803,37.3,45.8,367.4,-89.465,45.631,RHINELANDER,WI
110,04804,43.7,55.1,326.8,-83.078,40.078,COLUMBUS,OH
111,04808,42.7,53.7,331.7,-88.481,41.770,CHICAGO/AURORA,IL
112,04826,38.3,49.4,326.8,-89.837,44.359,WISCONSIN RAPIDS,WI
113,04836,31.7,39.8,370.5,-68.307,47.286,FRENCHVILLE,ME
114,04838,43.3,54.1,335.4,-87.905,42.121,CHICAGO/PROSPECT HGTS/WHEELI,IL
115,04839,42.9,52.4,355.1,-86.097,42.746,HOLLAND,MI
116,04840,41.3,51.3,345.9,-88.486,43.770,FOND DU LAC,WI
117,04841,41.8,51.1,357.6,-87.851,43.769,SHEBOYGAN,WI
118,04842,42.5,52.3,350.2,-81.887,40.875,WOOSTER,OH
119,04843,41.0,51.7,334.8,-80.215,41.626,MEADVILLE,PA
120,04845,42.9,52.6,352.0,-87.938,42.595,KENOSHA,WI
121,04846,42.7,54.3,323.1,-87.006,41.453,VALPARAISO,IN
122,04848,42.5,55.0,310.1,-83.476,41.563,TOLEDO,OH
123,04849,42.0,53.4,325.5,-82.179,41.179,LORAIN/ELYRIA,OH
124,04850,42.9,54.6,321.8,-84.027,40.708,LIMA,OH
125,04851,42.3,54.9,308.3,-84.429,41.338,DEFIANCE,OH
126,04852,43.4,53.6,344.6,-81.420,40.470,NEW PHILADELPHIA,OH
127,04853,42.8,56.7,291.0,-81.684,41.518,CLEVELAND,OH
128,04854,41.2,46.8,421.1,-84.701,45.013,GAYLORD,MI
129,04855,41.8,54.3,309.5,-83.064,40.616,MARION,OH
130,04857,42.9,51.6,368.1,-80.696,41.778,ASHTABULA,OH
131,04858,43.4,54.5,331.1,-82.463,40.023,NEWARK,OH
136,12812,69.9,77.1,407.5,-81.991,26.917,PUNTA GORDA,FL
137,12815,65.7,76.1,356.3,-81.325,28.434,ORLANDO,FL
138,12816,63.1,72.2,374.2,-82.272,29.690,GAINESVILLE,FL
139,12818,64.9,74.3,370.5,-82.454,28.474,BROOKSVILLE,FL
140,12819,65.4,75.3,363.7,-81.810,28.821,LEESBURG,FL
141,12833,63.4,73.5,359.4,-83.105,29.550,CROSS CITY,FL
142,12834,66.1,74.9,380.4,-81.060,29.177,DAYTONA BEACH,FL
143,12835,68.9,78.6,368.7,-81.864,26.586,FORT MYERS,FL
144,12836,73.1,81.9,384.7,-81.754,24.553,KEY WEST,FL
145,12838,67.7,78.0,359.4,-80.646,28.103,MELBOURNE,FL
146,12839,70.3,80.5,362.5,-80.300,25.824,MIAMI,FL
147,12841,67.3,76.3,377.9,-81.333,28.545,ORLANDO,FL
148,12842,66.0,78.0,334.2,-82.540,27.961,TAMPA,FL
149,12843,67.5,78.6,347.7,-80.418,27.656,VERO BEACH,FL
150,12844,68.9,79.3,358.8,-80.099,26.685,WEST PALM BEACH,FL
151,12849,71.2,80.8,371.8,-80.154,26.072,FORT LAUDERDALE,FL
152,12854,65.9,75.8,363.7,-81.244,28.780,ORLANDO,FL
153,12871,67.8,77.1,374.2,-82.559,27.401,SARASOTA/BRADENTON,FL
154,12873,67.6,77.3,368.1,-82.688,27.911,ST PETERSBURG/CLEARWATER,FL
155,12876,66.8,76.8,363.1,-81.754,28.062,WINTER HAVEN,FL
156,12882,70.5,80.5,365.6,-80.280,25.907,MIAMI,FL
157,12884,64.7,74.3,367.4,-89.408,29.350,BOOTHVILLE,LA
158,12885,69.5,81.1,342.2,-80.171,26.197,FORT LAUDERDALE,FL
159,12888,71.1,81.8,355.7,-80.433,25.648,MIAMI,FL
160,12894,68.7,79.6,351.4,-81.755,26.536,FORT MYERS,FL
161,12895,68.7,77.2,386.6,-80.377,27.498,FORT PIERCE,FL
162,12896,73.8,82.5,386.6,-81.052,24.726,MARATHON,FL
163,12897,69.3,79.9,356.3,-81.775,26.153,NAPLES,FL
164,12904,69.3,79.4,363.1,-97.654,26.228,HARLINGEN,TX
165,12912,64.2,74.5,357.0,-96.930,28.863,VICTORIA,TX
166,12916,59.9,73.3,311.4,-90.251,29.993,NEW ORLEANS,LA
167,12917,62.0,72.8,348.3,-94.021,29.951,BEAUMONT/PORT ARTHUR,TX
168,12918,60.7,74.9,301.5,-95.279,29.645,HOUSTON,TX
169,12919,69.7,78.1,388.4,-97.426,25.906,BROWNSVILLE,TX
170,12921,57.2,75.7,248.5,-98.464,29.533,SAN ANTONIO,TX
171,12923,66.4,75.2,381.0,-94.860,29.265,GALVESTON,TX
172,12924,66.9,76.3,371.8,-97.513,27.773,CORPUS CHRISTI,TX
173,12928,69.5,78.6,377.9,-97.817,27.500,KINGSVILLE,TX
174,12932,65.7,77.6,335.4,-98.027,27.741,ALICE,TX
175,12935,66.7,74.9,390.3,-96.251,28.728,PALACIOS,TX
176,12947,61.7,78.7,268.8,-99.220,28.458,COTULLA,TX
177,12957,70.2,78.8,385.9,-97.346,26.166,PORT ISABEL,TX
178,12959,67.7,80.7,322.4,-98.238,26.175,MC ALLEN,TX
179,12960,60.0,73.3,312.6,-95.364,29.993,HOUSTON,TX
180,12962,57.2,74.2,265.1,-99.174,29.359,HONDO,TX
181,12968,64.6,72.1,400.1,-91.526,29.562,SALT POINT,LA
182,12970,57.9,76.6,247.2,-98.471,29.337,SAN ANTONIO,TX
183,12971,57.2,75.1,255.3,-98.045,29.709,NEW BRAUNFELS,TX
184,12972,68.1,76.1,393.9,-97.046,28.084,ROCKPORT,TX
185,12975,61.3,74.7,312.6,-95.240,29.521,HOUSTON,TX
186,12976,65.0,73.9,378.5,-95.462,29.110,ANGLETON/LAKE JACKSON,TX
187,12977,61.8,73.6,334.2,-95.656,29.622,HOUSTON,TX
188,13721,48.7,58.4,355.7,-76.400,38.283,PATUXENT RIVER,MD
189,13722,51.5,60.4,369.9,-78.786,35.871,RALEIGH/DURHAM,NC
190,13723,48.0,59.5,328.6,-79.944,36.098,GREENSBORO,NC
191,13728,49.0,59.0,351.4,-79.336,36.573,DANVILLE,VA
192,13729,40.5,51.9,324.3,-79.853,38.885,ELKINS,WV
193,13733,46.2,55.4,361.9,-79.207,37.338,LYNCHBURG,VA
194,13734,43.3,53.4,345.9,-77.984,39.402,MARTINSBURG,WV
195,13735,46.4,54.8,374.8,-75.078,39.366,MILLVILLE,NJ
196,13736,41.4,55.6,286.1,-79.916,39.643,MORGANTOWN,WV
197,13737,52.4,62.8,347.7,-76.192,36.904,NORFOLK,VA
198,13739,44.1,58.5,285.5,-75.231,39.868,PHILADELPHIA,PA
199,13740,49.0,57.6,373.6,-77.323,37.511,RICHMOND,VA
200,13741,46.1,57.3,331.1,-79.974,37.317,ROANOKE,VA
201,13743,47.6,58.9,331.1,-77.034,38.865,WASHINGTON,DC
202,13744,55.6,64.9,366.2,-79.731,34.188,FLORENCE,SC
203,13748,57.5,65.5,388.4,-77.906,34.268,WILMINGTON,NC
204,13750,53.0,63.2,350.8,-76.283,36.933,NORFOLK,VA
205,13752,49.4,57.5,381.6,-76.483,38.991,ANNAPOLIS,MD
206,13754,57.4,65.6,384.7,-76.883,34.900,CHERRY POINT,NC
207,13762,53.4,66.0,316.9,-76.136,36.695,FENTRESS,VA
208,13764,47.5,56.6,364.4,-75.359,38.689,GEORGETOWN,DE
209,13769,52.9,65.6,315.0,-76.033,36.817,OCEANA,VA
210,13773,48.3,58.1,353.9,-77.300,38.500,QUANTICO,VA
211,13776,54.4,64.4,355.1,-79.059,34.610,LUMBERTON,NC
212,13781,45.7,55.8,347.7,-75.601,39.673,WILMINGTON,DE
213,13786,54.2,63.0,373.6,-76.175,36.261,ELIZABETH CITY,NC
214,13809,45.0,58.6,296.6,-87.606,38.764,LAWRENCEVILLE,IL
215,13810,47.2,59.7,313.8,-85.664,38.228,LOUISVILLE,KY
216,13833,56.6,69.3,318.1,-89.253,31.265,HATTIESBURG,MS
217,13837,55.3,66.4,339.7,-82.039,33.467,AUGUSTA,GA
218,13838,60.4,70.7,354.5,-88.068,30.626,MOBILE,AL
219,13839,58.3,68.3,357.6,-85.450,31.321,DOTHAN,AL
220,13841,44.6,55.1,340.9,-83.822,39.420,WILMINGTON,OH
221,13865,54.8,65.8,340.3,-88.751,32.333,MERIDIAN,MS
222,13866,46.3,57.1,337.2,-81.591,38.379,CHARLESTON,WV
223,13869,57.6,69.0,336.6,-84.194,31.536,ALBANY,GA
224,13870,59.8,68.3,381.6,-82.507,31.536,ALMA,GA
225,13871,53.7,64.4,344.0,-85.858,33.588,ANNISTON,AL
226,13873,53.7,62.2,377.9,-83.327,33.948,ATHENS,GA
227,13874,53.0,64.1,337.9,-84.427,33.640,ATLANTA,GA
228,13876,53.8,65.3,332.9,-86.754,33.564,BIRMINGHAM,AL
229,13877,48.2,58.0,353.9,-82.399,36.480,BRISTOL/JHNSN CTY/KNGSPRT,TN
230,13878,63.3,70.2,409.4,-81.391,31.252,BRUNSWICK,GA
231,13880,58.5,67.3,376.1,-80.041,32.899,CHARLESTON,SC
232,13881,49.4,60.4,336.6,-80.944,35.214,CHARLOTTE,NC
233,13882,53.0,63.1,352.7,-85.200,35.033,CHATTANOOGA,TN
234,13883,53.7,64.6,340.9,-81.118,33.942,COLUMBIA,SC
235,13884,58.9,68.4,365.6,-86.523,30.780,CRESTVIEW,FL
236,13886,49.0,61.6,313.8,-82.346,34.846,GREENVILLE,SC
237,13889,63.3,70.9,397.6,-81.693,30.494,JACKSONVILLE,FL
238,13891,51.0,60.7,357.6,-83.986,35.818,KNOXVILLE,TN
239,13893,50.4,66.3,271.9,-89.985,35.061,MEMPHIS,TN
240,13894,59.7,69.4,363.1,-88.246,30.688,MOBILE,AL
241,13895,55.9,67.8,328.6,-86.394,32.301,MONTGOMERY,AL
242,13896,50.3,63.3,308.9,-87.610,34.745,MUSCLE SHOALS,AL
243,13897,49.0,61.9,309.5,-86.689,36.119,NASHVILLE,TN
244,13899,59.6,71.3,334.2,-87.188,30.473,PENSACOLA,FL
245,13904,56.6,71.9,284.8,-97.681,30.179,AUSTIN/BERGSTROM,TX
246,13911,52.2,72.1,229.4,-97.441,32.769,FORT WORTH,TX
247,13920,44.6,59.4,281.1,-95.664,38.950,TOPEKA,KS
248,13927,53.5,68.6,284.8,-90.223,32.335,JACKSON,MS
249,13932,44.8,61.7,255.3,-97.037,37.168,WINFIELD/ARKANSAS CITY,KS
250,13935,55.6,70.9,283.6,-92.296,31.395,ALEXANDRIA,LA
251,13939,51.6,67.6,271.9,-90.986,33.483,GREENVILLE,MS
252,13942,54.1,68.8,290.4,-92.038,32.511,MONROE,LA
253,13957,53.5,70.5,262.0,-93.824,32.447,SHREVEPORT,LA
254,13958,56.1,74.6,247.2,-97.767,30.317,AUSTIN/CITY,TX
255,13959,53.1,71.9,241.7,-97.229,31.611,WACO,TX
256,13960,52.5,71.8,235.5,-96.851,32.847,DALLAS,TX
257,13961,52.0,71.7,231.2,-97.361,32.819,FORT WORTH,TX
258,13962,50.2,69.1,238.0,-99.682,32.411,ABILENE,TX
259,13963,50.5,66.4,272.5,-92.233,34.747,LITTLE ROCK,AR
260,13964,49.1,65.5,265.1,-94.365,35.334,FORT SMITH,AR
261,13966,49.0,67.1,245.4,-98.493,33.979,WICHITA FALLS,TX
262,13967,48.4,64.3,270.7,-97.600,35.389,OKLAHOMA CITY,OK
263,13968,50.0,63.4,303.3,-95.886,36.198,TULSA,OK
264,13969,46.4,62.2,270.1,-97.100,36.731,PONCA CITY,OK
265,13970,58.0,71.3,311.4,-91.147,30.537,BATON ROUGE,LA
266,13971,48.3,60.4,320.0,-93.155,36.261,HARRISON,AR
267,13972,53.1,70.9,252.8,-95.402,32.354,TYLER,TX
268,13973,51.9,70.9,238.6,-99.766,30.511,JUNCTION,TX
269,13975,46.5,61.7,277.4,-99.775,36.297,GAGE,OK
270,13976,60.0,72.3,326.1,-91.988,30.205,LAFAYETTE,LA
271,13977,52.0,67.9,273.8,-94.008,33.454,TEXARKANA,AR
272,13978,52.1,67.8,276.2,-90.084,33.496,GREENWOOD,MS
273,13981,46.1,60.3,289.8,-95.484,37.670,CHANUTE,KS
274,13984,41.0,59.0,239.2,-97.652,39.549,CONCORDIA,KS
275,13985,42.3,58.5,261.4,-99.970,37.773,DODGE CITY,KS
276,13986,42.3,61.1,231.8,-97.861,38.068,HUTCHINSON,KS
277,13987,46.9,60.5,298.4,-94.498,37.149,JOPLIN,MO
278,13988,45.0,60.4,273.8,-94.593,39.123,KANSAS CITY,MO
279,13989,43.0,59.0,264.5,-96.190,38.331,EMPORIA,KS
280,13993,43.6,56.9,299.6,-94.907,39.774,ST JOSEPH,MO
281,13994,44.5,61.1,258.3,-90.374,38.753,ST LOUIS,MO
282,13995,45.1,59.7,283.6,-93.390,37.240,SPRINGFIELD,MO
283,13996,44.2,58.7,284.2,-95.626,39.073,TOPEKA,KS
284,13997,44.2,58.4,288.5,-91.769,38.128,ROLLA/VICHY,MO
285,14605,36.8,46.8,342.8,-69.797,44.321,AUGUSTA,ME
286,14606,36.9,45.6,363.7,-68.824,44.808,BANGOR,ME
287,14607,32.9,41.7,359.4,-68.033,46.867,CARIBOU,ME
288,14609,33.8,41.7,375.5,-67.792,46.123,HOULTON,ME
289,14610,34.7,44.6,342.8,-68.686,45.648,MILLINOCKET,ME
290,14702,38.4,49.5,326.8,-71.289,42.470,BEDFORD,MA
291,14707,45.8,53.1,393.3,-72.049,41.328,GROTON NEW LONDON,CT
292,14710,38.1,51.1,299.0,-71.438,42.933,MANCHESTER,NH
293,14711,44.3,55.0,337.2,-76.763,40.194,HARRISBURG,PA
294,14712,42.7,54.1,325.5,-75.959,40.373,READING,PA
295,14719,43.4,52.8,357.0,-72.632,40.844,WESTHAMPTON BEACH,NY
296,14732,42.7,58.4,268.2,-73.881,40.779,NEW YORK,NY
297,14733,41.0,51.4,339.7,-78.736,42.941,BUFFALO,NY
298,14734,43.2,57.2,289.8,-74.169,40.716,NEWARK,NJ
299,14735,39.0,49.8,331.7,-73.803,42.748,ALBANY,NY
300,14736,41.0,51.7,334.8,-78.317,40.300,ALTOONA,PA
301,14737,41.9,53.3,325.5,-75.449,40.651,ALLENTOWN,PA
302,14739,41.4,54.0,307.7,-71.011,42.361,BOSTON,MA
303,14740,40.2,52.0,318.1,-72.683,41.938,WINDSOR LOCKS,CT
304,14742,36.1,47.8,316.3,-73.150,44.468,BURLINGTON,VT
305,14745,37.2,48.0,330.5,-71.501,43.195,CONCORD,NH
306,14747,41.8,51.5,350.8,-79.272,42.493,DUNKIRK,NY
307,14748,41.3,49.0,383.5,-76.892,42.159,ELMIRA/CORNING,NY
308,14750,37.4,47.3,344.6,-73.610,43.341,GLENS FALLS,NY
309,14751,42.9,54.9,317.5,-76.851,40.217,HARRISBURG,PA
310,14752,42.1,53.2,329.8,-72.651,41.736,HARTFORD,CT
311,14753,40.9,51.5,336.6,-71.115,42.212,MILTON,MA
312,14756,47.2,55.7,373.6,-70.061,41.253,NANTUCKET,MA
313,14757,40.4,51.8,324.3,-73.884,41.627,POUGHKEEPSIE,NY
314,14758,43.6,53.0,357.0,-72.887,41.264,NEW HAVEN,CT
315,14762,39.7,53.6,288.5,-79.922,40.355,PITTSBURGH,PA
316,14763,38.1,46.5,369.9,-73.289,42.427,PITTSFIELD,MA
317,14764,39.3,49.0,349.6,-70.304,43.642,PORTLAND,ME
318,14765,42.4,53.7,327.4,-71.433,41.722,PROVIDENCE,RI
319,14768,40.9,51.0,344.0,-77.677,43.117,ROCHESTER,NY
320,14770,42.5,52.4,348.3,-76.864,40.821,SELINSGROVE,PA
321,14771,41.1,49.9,365.0,-76.103,43.109,SYRACUSE,NY
322,14775,39.5,49.8,340.3,-72.716,42.158,WESTFIELD/SPRINGFIELD,MA
323,14777,39.7,52.5,303.3,-75.727,41.339,WILKES-BARRE/SCRANTON,PA
324,14778,41.7,52.8,329.2,-76.922,41.243,WILLIAMSPORT,PA
325,14787,44.7,55.0,344.0,-71.284,41.530,NEWPORT,RI
326,14792,43.5,55.3,320.6,-74.814,40.277,TRENTON,NJ
327,14794,43.7,52.7,363.7,-71.799,41.350,WESTERLY,RI
328,14813,43.2,54.2,332.3,-81.464,41.038,AKRON,OH
329,14815,42.9,52.5,353.3,-85.251,42.308,BATTLE CREEK,MI
330,14819,41.7,56.7,275.6,-87.752,41.786,CHICAGO,IL
331,14820,42.5,54.6,315.7,-81.853,41.405,CLEVELAND,OH
332,14821,43.7,55.5,320.6,-82.881,39.991,COLUMBUS,OH
333,14822,41.8,54.1,312.0,-83.010,42.409,DETROIT,MI
334,14825,42.9,55.7,305.8,-83.669,41.014,FINDLAY,OH
335,14826,42.0,53.8,319.4,-83.749,42.967,FLINT,MI
336,14827,42.7,54.3,323.1,-85.206,41.006,FORT WAYNE,IN
337,14829,42.3,53.4,329.8,-85.792,41.527,GOSHEN,IN
338,14835,42.4,54.8,311.4,-86.937,40.412,LAFAYETTE,IN
339,14836,42.2,51.9,351.4,-84.579,42.780,LANSING,MI
340,14837,41.2,51.6,339.7,-89.345,43.141,MADISON,WI
341,14839,42.3,53.9,322.4,-87.897,42.947,MILWAUKEE,WI
342,14840,42.2,51.9,351.4,-86.237,43.171,MUSKEGON,MI
343,14841,40.4,46.7,408.1,-84.796,45.571,PELLSTON,MI
344,14842,42.9,58.3,271.9,-89.684,40.668,PEORIA,IL
345,14845,42.4,52.9,339.1,-84.080,43.533,SAGINAW,MI
346,14847,38.3,46.5,373.0,-84.367,46.467,SAULT STE MARIE,MI
347,14848,41.8,52.8,331.1,-86.333,41.707,SOUTH BEND,IN
348,14850,41.7,50.5,365.6,-85.583,44.741,TRAVERSE CITY,MI
349,14852,42.8,52.1,358.2,-80.674,41.254,YOUNGSTOWN/WARREN,OH
350,14853,42.4,56.1,293.5,-83.230,42.237,DETROIT,MI
351,14858,37.1,45.6,367.4,-88.506,47.169,HANCOCK,MI
352,14860,41.2,53.9,305.8,-80.183,42.080,ERIE,PA
353,14880,43.8,52.5,368.7,-87.868,42.422,CHICAGO/WAUKEGAN,IL
354,14891,42.9,53.5,337.9,-82.518,40.820,MANSFIELD,OH
355,14894,42.6,54.5,318.7,-80.647,40.176,WHEELING,WV
356,14895,42.4,53.8,325.5,-81.443,40.918,AKRON,OH
357,14897,39.4,48.8,353.9,-89.627,44.929,WAUSAU,WI
358,14898,41.9,50.0,377.3,-88.120,44.513,GREEN BAY,WI
359,14910,38.7,49.5,331.7,-95.393,45.883,ALEXANDRIA,MN
360,14913,37.8,46.3,368.1,-92.194,46.844,DULUTH,MN
361,14914,37.0,50.8,287.3,-96.811,46.925,FARGO,ND
362,14916,36.5,48.1,318.1,-97.176,47.949,GRAND FORKS,ND
363,14918,35.9,43.4,384.1,-93.403,48.566,INTERNATIONAL FALLS,MN
364,14919,35.8,48.0,308.9,-98.678,46.930,JAMESTOWN,ND
365,14920,40.7,52.9,312.6,-91.256,43.754,LA CROSSE,WI
366,14921,40.6,50.7,344.0,-90.181,43.212,LONE ROCK,WI
367,14922,39.8,52.1,310.7,-93.229,44.883,MINNEAPOLIS,MN
368,14923,42.4,55.7,299.0,-90.523,41.465,MOLINE,IL
369,14925,39.3,50.5,326.1,-92.492,43.904,ROCHESTER,MN
370,14926,38.9,48.6,349.0,-94.052,45.545,ST CLOUD,MN
371,14927,40.8,51.3,337.9,-93.048,44.930,ST PAUL,MN
372,14929,37.0,50.8,287.3,-98.421,45.450,ABERDEEN,SD
373,14931,43.8,55.8,318.1,-91.125,40.783,BURLINGTON,IA
374,14933,41.1,56.4,271.3,-93.666,41.538,DES MOINES,IA
375,14935,40.5,56.6,260.8,-98.313,40.958,GRAND ISLAND,NE
376,14936,39.0,52.0,300.3,-98.229,44.385,HURON,SD
377,14937,42.8,54.2,326.1,-91.543,41.633,IOWA CITY,IA
378,14938,41.5,55.6,287.3,-92.543,40.097,KIRKSVILLE,MO
379,14939,42.2,57.1,277.4,-96.764,40.831,LINCOLN,NE
380,14940,40.1,50.6,337.2,-93.331,43.158,MASON CITY,IA
381,14941,40.6,55.8,272.5,-97.437,41.981,NORFOLK,NE
382,14942,42.9,57.4,283.0,-95.899,41.310,OMAHA,NE
383,14943,41.4,54.4,302.1,-96.379,42.391,SIOUX CITY,IA
384,14944,39.9,52.8,302.1,-96.754,43.577,SIOUX FALLS,SD
385,14946,38.2,51.4,296.6,-97.154,44.931,WATERTOWN,SD
386,14950,43.0,54.0,331.7,-92.448,41.107,OTTUMWA,IA
387,14972,38.6,52.4,288.5,-95.202,43.164,SPENCER,IA
388,14990,43.6,53.0,357.0,-91.709,41.884,CEDAR RAPIDS,IA
389,14991,39.1,49.6,336.6,-91.485,44.865,EAU CLAIRE,WI
390,14992,39.0,52.6,291.6,-95.082,44.547,REDWOOD FALLS,MN
391,21504,70.1,78.6,387.2,-155.051,19.723,HILO,HI
392,21510,70.6,82.9,333.5,-156.049,19.736,KAILUA/KONA,HI
393,22010,58.6,75.3,270.1,-100.922,29.367,DEL RIO,TX
394,22516,69.2,79.0,367.4,-156.433,20.902,KAHULUI,HI
395,22521,69.5,81.6,335.4,-157.943,21.328,HONOLULU,HI
396,22534,69.6,77.4,397.6,-157.099,21.157,KAUNAKAKAI,HI
397,22536,68.7,78.0,374.8,-159.341,21.979,LIHUE,HI
398,22551,68.2,79.2,349.6,-158.067,21.317,KAPOLEI,HI
399,23007,47.7,66.1,241.1,-100.288,34.434,CHILDRESS,TX
400,23009,48.7,64.0,278.1,-104.541,33.308,ROSWELL,NM
401,23023,51.0,67.6,264.5,-102.208,31.932,MIDLAND,TX
402,23034,52.0,70.4,244.8,-100.494,31.351,SAN ANGELO,TX
403,23040,51.8,68.0,270.1,-103.201,31.780,WINK,TX
404,23042,48.4,64.1,273.1,-101.821,33.668,LUBBOCK,TX
405,23044,47.5,68.3,215.8,-106.376,31.811,EL PASO,TX
406,23047,46.4,61.2,282.4,-101.706,35.219,AMARILLO,TX
407,23049,38.5,55.4,249.7,-106.089,35.617,SANTA FE,NM
408,23050,40.2,61.4,204.7,-106.616,35.042,ALBUQUERQUE,NM
409,23051,43.1,58.1,276.8,-103.154,36.446,CLAYTON,NM
410,23052,39.1,54.7,265.7,-104.502,36.741,RATON,NM
411,23054,37.5,53.4,260.8,-105.143,35.654,LAS VEGAS,NM
412,23055,46.6,62.1,273.8,-104.809,31.831,GUADALUPE PASS,TX
413,23061,32.5,49.2,246.6,-105.866,37.436,ALAMOSA,CO
414,23064,42.4,59.1,255.3,-100.725,37.927,GARDEN CITY,KS
415,23065,40.1,56.4,258.3,-101.693,39.368,GOODLAND,KS
416,23066,38.4,57.1,228.8,-108.538,39.134,GRAND JUNCTION,CO
417,23070,38.3,58.5,212.7,-104.341,37.259,TRINIDAD,CO
418,23078,46.3,62.0,271.3,-107.721,32.262,DEMING,NM
419,23081,34.6,53.0,228.8,-108.789,35.511,GALLUP,NM
420,23090,37.6,53.9,255.9,-108.229,36.744,FARMINGTON,NM
421,23091,52.7,68.5,275.6,-102.912,30.915,FORT STOCKTON,TX
422,23110,48.0,69.5,209.0,-119.950,36.333,LEMOORE,CA
423,23129,59.3,75.8,272.5,-118.163,33.828,LONG BEACH,CA
424,23130,50.8,75.5,182.5,-118.489,34.210,VAN NUYS,CA
425,23136,56.3,72.8,270.1,-119.083,34.217,CAMARILLO,CA
426,23152,51.9,73.9,207.8,-118.359,34.201,BURBANK,CA
427,23153,38.9,57.0,236.2,-117.087,38.060,TONOPAH,NV
428,23154,33.0,50.7,234.9,-114.845,39.295,ELY,NV
429,23155,50.1,72.6,201.6,-119.056,35.434,BAKERSFIELD,CA
430,23157,36.8,61.2,171.4,-118.363,37.373,BISHOP,CA
431,23158,50.1,79.4,145.5,-114.717,33.619,BLYTHE,CA
432,23159,34.0,47.3,291.6,-112.146,37.706,BRYCE CANYON,UT
433,23160,49.9,73.6,190.5,-110.955,32.131,TUCSON,AZ
434,23161,43.0,72.4,137.5,-116.787,34.854,DAGGETT,CA
435,23169,43.3,74.2,127.7,-115.155,36.079,LAS VEGAS,NV
436,23174,59.5,74.0,297.2,-118.406,33.938,LOS ANGELES,CA
437,23176,35.4,56.6,199.8,-113.028,38.443,MILFORD,UT
438,23179,48.4,79.6,130.1,-114.623,34.766,NEEDLES,CA
439,23182,43.5,67.9,178.2,-118.084,34.629,PALMDALE,CA
440,23183,51.0,79.4,152.9,-111.990,33.443,PHOENIX,AZ
441,23184,42.2,60.4,238.0,-112.421,34.652,PRESCOTT,AZ
442,23185,37.1,59.9,186.2,-119.771,39.484,RENO,NV
443,23187,40.4,65.3,170.8,-118.724,34.744,SANDBERG,CA
444,23188,60.6,74.4,307.0,-117.169,32.735,SAN DIEGO,CA
445,23190,57.5,70.5,315.0,-119.844,34.426,SANTA BARBARA,CA
446,23191,52.1,70.6,244.2,-118.416,33.405,AVALON,CA
447,23194,41.5,59.4,241.1,-110.722,35.022,WINSLOW,AZ
448,23199,45.3,79.7,106.7,-115.667,32.817,EL CENTRO,CA
449,23213,50.6,66.2,276.2,-122.812,38.509,SANTA ROSA,CA
450,23225,36.0,59.5,178.2,-120.708,39.292,EMIGRANT GAP,CA
451,23230,54.9,64.2,366.2,-122.221,37.755,OAKLAND,CA
452,23232,50.4,69.9,231.8,-121.493,38.513,SACRAMENTO,CA
453,23233,54.2,66.4,323.1,-121.605,36.663,SALINAS,CA
454,23234,54.8,65.6,343.4,-122.398,37.620,SAN FRANCISCO,CA
455,23237,49.6,70.0,221.4,-121.237,37.894,STOCKTON,CA
456,23244,54.7,67.3,318.1,-122.048,37.415,MOUNTAIN VIEW,CA
457,23254,49.8,69.6,228.1,-122.052,37.992,CONCORD,CA
458,23257,51.1,68.9,250.9,-120.513,37.285,MERCED,CA
459,23258,49.5,71.0,210.3,-120.953,37.626,MODESTO,CA
460,23259,54.5,64.4,356.3,-121.845,36.588,MONTEREY,CA
461,23273,57.0,68.7,332.3,-120.465,34.916,SANTA MARIA,CA
462,23275,47.5,66.3,236.2,-123.201,39.126,UKIAH,CA
463,23277,53.7,67.0,307.7,-121.789,36.936,WATSONVILLE,CA
464,23285,49.2,70.9,208.4,-121.817,37.694,LIVERMORE,CA
465,23293,54.0,67.7,302.7,-121.928,37.362,SAN JOSE,CA
466,24011,36.3,48.9,303.3,-100.748,46.774,BISMARCK,ND
467,24012,34.4,48.4,282.4,-102.802,46.797,DICKINSON,ND
468,24013,35.4,47.7,307.0,-101.281,48.259,MINOT,ND
469,24015,37.9,55.3,242.9,-103.232,40.172,AKRON,CO
470,24017,38.2,52.7,279.3,-103.095,42.838,CHADRON,NE
471,24018,34.8,52.3,239.2,-104.807,41.158,CHEYENNE,WY
472,24021,31.5,52.5,197.9,-108.733,42.817,LANDER,WY
473,24022,31.9,48.3,249.7,-105.674,41.313,LARAMIE,WY
474,24023,39.5,54.0,280.5,-100.668,41.122,NORTH PLATTE,NE
475,24024,39.2,52.6,294.7,-101.601,44.051,PHILIP,SD
476,24025,39.0,52.7,290.4,-100.286,44.383,PIERRE,SD
477,24027,30.5,51.3,199.2,-109.065,41.594,ROCK SPRINGS,WY
478,24028,39.3,53.9,278.7,-103.595,41.874,SCOTTSBLUFF,NE
479,24029,34.7,51.1,252.2,-106.976,44.774,SHERIDAN,WY
480,24030,38.8,52.5,290.4,-102.985,41.101,SIDNEY,NE
481,24032,38.6,52.6,286.1,-100.551,42.859,VALENTINE,NE
482,24033,35.5,53.5,234.3,-108.543,45.808,BILLINGS,MT
483,24036,33.1,49.5,250.3,-109.467,47.049,LEWISTOWN,MT
484,24037,36.2,52.4,255.9,-105.886,46.428,MILES CITY,MT
485,24044,38.3,50.8,306.4,-102.800,42.057,ALLIANCE,NE
486,24046,32.8,50.1,239.2,-107.521,40.495,CRAIG,CO
487,24048,32.9,52.3,215.8,-108.082,44.517,GREYBULL,WY
488,24057,30.8,50.8,207.8,-107.200,41.806,RAWLINS,WY
489,24061,31.5,52.5,197.9,-108.459,43.064,RIVERTON,WY
490,24062,33.3,51.9,225.1,-107.951,43.966,WORLAND,WY
491,24089,32.6,51.4,222.0,-106.473,42.898,CASPER,WY
492,24090,39.4,51.5,313.2,-103.054,44.046,RAPID CITY,SD
493,24091,39.0,55.5,254.6,-101.620,40.510,IMPERIAL,NE
494,24110,41.0,56.5,268.8,-119.319,47.208,MOSES LAKE,WA
495,24121,34.0,53.7,214.0,-115.792,40.825,ELKO,NV
496,24126,40.1,58.6,233.1,-112.011,41.196,OGDEN,UT
497,24127,41.3,60.5,226.3,-111.968,40.787,SALT LAKE CITY,UT
498,24128,36.5,54.5,234.9,-117.807,40.902,WINNEMUCCA,NV
499,24130,37.8,50.5,303.3,-117.810,44.838,BAKER CITY,OR
500,24131,40.4,59.7,224.4,-116.220,43.565,BOISE,ID
501,24132,35.5,48.5,297.2,-111.152,45.794,BOZEMAN,MT
502,24133,39.2,55.2,260.8,-113.772,42.543,BURLEY,ID
503,24135,31.4,46.6,263.9,-112.513,45.953,BUTTE,MT
504,24137,31.5,46.7,263.9,-112.376,48.608,CUT BANK,MT
505,24138,33.2,50.5,239.8,-112.552,45.255,DILLON,MT
506,24141,40.5,57.7,247.9,-119.514,47.304,EPHRATA,WA
507,24143,34.0,48.6,274.4,-111.382,47.473,GREAT FALLS,MT
508,24144,34.4,51.3,246.0,-111.964,46.606,HELENA,MT
509,24145,38.7,51.6,300.9,-112.067,43.516,IDAHO FALLS,ID
510,24146,37.0,47.0,342.8,-114.264,48.304,KALISPELL,MT
511,24149,42.1,59.3,249.1,-117.014,46.375,LEWISTON,ID
512,24150,33.3,50.6,239.8,-110.448,45.699,LIVINGSTON,MT
513,24152,37.2,49.1,314.4,-118.425,45.511,MEACHAM,OR
514,24153,36.2,48.9,302.1,-114.093,46.921,MISSOULA,MT
515,24154,33.4,45.1,313.8,-115.645,47.457,MULLAN PASS,ID
516,24155,42.2,56.3,287.9,-118.834,45.698,PENDLETON,OR
517,24156,39.2,54.3,272.5,-112.571,42.920,POCATELLO,ID
518,24157,39.9,54.3,281.8,-117.528,47.621,SPOKANE,WA
519,24160,44.1,58.7,283.0,-118.287,46.095,WALLA WALLA,WA
520,24162,40.5,57.3,252.8,-117.013,44.021,ONTARIO,OR
521,24163,45.4,57.4,319.4,-119.118,46.265,PASCO,WA
522,24164,29.7,45.5,254.6,-110.108,42.584,BIG PINEY,WY
523,24172,36.5,56.4,214.0,-118.565,40.066,LOVELOCK,NV
524,24215,40.2,57.1,250.9,-122.333,41.333,MOUNT SHASTA,CA
525,24216,46.0,69.9,185.0,-122.254,40.152,RED BLUFF,CA
526,24217,48.9,54.5,424.8,-122.537,48.794,BELLINGHAM,WA
527,24219,45.7,59.4,295.9,-121.167,45.619,THE DALLES,OR
528,24221,49.1,58.1,366.8,-123.214,44.133,EUGENE,OR
529,24222,49.0,56.1,398.3,-122.280,47.908,EVERETT,WA
530,24225,43.9,61.9,241.7,-122.871,42.389,MEDFORD,OR
531,24227,50.1,54.5,447.6,-122.903,46.973,OLYMPIA,WA
532,24229,52.0,60.1,383.5,-122.600,45.591,PORTLAND,OR
533,24230,37.4,51.7,281.1,-121.150,44.254,REDMOND,OR
534,24231,49.3,62.0,312.6,-123.355,43.239,ROSEBURG,OR
535,24232,49.7,59.0,362.5,-122.995,44.908,SALEM,OR
536,24233,50.6,57.2,408.1,-122.314,47.461,SEATTLE,WA
537,24234,50.6,59.3,373.0,-122.301,47.530,SEATTLE,WA
538,24235,41.2,56.7,268.8,-123.381,42.617,SEXTON SUMMIT,OR
539,24237,39.0,47.3,371.8,-121.337,47.293,STAMPEDE PASS,WA
540,24242,50.2,60.1,353.9,-122.400,45.549,PORTLAND,OR
541,24243,41.5,57.9,258.3,-120.534,46.564,YAKIMA,WA
542,24257,45.0,70.0,174.5,-122.313,40.515,REDDING,CA
543,24259,38.2,58.1,215.8,-122.468,41.781,MONTAGUE,CA
544,24283,53.1,57.2,455.0,-124.109,40.978,ARCATA/EUREKA,CA
545,24284,54.8,58.4,464.8,-124.250,43.417,NORTH BEND,OR
546,24286,53.4,57.7,451.3,-124.237,41.780,CRESCENT CITY,CA
547,25308,44.3,51.3,397.6,-131.570,55.043,ANNETTE,AK
548,25309,41.1,44.6,462.4,-134.575,58.355,JUNEAU,AK
549,25331,33.3,41.0,378.5,-149.092,61.596,PALMER,AK
550,25333,45.4,48.9,464.2,-135.360,57.048,SITKA,AK
551,25335,38.9,46.2,389.0,-135.313,59.460,SKAGWAY,AK
552,25339,40.3,44.0,458.1,-139.628,59.510,YAKUTAT,AK
553,25501,41.9,45.5,460.5,-152.492,57.750,KODIAK,AK
554,25503,36.6,42.8,408.1,-156.654,58.684,KING SALMON,AK
555,25506,36.4,43.1,398.3,-154.915,59.753,ILIAMNA,AK
556,25507,38.9,42.9,451.3,-151.477,59.647,HOMER,AK
557,25516,40.8,42.9,492.0,-151.702,59.443,SELDOVIA,AK
558,25624,40.7,42.5,498.7,-162.722,55.207,COLD BAY,AK
559,25628,38.3,41.7,463.6,-169.565,56.600,ST. GEORGE ISLAND,AK
560,25713,37.6,41.6,451.3,-170.220,57.163,ST PAUL ISLAND,AK
561,26409,34.8,41.3,401.3,-149.855,61.217,ANCHORAGE,AK
562,26410,38.0,43.4,423.5,-145.451,60.489,CORDOVA,AK
563,26411,25.3,31.8,395.8,-147.855,64.817,FAIRBANKS,AK
564,26412,24.3,29.1,429.1,-141.946,62.961,NORTHWAY,AK
565,26415,26.5,31.9,418.0,-145.718,63.995,DELTA JUNCTION/FT GREELY,AK
566,26422,23.2,28.7,414.3,-141.148,64.777,EAGLE,AK
567,26425,26.0,32.4,398.3,-145.458,62.160,GULKANA,AK
568,26435,24.5,31.4,387.8,-149.072,64.550,NENANA,AK
569,26438,38.0,44.3,406.9,-149.417,60.128,SEWARD,AK
570,26451,36.0,40.4,442.6,-149.993,61.175,ANCHORAGE,AK
571,26491,35.7,41.5,414.9,-149.961,61.179,ANCHORAGE,AK
572,26492,37.6,41.7,448.8,-148.839,60.785,PORTAGE GLACIER,AK
573,26502,27.5,32.9,418.6,-158.742,64.327,KALTAG,AK
574,26510,28.2,33.8,414.9,-155.603,62.953,MC GRATH,AK
575,26523,36.7,41.2,440.8,-151.239,60.580,KENAI,AK
576,26529,22.1,28.8,390.3,-152.107,65.174,TANANA,AK
577,26533,19.2,25.2,402.0,-151.509,66.916,BETTLES,AK
578,26615,33.3,37.5,445.1,-161.826,60.786,BETHEL,AK
579,26616,24.1,30.5,397.0,-162.597,66.885,KOTZEBUE,AK
580,26617,29.0,34.3,421.1,-165.443,64.513,NOME,AK
581,26642,23.7,29.0,418.6,-164.548,67.732,KIVALINA,AK
582,27406,17.0,19.9,467.9,-148.477,70.192,DEADHORSE,AK
583,27502,18.2,20.6,479.6,-156.763,71.287,BARROW,AK
584,27503,18.1,21.2,463.6,-159.995,70.639,WAINWRIGHT,AK
585,27515,16.7,20.3,451.9,-151.002,70.212,NUIQSUT,AK
586,53119,54.2,69.8,279.3,-119.629,36.319,HANFORD,CA
587,53121,59.4,70.4,344.0,-117.349,33.219,OCEANSIDE,CA
588,53123,43.8,72.6,143.1,-115.196,36.212,LAS VEGAS,NV
589,53146,45.4,65.4,222.0,-110.428,31.607,FORT HUACHUCA,AZ
590,53802,42.7,56.9,286.7,-88.280,39.478,MATTOON/CHARLESTON,IL
591,53819,54.5,62.0,394.6,-84.567,33.355,ATLANTA,GA
592,53820,57.7,67.2,365.0,-87.044,31.416,EVERGREEN,AL
593,53838,51.7,61.5,356.3,-83.830,34.272,GAINESVILLE,GA
594,53841,46.3,57.3,334.2,-84.903,38.185,FRANKFORT,KY
595,53842,43.6,56.1,310.7,-86.296,39.825,INDIANAPOLIS,IN
596,53844,43.4,54.5,331.1,-82.657,39.756,LANCASTER,OH
597,53847,59.4,71.0,335.4,-87.023,30.704,MILTON,FL
598,53848,58.5,70.6,328.0,-86.960,30.507,MILTON,FL
599,53850,51.8,63.6,326.8,-82.886,34.672,CLEMSON,SC
600,53852,51.8,61.8,353.3,-86.945,34.653,DECATUR,AL
601,53853,61.7,72.2,352.7,-86.472,30.400,DESTIN,FL
602,53854,56.0,65.3,366.8,-80.858,33.462,ORANGEBURG,SC
603,53855,45.0,55.8,336.6,-84.525,39.364,HAMILTON,OH
604,53858,60.3,69.0,378.5,-88.532,30.464,PASCAGOULA,MS
605,53859,43.5,56.1,309.5,-84.226,39.594,DAYTON,OH
606,53860,64.2,73.0,379.2,-81.515,30.336,JACKSONVILLE,FL
607,53861,57.9,68.3,351.4,-85.751,31.356,FORT RUCKER/OZARK,AL
608,53863,54.2,62.5,381.6,-84.302,33.875,ATLANTA,GA
609,53864,54.1,66.0,327.4,-86.782,33.178,ALABASTER,AL
610,53865,61.3,69.9,381.0,-89.821,30.345,SLIDELL,LA
611,53866,44.1,57.8,294.7,-85.803,39.578,SHELBYVILLE,IN
612,53867,55.2,64.9,360.0,-80.996,33.971,COLUMBIA,SC
613,53868,50.5,61.3,340.3,-84.233,36.023,OAK RIDGE,TN
614,53869,50.5,63.7,306.4,-89.831,35.940,BLYTHEVILLE,AR
615,53870,50.0,60.5,344.6,-81.156,35.197,GASTONIA,NC
616,53871,51.7,60.2,376.7,-81.058,34.987,ROCK HILL,SC
617,53872,51.2,61.3,351.4,-80.621,35.017,MONROE,NC
618,53873,53.7,61.1,395.8,-84.849,34.123,CARTERSVILLE,GA
619,53874,53.0,61.2,382.2,-82.159,34.249,GREENWOOD,SC
620,53879,43.8,58.8,277.4,-94.371,38.960,LEE'S SUMMIT,MO
621,53901,44.9,59.6,282.4,-91.903,36.878,WEST PLAINS,MO
622,53902,56.7,70.7,300.9,-95.414,30.352,CONROE,TX
623,53903,56.6,72.1,282.4,-95.587,30.747,HUNTSVILLE,TX
624,53904,46.2,57.9,324.3,-90.428,38.929,ST CHARLES,MO
625,53905,53.5,69.7,271.3,-93.744,32.540,SHREVEPORT,LA
626,53907,50.7,71.8,215.8,-97.094,32.664,ARLINGTON,TX
627,53908,49.1,63.3,292.2,-95.984,36.039,TULSA,OK
628,53909,51.9,68.9,260.8,-97.318,32.973,FORT WORTH,TX
629,53910,59.3,72.9,308.3,-95.553,30.062,HOUSTON,TX
630,53911,53.2,69.9,265.1,-96.267,32.710,TERRELL,TX
631,53912,53.6,72.2,244.2,-96.398,32.027,CORSICANA,TX
632,53913,47.2,64.1,257.7,-97.416,35.850,GUTHRIE,OK
633,53914,52.4,68.9,267.0,-96.590,33.180,MC KINNEY,TX
634,53915,60.9,72.4,337.9,-91.884,30.038,NEW IBERIA,LA
635,53916,44.6,57.8,302.1,-93.579,39.823,CHILLICOTHE,MO
636,53917,62.2,72.8,351.4,-90.028,30.043,NEW ORLEANS,LA
637,53918,47.8,60.8,307.0,-92.470,36.369,MOUNTAIN HOME,AR
638,53919,52.5,67.9,279.9,-91.751,33.638,MONTICELLO,AR
639,53920,50.0,64.0,295.9,-93.095,35.258,RUSSELLVILLE,AR
640,53921,49.9,65.0,281.8,-93.578,34.547,MOUNT IDA,AR
641,53922,49.1,61.3,319.4,-94.307,36.282,FAYETTEVILLE/SPRINGDALE,AR
642,53925,52.6,65.8,308.3,-94.399,34.047,DE QUEEN,AR
643,53959,51.7,63.7,324.3,-90.234,35.135,WEST MEMPHIS,AR
644,53988,55.5,70.4,288.5,-92.967,31.150,FORT POLK,LA
645,54704,40.4,49.4,361.3,-71.174,42.191,NORWOOD,MA
646,54728,34.3,43.9,347.1,-71.545,44.368,WHITEFIELD,NH
647,54733,39.7,50.6,331.1,-70.918,42.584,BEVERLY,MA
648,54734,38.7,51.2,307.0,-73.483,41.371,DANBURY,CT
649,54737,44.2,53.0,366.8,-76.294,40.120,LANCASTER,PA
650,54740,36.8,46.1,353.9,-72.518,43.344,SPRINGFIELD,VT
651,54742,34.6,45.5,327.4,-72.019,44.419,SAINT JOHNSBURY,VT
652,54743,41.0,54.3,297.8,-74.283,40.876,CALDWELL,NJ
653,54756,38.3,47.2,361.3,-72.291,42.570,ORANGE,MA
654,54757,38.4,49.5,326.8,-77.992,42.109,WELLSVILLE,NY
655,54767,40.7,52.0,325.5,-72.184,41.742,WILLIMANTIC,CT
656,54768,38.6,47.5,361.9,-73.171,42.696,NORTH ADAMS,MA
657,54769,44.0,52.2,376.7,-70.729,41.910,PLYMOUTH,MA
658,54770,37.9,46.7,363.1,-72.004,42.805,JAFFREY,NH
659,54771,35.5,45.6,340.3,-72.614,44.534,MORRISVILLE,VT
660,54772,36.0,45.6,348.3,-70.948,43.991,FRYEBURG,ME
661,54773,39.8,49.0,357.6,-76.385,43.350,FULTON,NY
662,54777,41.8,51.7,347.7,-71.021,41.876,TAUNTON,MA
663,54778,40.5,50.6,344.0,-77.056,42.643,PENN YAN,NY
664,54779,41.8,51.1,357.6,-74.737,41.009,ANDOVER,NJ
665,54780,46.0,56.6,340.3,-71.923,41.073,MONTAUK,NY
666,54781,38.4,46.9,368.1,-73.247,42.891,BENNINGTON,VT
667,54782,44.1,52.6,371.8,-75.557,40.238,POTTSTOWN,PA
668,54785,41.5,53.0,323.7,-74.669,40.624,SOMERVILLE,NJ
669,54787,44.2,56.3,316.9,-73.417,40.734,FARMINGDALE,NY
670,54788,40.9,52.8,316.9,-72.828,41.510,MERIDEN,CT
671,54789,38.4,48.4,344.0,-75.379,41.139,MOUNT POCONO,PA
672,54790,45.0,53.9,366.2,-72.869,40.822,SHIRLEY,NY
673,54791,37.9,48.8,329.8,-70.922,43.278,ROCHESTER,NH
674,54792,40.4,50.2,348.3,-78.412,41.047,CLEARFIELD,PA
675,54793,40.2,50.3,343.4,-74.623,41.200,SUSSEX,NJ
676,54813,40.6,49.6,361.3,-86.651,46.429,MUNISING,MI
678,63870,58.3,69.7,337.2,-86.312,31.043,FLORALA,AL
679,63871,59.5,69.3,361.3,-85.601,30.846,BONIFAY,FL
680,63872,57.9,67.6,361.9,-85.129,31.951,EUFAULA,AL
681,63874,55.6,67.4,329.8,-86.611,31.846,GREENVILLE,AL
682,64775,39.9,47.5,384.7,-75.412,43.234,ROME,NY
683,64776,36.8,45.7,360.7,-73.468,44.651,PLATTSBURG,NY
684,73805,60.3,70.7,353.3,-85.788,30.349,PANAMA CITY,FL
685,92805,69.8,81.0,347.7,-80.108,26.250,POMPANO BEACH,FL
686,92806,68.3,78.9,355.1,-82.628,27.765,ST PETERSBURG,FL
687,92809,70.0,80.8,353.9,-80.241,25.999,HOLLYWOOD,FL
688,93005,37.1,50.9,287.3,-107.760,37.143,DURANGO,CO
689,93009,25.2,40.8,252.8,-106.316,39.228,LEADVILLE,CO
690,93010,37.1,52.3,269.4,-103.716,39.189,LIMON,CO
691,93013,37.0,55.1,234.3,-107.898,38.505,MONTROSE,CO
692,93026,46.5,66.0,228.1,-109.604,31.469,DOUGLAS BISBEE,AZ
693,93027,39.1,57.4,234.3,-109.379,34.518,ST JOHNS,AZ
694,93033,51.5,65.0,303.3,-104.263,32.338,CARLSBAD,NM
695,93037,35.8,55.3,217.7,-104.711,38.812,COLORADO SPRINGS,CO
696,93042,45.6,61.0,274.4,-102.547,36.023,DALHART,TX
697,93045,42.8,64.0,207.2,-107.268,33.237,TRUTH OR CONSEQUENCES,NM
698,93058,37.7,59.4,197.3,-104.498,38.290,PUEBLO,CO
699,93067,36.1,55.7,217.0,-104.849,39.570,DENVER,CO
700,93069,37.6,54.2,252.2,-108.628,37.303,CORTEZ,CO
701,93073,30.8,48.4,234.3,-106.868,39.223,ASPEN,CO
702,93075,39.6,59.3,219.5,-109.754,38.755,MOAB,UT
703,93084,48.2,62.9,285.5,-109.635,32.855,SAFFORD,AZ
704,93102,38.0,59.6,198.6,-118.700,39.417,FALLON,NV
705,93104,42.1,68.8,157.3,-117.683,35.683,CHINA LAKE,CA
706,93107,56.8,75.2,249.1,-117.150,32.867,MIRAMAR,CA
707,93110,58.2,70.6,323.7,-119.206,34.201,OXNARD,CA
708,93115,60.8,72.6,333.5,-117.117,32.567,IMPERIAL BEACH,CA
709,93129,36.0,54.7,226.9,-113.097,37.702,CEDAR CITY,UT
710,93134,56.8,75.6,244.8,-118.296,34.028,LOS ANGELES,CA
711,93138,47.7,81.1,115.3,-116.505,33.828,PALM SPRINGS,CA
712,93141,34.4,55.7,197.9,-110.750,39.545,PRICE,UT
713,93167,43.2,66.8,185.0,-113.937,35.259,KINGMAN,AZ
714,93184,59.7,73.9,300.9,-117.866,33.680,SANTA ANA,CA
715,93193,52.1,71.3,236.2,-119.719,36.780,FRESNO,CA
716,93197,58.4,73.4,289.8,-118.451,34.016,SANTA MONICA,CA
717,93205,48.3,68.8,219.5,-121.570,39.098,MARYSVILLE,CA
718,93206,54.3,71.2,263.9,-120.641,35.237,SAN LUIS OBISPO,CA
719,93209,48.3,68.7,220.1,-120.627,35.673,PASO ROBLES,CA
720,93210,48.3,70.0,207.2,-121.618,39.490,OROVILLE,CA
721,93225,49.4,68.5,234.9,-121.590,38.696,SACRAMENTO,CA
722,93227,52.3,64.0,328.6,-122.280,38.213,NAPA,CA
723,93228,54.5,66.2,330.5,-122.121,37.659,HAYWARD,CA
724,93230,33.2,51.1,233.1,-119.995,38.894,SOUTH LAKE TAHOE,CA
725,93241,48.2,69.7,209.0,-121.961,38.377,VACAVILLE,CA
726,93242,52.6,69.7,260.2,-120.111,36.988,MADERA,CA
727,93706,44.2,55.2,332.9,-77.730,39.708,HAGERSTOWN,MD
728,93718,58.4,66.3,390.3,-78.721,33.816,NORTH MYRTLE BEACH,SC
729,93719,56.1,64.7,377.9,-77.047,35.068,NEW BERN,NC
730,93720,49.5,56.9,393.3,-75.510,38.341,SALISBURY,MD
731,93721,45.7,55.3,355.1,-76.684,39.172,BALTIMORE,MD
732,93727,56.0,64.8,374.8,-77.433,34.700,NEW RIVER,NC
733,93729,60.1,66.9,409.4,-75.623,35.232,CAPE HATTERAS,NC
734,93730,46.3,55.8,357.6,-74.457,39.458,ATLANTIC CITY,NJ
735,93736,45.2,56.9,323.7,-78.453,38.139,CHARLOTTESVILLE,VA
736,93738,44.8,55.2,342.2,-77.448,38.935,WASHINGTON,DC
737,93739,51.4,59.0,391.5,-75.496,37.941,WALLOPS ISLAND,VA
738,93740,53.1,63.4,349.6,-78.880,34.991,FAYETTEVILLE,NC
739,93741,52.3,60.2,386.6,-76.493,37.132,NEWPORT NEWS,VA
740,93759,52.6,61.2,375.5,-77.893,35.855,ROCKY MOUNT,NC
741,93762,42.9,53.0,345.9,-77.43333,39.73333,SITE R,PA
742,93765,60.1,65.7,429.7,-76.661,34.734,BEAUFORT,NC
743,93773,50.9,60.0,366.8,-77.007,36.984,WAKEFIELD,VA
744,93775,49.2,57.1,384.7,-77.434,37.708,RICHMOND/ASHLAND,VA
745,93778,43.2,51.9,368.1,-76.874,39.918,YORK,PA
746,93780,44.4,54.2,351.4,-74.841,39.941,MOUNT HOLLY,NJ
747,93782,51.9,62.3,347.1,-79.366,34.792,MAXTON,NC
748,93783,49.2,58.6,360.7,-79.477,36.047,BURLINGTON,NC
749,93784,45.4,58.8,299.6,-76.610,39.281,BALTIMORE,MD
750,93785,49.3,60.0,340.9,-79.064,35.933,CHAPEL HILL,NC
751,93786,50.2,57.7,392.1,-75.124,38.308,OCEAN CITY,MD
752,93801,53.2,61.8,376.1,-85.161,34.348,ROME,GA
753,93805,60.1,72.2,328.6,-84.353,30.393,TALLAHASSEE,FL
754,93806,53.8,65.8,325.5,-87.616,33.212,TUSCALOOSA,AL
755,93807,47.6,59.0,329.2,-80.222,36.134,WINSTON SALEM,NC
756,93808,49.1,60.2,334.8,-86.436,36.981,BOWLING GREEN,KY
757,93810,46.4,57.9,327.4,-89.250,37.780,CARBONDALE/MURPHYBORO,IL
758,93812,47.6,55.9,377.3,-84.419,39.103,CINCINNATI,OH
759,93814,45.6,57.1,326.8,-84.672,39.043,COVINGTON,KY
760,93815,44.0,55.8,321.2,-84.219,39.906,DAYTON,OH
761,93817,47.0,60.0,306.4,-87.537,38.043,EVANSVILLE,IN
762,93819,42.6,57.0,284.2,-86.272,39.710,INDIANAPOLIS,IN
763,93820,46.8,57.7,336.0,-84.606,38.041,LEXINGTON,KY
764,93821,47.0,61.2,290.4,-85.730,38.177,LOUISVILLE,KY
765,93822,44.1,57.2,302.7,-89.684,39.845,SPRINGFIELD,IL
766,93824,43.9,54.6,337.2,-81.892,39.944,ZANESVILLE,OH
767,93831,60.4,68.2,392.7,-80.717,32.483,BEAUFORT,SC
768,93837,63.3,76.6,315.0,-81.683,30.233,JACKSONVILLE,FL
769,93841,58.3,68.8,350.2,-87.022,30.724,MILTON,FL
770,93842,54.7,66.5,329.2,-84.942,32.516,COLUMBUS,GA
771,93846,51.6,61.0,362.5,-82.709,34.495,ANDERSON,SC
772,93862,52.1,64.3,321.8,-88.771,34.261,TUPELO,MS
773,93874,59.9,70.8,345.3,-89.070,30.407,GULFPORT,MS
774,93909,44.6,58.1,297.8,-94.890,38.831,OLATHE,KS
775,93915,55.7,69.8,299.0,-92.559,31.335,ALEXANDRIA,LA
776,93919,56.5,70.2,304.6,-90.472,31.178,MCCOMB,MS
777,93950,50.9,65.0,295.3,-95.783,34.899,MC ALESTER,OK
778,93953,49.8,63.6,298.4,-95.361,35.657,MUSKOGEE,OK
779,93967,46.6,60.7,291.6,-95.566,37.091,COFFEYVILLE,KS
780,93985,50.8,69.2,243.5,-98.061,32.782,MINERAL WELLS,TX
781,93986,48.8,65.0,267.0,-99.051,35.008,HOBART,OK
782,93987,55.5,70.1,292.2,-94.750,31.234,LUFKIN,TX
783,93988,51.0,65.3,292.9,-91.935,34.175,PINE BLUFF,AR
784,93989,42.6,57.0,284.2,-91.194,39.943,QUINCY,IL
785,93990,41.5,59.3,241.7,-99.830,39.376,HILL CITY,KS
786,93992,51.7,66.8,283.0,-92.813,33.221,EL DORADO,AR
787,93993,49.8,59.2,361.3,-94.170,36.005,FAYETTEVILLE,AR
788,93997,42.6,59.9,248.5,-98.828,38.872,RUSSELL,KS
789,94008,34.9,50.0,268.2,-106.621,48.214,GLASGOW,MT
790,94012,35.5,47.5,311.4,-109.780,48.559,HAVRE,MT
791,94014,36.1,47.9,315.0,-103.642,48.195,WILLISTON,ND
792,94017,35.7,49.4,287.9,-105.574,48.094,WOLF POINT,MT
793,94023,35.6,50.2,275.6,-105.542,44.339,GILLETTE,WY
794,94030,36.3,54.5,232.5,-109.509,40.441,VERNAL,UT
795,94032,32.9,47.8,269.4,-103.628,43.731,CUSTER,SD
796,94037,35.3,50.7,265.1,-103.546,45.604,BUFFALO,SD
797,94038,34.5,47.1,302.1,-102.655,46.014,HETTINGER,ND
798,94039,36.8,51.0,281.8,-102.518,43.021,PINE RIDGE,SD
799,94040,40.2,57.7,244.2,-100.591,40.206,MC COOK,NE
800,94041,36.2,48.0,315.0,-101.439,47.663,GARRISON,ND
801,94050,33.1,51.3,229.4,-107.885,40.049,MEEKER,CO
802,94051,36.4,49.3,299.0,-106.948,47.326,JORDAN,MT
803,94052,39.3,52.8,293.5,-100.408,45.546,MOBRIDGE,SD
804,94053,37.7,53.9,257.1,-104.153,42.065,TORRINGTON,WY
805,94054,33.1,52.6,215.2,-106.721,44.381,BUFFALO,WY
806,94055,34.4,48.9,275.6,-104.250,46.358,BAKER,MT
807,94056,35.3,46.5,323.1,-102.019,45.032,FAITH,SD
808,94057,35.3,52.2,246.6,-105.386,42.797,DOUGLAS,WY
809,94107,37.0,57.1,212.7,-117.864,42.591,ROME,OR
810,94119,39.1,52.0,301.5,-117.421,47.969,DEER PARK,WA
811,94128,39.7,53.8,285.5,-111.853,41.787,LOGAN,UT
812,94129,39.7,54.9,271.3,-117.109,46.744,PULLMAN/MOSCOW,WA
813,94173,30.1,40.5,331.7,-110.421,44.544,YELLOWSTONE,WY
814,94176,41.6,55.2,294.1,-117.321,47.683,SPOKANE,WA
815,94178,37.4,58.5,202.9,-114.487,42.482,TWIN FALLS,ID
816,94182,35.0,48.5,289.8,-116.102,44.889,MCCALL,ID
817,94185,30.5,51.3,199.2,-118.954,43.592,BURNS,OR
818,94194,37.4,51.2,287.9,-111.881,43.834,REXBURG,ID
819,94197,38.8,54.8,260.8,-119.517,48.464,OMAK,WA
820,94224,52.8,58.1,432.2,-123.878,46.158,ASTORIA,OR
821,94225,52.1,57.2,435.2,-123.937,46.971,HOQUIAM,WA
822,94227,50.1,54.3,451.9,-123.148,47.238,SHELTON,WA
823,94236,37.6,52.4,275.0,-121.724,42.147,KLAMATH FALLS,OR
824,94239,41.3,58.4,249.7,-120.207,47.399,WENATCHEE,WA
825,94240,51.4,55.5,454.4,-124.561,47.934,QUILLAYUTE,WA
826,94248,50.9,57.4,410.0,-122.214,47.493,RENTON,WA
827,94261,49.8,56.7,402.6,-122.949,45.541,PORTLAND,OR
828,94266,48.0,53.0,435.9,-123.498,48.120,PORT ANGELES,WA
829,94273,50.2,58.1,385.3,-123.134,45.195,MC MINNVILLE,OR
830,94274,51.1,56.1,437.1,-122.576,47.268,TACOMA,WA
831,94276,48.7,53.9,432.2,-123.023,48.522,FRIDAY HARBOR,WA
832,94281,50.6,58.1,392.7,-122.769,45.249,AURORA,OR
833,94298,51.3,58.5,398.3,-122.657,45.621,VANCOUVER,WA
834,94299,35.5,53.2,237.4,-120.567,41.483,ALTURAS,CA
835,94623,38.4,46.9,368.1,-69.712,43.964,WISCASSET,ME
836,94624,46.0,53.2,395.2,-69.993,41.688,CHATHAM,MA
837,94626,33.3,42.2,358.2,-69.595,45.462,GREENVILLE,ME
838,94700,33.1,42.9,343.4,-71.179,44.576,BERLIN,NH
839,94702,44.1,55.8,322.4,-73.146,41.175,BRIDGEPORT,CT
840,94704,41.2,51.1,347.7,-77.713,42.571,DANSVILLE,NY
841,94705,34.8,43.6,360.7,-72.579,44.203,BARRE/MONTPELIER,VT
842,94720,44.9,52.7,384.1,-70.280,41.669,HYANNIS,MA
843,94723,39.8,51.0,326.8,-71.124,42.717,LAWRENCE,MA
844,94724,45.0,52.3,392.7,-70.615,41.393,VINEYARD HAVEN,MA
845,94725,36.1,45.1,358.2,-74.846,44.936,MASSENA,NY
846,94726,43.5,52.2,368.1,-70.958,41.676,NEW BEDFORD,MA
847,94728,41.6,58.0,258.3,-73.967,40.783,NEW YORK,NY
848,94732,42.3,56.7,284.2,-75.011,40.082,PHILADELPHIA,PA
849,94740,34.7,40.8,408.7,-74.207,44.385,SARANAC LAKE,NY
850,94741,41.0,56.5,268.8,-74.061,40.850,TETERBORO,NJ
851,94745,41.9,53.3,325.5,-73.708,41.067,WHITE PLAINS,NY
852,94746,38.0,49.4,322.4,-71.876,42.267,WORCESTER,MA
853,94765,37.1,46.7,349.6,-72.305,43.626,LEBANON,NH
854,94789,43.5,57.8,286.1,-73.796,40.655,NEW YORK,NY
855,94790,38.2,46.7,368.1,-76.022,43.992,WATERTOWN,NY
856,94814,40.6,47.3,400.7,-84.691,44.368,HOUGHTON LAKE,MI
857,94815,42.3,52.5,343.4,-85.552,42.235,KALAMAZOO,MI
858,94817,41.9,52.2,341.6,-83.418,42.665,PONTIAC,MI
859,94818,41.9,53.8,318.1,-87.814,42.761,RACINE,WI
860,94822,42.5,54.1,322.4,-89.093,42.196,ROCKFORD,IL
861,94823,42.2,53.9,321.2,-80.231,40.501,PITTSBURGH,PA
862,94830,42.5,53.4,332.9,-83.801,41.589,TOLEDO,OH
863,94846,42.9,54.7,320.0,-87.914,41.986,CHICAGO,IL
864,94847,42.2,54.5,312.6,-83.349,42.215,DETROIT,MI
865,94849,40.4,48.5,376.1,-83.581,45.072,ALPENA,MI
866,94855,41.4,51.1,350.8,-88.557,43.984,OSHKOSH,WI
867,94860,43.2,52.1,365.0,-85.523,42.882,GRAND RAPIDS,MI
868,94870,42.5,56.4,291.0,-88.278,40.040,CHAMPAIGN/URBANA,IL
869,94871,42.9,52.8,349.0,-86.422,42.129,BENTON HARBOR,MI
870,94889,41.6,51.2,352.7,-83.744,42.223,ANN ARBOR,MI
871,94892,41.9,53.6,320.6,-88.246,41.914,CHICAGO/WEST CHICAGO,IL
872,94893,37.5,46.5,359.4,-88.114,45.818,IRON MOUNTAIN/KINGSFORD,MI
873,94895,42.7,52.6,348.3,-85.394,40.234,MUNCIE,IN
874,94898,43.4,52.0,369.9,-82.793,44.022,HARBOR BEACH,MI
875,94899,38.9,47.7,363.7,-87.875,47.467,COPPER HARBOR,MI
876,94908,40.6,52.0,324.3,-90.704,42.398,DUBUQUE,IA
877,94910,40.6,51.9,325.5,-92.401,42.554,WATERLOO,IA
878,94929,39.2,46.0,398.3,-90.919,46.549,ASHLAND,WI
879,94931,35.7,43.5,378.5,-92.839,47.387,HIBBING,MN
880,94938,37.8,47.0,356.3,-94.131,46.405,BRAINERD,MN
881,94946,40.4,54.6,284.8,-99.639,41.437,BROKEN BOW,NE
882,94949,40.1,57.5,245.4,-98.427,40.604,HASTINGS,NE
883,94950,39.8,54.1,283.0,-98.038,43.777,MITCHELL,SD
884,94957,42.9,57.2,286.1,-95.592,40.079,FALLS CITY,NE
885,94958,40.9,53.7,304.6,-98.952,41.624,ORD,NE
886,94960,39.9,52.2,310.7,-93.351,45.063,MINNEAPOLIS,MN
887,94961,36.1,45.5,352.0,-94.610,48.728,BAUDETTE,MN
888,94963,40.3,52.8,308.3,-93.470,44.832,MINNEAPOLIS,MN
889,94967,36.6,47.9,322.4,-95.068,46.901,PARK RAPIDS,MN
890,94971,39.4,50.2,332.3,-94.746,43.408,ESTHERVILLE,IA
891,94973,37.7,45.7,376.1,-91.444,46.026,HAYWARD,WI
892,94978,41.9,55.8,290.4,-96.178,41.764,TEKAMAH,NE
893,94982,42.0,53.9,318.1,-90.591,41.614,DAVENPORT,IA
894,94985,38.3,49.0,332.9,-90.189,44.637,MARSHFIELD,WI
895,94988,41.5,52.7,328.0,-92.918,42.113,MARSHALLTOWN,IA
896,94989,41.8,53.0,328.0,-93.622,41.992,AMES,IA
897,94990,39.3,55.1,263.9,-99.842,43.390,WINNER,SD
898,94991,42.9,55.7,305.8,-93.902,40.633,LAMONI,IA
899,94992,37.8,45.7,377.9,-90.344,47.747,GRAND MARAIS,MN
900,94993,37.6,50.7,297.2,-96.991,45.669,SISSETON,SD
901,94994,41.0,52.4,324.3,-90.678,43.156,BOSCOBEL,WI
